[{"id":"B113211200555","name":"世田谷区立山野小学校","categoryId":"elementary","categoryLabel":"小学","lat":35.643535,"lng":139.613346,"stationId":"station-004024","note":"東京都世田谷区砧6-7-1","count":1,"level":"detail"},{"id":"B113211200485","name":"世田谷区立明正小学校","categoryId":"elementary","categoryLabel":"小学","lat":35.635439,"lng":139.599127,"stationId":"station-004036","note":"東京都世田谷区成城3-3-1","count":1,"level":"detail"},{"id":"B113211200476","name":"世田谷区立砧小学校","categoryId":"elementary","categoryLabel":"小学","lat":35.631741,"lng":139.605507,"stationId":"station-004036","note":"東京都世田谷区喜多見6-9-1","count":1,"level":"detail"},{"id":"B113211200467","name":"世田谷区立祖師谷小学校","categoryId":"elementary","categoryLabel":"小学","lat":35.645836,"lng":139.604481,"stationId":"station-004024","note":"東京都世田谷区祖師谷3-49-1","count":1,"level":"detail"},{"id":"B113211200261","name":"世田谷区立笹原小学校","categoryId":"elementary","categoryLabel":"小学","lat":35.645351,"lng":139.621267,"stationId":"station-003988","note":"東京都世田谷区桜丘5-19-1","count":1,"level":"detail"},{"id":"B113311200054","name":"東京都市大学付属小学校","categoryId":"elementary","categoryLabel":"小学","lat":35.632791,"lng":139.603321,"stationId":"station-004036","note":"東京都世田谷区成城1-12-1","count":1,"level":"detail"},{"id":"D113311200265","name":"サレジアン国際学園世田谷高等学校","categoryId":"high_school","categoryLabel":"高中","lat":35.633194,"lng":139.614324,"stationId":"station-004024","note":"東京都世田谷区大蔵2-8-1","count":1,"level":"detail"},{"id":"D113311200121","name":"成城学園高等学校","categoryId":"high_school","categoryLabel":"高中","lat":35.64536,"lng":139.601053,"stationId":"station-004036","note":"東京都世田谷区成城6-1-20","count":1,"level":"detail"},{"id":"D113311200256","name":"東京都市大学付属高等学校","categoryId":"high_school","categoryLabel":"高中","lat":35.633801,"lng":139.603021,"stationId":"station-004036","note":"東京都世田谷区成城1-13-1","count":1,"level":"detail"},{"id":"D113311200274","name":"科学技術学園高等学校","categoryId":"high_school","categoryLabel":"高中","lat":35.632773,"lng":139.602656,"stationId":"station-004036","note":"東京都世田谷区成城1-11-1","count":1,"level":"detail"},{"id":"C113311200187","name":"サレジアン国際学園世田谷中学校","categoryId":"junior_high","categoryLabel":"中学","lat":35.632607,"lng":139.614935,"stationId":"station-004024","note":"東京都世田谷区大蔵2-8-1","count":1,"level":"detail"},{"id":"C113211200269","name":"世田谷区立喜多見中学校","categoryId":"junior_high","categoryLabel":"中学","lat":35.625563,"lng":139.594017,"stationId":"station-004053","note":"東京都世田谷区喜多見4-20-1","count":1,"level":"detail"},{"id":"C113211200205","name":"世田谷区立砧中学校","categoryId":"junior_high","categoryLabel":"中学","lat":35.633578,"lng":139.600856,"stationId":"station-004036","note":"東京都世田谷区成城1-10-1","count":1,"level":"detail"},{"id":"C113311200105","name":"成城学園中学校","categoryId":"junior_high","categoryLabel":"中学","lat":35.645384,"lng":139.600785,"stationId":"station-004036","note":"東京都世田谷区成城6-1-20","count":1,"level":"detail"},{"id":"C113311200178","name":"東京都市大学付属中学校","categoryId":"junior_high","categoryLabel":"中学","lat":35.633459,"lng":139.603306,"stationId":"station-004036","note":"東京都世田谷区成城1-13-1","count":1,"level":"detail"},{"id":"A113311200519","name":"あけぼの幼稚園","categoryId":"kindergarten","categoryLabel":"幼稚园","lat":35.642146,"lng":139.61042,"stationId":"station-004024","note":"東京都世田谷区砧6-20-11","count":1,"level":"detail"},{"id":"A113311200154","name":"ゆかり文化幼稚園","categoryId":"kindergarten","categoryLabel":"幼稚园","lat":35.638459,"lng":139.605285,"stationId":"station-004036","note":"東京都世田谷区砧7-15-14","count":1,"level":"detail"},{"id":"A113211200085","name":"世田谷区立桜丘幼稚園","categoryId":"kindergarten","categoryLabel":"幼稚园","lat":35.643246,"lng":139.624965,"stationId":"station-003988","note":"東京都世田谷区桜丘5-2-19","count":1,"level":"detail"},{"id":"A113211200067","name":"世田谷区立砧幼稚園","categoryId":"kindergarten","categoryLabel":"幼稚园","lat":35.631482,"lng":139.604301,"stationId":"station-004036","note":"東京都世田谷区喜多見6-9-11","count":1,"level":"detail"},{"id":"A113311200341","name":"慶元寺幼稚園","categoryId":"kindergarten","categoryLabel":"幼稚园","lat":35.626689,"lng":139.594733,"stationId":"station-004053","note":"東京都世田谷区喜多見4-17-2","count":1,"level":"detail"},{"id":"A113311200074","name":"成城幼稚園","categoryId":"kindergarten","categoryLabel":"幼稚园","lat":35.644919,"lng":139.602943,"stationId":"station-004036","note":"東京都世田谷区祖師谷3-52-38","count":1,"level":"detail"},{"id":"A113311200528","name":"春光幼稚園","categoryId":"kindergarten","categoryLabel":"幼稚园","lat":35.648772,"lng":139.619995,"stationId":"station-003988","note":"東京都世田谷区船橋1-36-7","count":1,"level":"detail"},{"id":"A113321900021","name":"狛江みずほ幼稚園","categoryId":"kindergarten","categoryLabel":"幼稚园","lat":35.626538,"lng":139.590253,"stationId":"station-004053","note":"東京都狛江市岩戸南4-14-1","count":1,"level":"detail"},{"id":"H213311200050","name":"成城国際文化学校","categoryId":"other","categoryLabel":"其他","lat":35.63624,"lng":139.599068,"stationId":"station-004036","note":"東京都世田谷区成城2-8-15","count":1,"level":"detail"},{"id":"B113311200036","name":"成城学園初等学校","categoryId":"other","categoryLabel":"其他","lat":35.645761,"lng":139.603146,"stationId":"station-004024","note":"東京都世田谷区祖師谷3-52-38","count":1,"level":"detail"},{"id":"F113310103126","name":"成城大学","categoryId":"university","categoryLabel":"大学","lat":35.64247,"lng":139.601044,"stationId":"station-004036","note":"東京都世田谷区成城6-1-20","count":1,"level":"detail"},{"id":"F113310103395","name":"日本大学","categoryId":"university","categoryLabel":"大学","lat":35.635853,"lng":139.60884,"stationId":"station-004024","note":"東京都世田谷区砧5-2-1","count":1,"level":"detail"}]
