[{"id":"B113211400090","name":"中野区立江原小学校","categoryId":"elementary","categoryLabel":"小学","lat":35.729424,"lng":139.673319,"stationId":"station-003367","note":"東京都中野区江原町1-39-1","count":1,"level":"detail"},{"id":"B113211400054","name":"中野区立江古田小学校","categoryId":"elementary","categoryLabel":"小学","lat":35.726156,"lng":139.666529,"stationId":"station-003475","note":"東京都中野区江古田2-13-28","count":1,"level":"detail"},{"id":"B113210400234","name":"新宿区立落合第六小学校","categoryId":"elementary","categoryLabel":"小学","lat":35.727342,"lng":139.678306,"stationId":"station-003393","note":"東京都新宿区西落合4-11-21","count":1,"level":"detail"},{"id":"B113211900273","name":"板橋区立上板橋第二小学校","categoryId":"elementary","categoryLabel":"小学","lat":35.747697,"lng":139.680221,"stationId":"station-003296","note":"東京都板橋区小茂根1-14-1","count":1,"level":"detail"},{"id":"B113211900335","name":"板橋区立向原小学校","categoryId":"elementary","categoryLabel":"小学","lat":35.741396,"lng":139.68192,"stationId":"station-003296","note":"東京都板橋区向原2-34-1","count":1,"level":"detail"},{"id":"B113211900237","name":"板橋区立板橋第十小学校","categoryId":"elementary","categoryLabel":"小学","lat":35.747643,"lng":139.692583,"stationId":"station-003269","note":"東京都板橋区大谷口上町43-1","count":1,"level":"detail"},{"id":"B113212000029","name":"練馬区立小竹小学校","categoryId":"elementary","categoryLabel":"小学","lat":35.744108,"lng":139.679852,"stationId":"station-003296","note":"東京都練馬区小竹町2-6-7","count":1,"level":"detail"},{"id":"B113212000010","name":"練馬区立旭丘小学校","categoryId":"elementary","categoryLabel":"小学","lat":35.736691,"lng":139.676734,"stationId":"station-003337","note":"東京都練馬区旭丘2-21-1","count":1,"level":"detail"},{"id":"B113212000065","name":"練馬区立豊玉東小学校","categoryId":"elementary","categoryLabel":"小学","lat":35.732621,"lng":139.667697,"stationId":"station-003367","note":"東京都練馬区豊玉北1-16-1","count":1,"level":"detail"},{"id":"B113212000056","name":"練馬区立豊玉第二小学校","categoryId":"elementary","categoryLabel":"小学","lat":35.737421,"lng":139.661968,"stationId":"station-003321","note":"東京都練馬区豊玉上2-16-1","count":1,"level":"detail"},{"id":"B113212000127","name":"練馬区立開進第三小学校","categoryId":"elementary","categoryLabel":"小学","lat":35.742833,"lng":139.66666,"stationId":"station-003311","note":"東京都練馬区桜台2-18-1","count":1,"level":"detail"},{"id":"B113212000136","name":"練馬区立開進第四小学校","categoryId":"elementary","categoryLabel":"小学","lat":35.748042,"lng":139.671585,"stationId":"station-003261","note":"東京都練馬区羽沢2-33-1","count":1,"level":"detail"},{"id":"B113211600196","name":"豊島区立さくら小学校","categoryId":"elementary","categoryLabel":"小学","lat":35.736049,"lng":139.679986,"stationId":"station-003337","note":"東京都豊島区長崎6-16-1","count":1,"level":"detail"},{"id":"B113211600150","name":"豊島区立千早小学校","categoryId":"elementary","categoryLabel":"小学","lat":35.735053,"lng":139.687219,"stationId":"station-003325","note":"東京都豊島区千早3-33-5","count":1,"level":"detail"},{"id":"B113211600132","name":"豊島区立椎名町小学校","categoryId":"elementary","categoryLabel":"小学","lat":35.726761,"lng":139.685949,"stationId":"station-003448","note":"東京都豊島区南長崎4-30-5","count":1,"level":"detail"},{"id":"B113211600178","name":"豊島区立要小学校","categoryId":"elementary","categoryLabel":"小学","lat":35.733993,"lng":139.693601,"stationId":"station-003362","note":"東京都豊島区要町2-3-20","count":1,"level":"detail"},{"id":"B113211600123","name":"豊島区立長崎小学校","categoryId":"elementary","categoryLabel":"小学","lat":35.728656,"lng":139.690166,"stationId":"station-003426","note":"東京都豊島区長崎2-6-3","count":1,"level":"detail"},{"id":"D113311600047","name":"城西大学附属城西高等学校","categoryId":"high_school","categoryLabel":"高中","lat":35.731409,"lng":139.69455,"stationId":"station-003362","note":"東京都豊島区千早1-10-26","count":1,"level":"detail"},{"id":"D113299904127","name":"東京都立千早高等学校","categoryId":"high_school","categoryLabel":"高中","lat":35.73613,"lng":139.685515,"stationId":"station-003325","note":"東京都豊島区千早3-46-21","count":1,"level":"detail"},{"id":"D113299904065","name":"東京都立板橋高等学校","categoryId":"high_school","categoryLabel":"高中","lat":35.742006,"lng":139.689404,"stationId":"station-003325","note":"東京都板橋区大谷口1-54-1","count":1,"level":"detail"},{"id":"D113299904038","name":"東京都立豊島高等学校","categoryId":"high_school","categoryLabel":"高中","lat":35.738718,"lng":139.682582,"stationId":"station-003296","note":"東京都豊島区千早4-9-21","count":1,"level":"detail"},{"id":"D113312000041","name":"武蔵高等学校","categoryId":"high_school","categoryLabel":"高中","lat":35.736265,"lng":139.667413,"stationId":"station-003337","note":"東京都練馬区豊玉上1-26-1","count":1,"level":"detail"},{"id":"C113311600067","name":"城西大学附属城西中学校","categoryId":"junior_high","categoryLabel":"中学","lat":35.731602,"lng":139.69401,"stationId":"station-003362","note":"東京都豊島区千早1-10-26","count":1,"level":"detail"},{"id":"C113211900137","name":"板橋区立上板橋第二中学校","categoryId":"junior_high","categoryLabel":"中学","lat":35.744188,"lng":139.685557,"stationId":"station-003296","note":"東京都板橋区向原3-1-12","count":1,"level":"detail"},{"id":"C113312000025","name":"武蔵中学校","categoryId":"junior_high","categoryLabel":"中学","lat":35.736268,"lng":139.667305,"stationId":"station-003337","note":"東京都練馬区豊玉上1-26-1","count":1,"level":"detail"},{"id":"C113212000018","name":"練馬区立旭丘中学校","categoryId":"junior_high","categoryLabel":"中学","lat":35.737834,"lng":139.677624,"stationId":"station-003337","note":"東京都練馬区旭丘2-40-1","count":1,"level":"detail"},{"id":"C113212000036","name":"練馬区立豊玉第二中学校","categoryId":"junior_high","categoryLabel":"中学","lat":35.734905,"lng":139.664413,"stationId":"station-003321","note":"東京都練馬区豊玉北2-24-5","count":1,"level":"detail"},{"id":"C113212000072","name":"練馬区立開進第三中学校","categoryId":"junior_high","categoryLabel":"中学","lat":35.745877,"lng":139.665738,"stationId":"station-003261","note":"東京都練馬区桜台3-28-1","count":1,"level":"detail"},{"id":"C113211600078","name":"豊島区立明豊中学校","categoryId":"junior_high","categoryLabel":"中学","lat":35.735828,"lng":139.684267,"stationId":"station-003325","note":"東京都豊島区長崎5-31-29","count":1,"level":"detail"},{"id":"A113312000038","name":"みのり幼稚園","categoryId":"kindergarten","categoryLabel":"幼稚园","lat":35.741529,"lng":139.670195,"stationId":"station-003311","note":"東京都練馬区羽沢1-8-10","count":1,"level":"detail"},{"id":"A113312000065","name":"りっこう幼稚園","categoryId":"kindergarten","categoryLabel":"幼稚园","lat":35.742506,"lng":139.675609,"stationId":"station-003296","note":"東京都練馬区小竹町2-43-12","count":1,"level":"detail"},{"id":"A113311600169","name":"並木幼稚園","categoryId":"kindergarten","categoryLabel":"幼稚园","lat":35.727872,"lng":139.694495,"stationId":"station-003426","note":"東京都豊島区長崎1-8-1","count":1,"level":"detail"},{"id":"A113210400192","name":"新宿区立落合第六幼稚園","categoryId":"kindergarten","categoryLabel":"幼稚园","lat":35.727389,"lng":139.678732,"stationId":"station-003393","note":"東京都新宿区西落合4-11-21","count":1,"level":"detail"},{"id":"A113311900255","name":"板橋向原幼稚園","categoryId":"kindergarten","categoryLabel":"幼稚园","lat":35.740735,"lng":139.682451,"stationId":"station-003296","note":"東京都板橋区向原2-31-3","count":1,"level":"detail"},{"id":"A113312000083","name":"桜台幼稚園","categoryId":"kindergarten","categoryLabel":"幼稚园","lat":35.732605,"lng":139.661079,"stationId":"station-003321","note":"東京都練馬区豊玉北3-7-14","count":1,"level":"detail"},{"id":"A113312000029","name":"武蔵野音楽大学第一幼稚園","categoryId":"kindergarten","categoryLabel":"幼稚园","lat":35.745335,"lng":139.661122,"stationId":"station-003261","note":"東京都練馬区桜台6-13-3","count":1,"level":"detail"},{"id":"A113311900031","name":"武蔵野音楽大学第二幼稚園","categoryId":"kindergarten","categoryLabel":"幼稚园","lat":35.748232,"lng":139.674897,"stationId":"station-003296","note":"東京都板橋区小茂根4-13-2","count":1,"level":"detail"},{"id":"A113312000136","name":"江古田幼稚園","categoryId":"kindergarten","categoryLabel":"幼稚园","lat":35.736046,"lng":139.673887,"stationId":"station-003337","note":"東京都練馬区旭丘1-68-2","count":1,"level":"detail"},{"id":"A113312000109","name":"浄風幼稚園","categoryId":"kindergarten","categoryLabel":"幼稚园","lat":35.727588,"lng":139.66147,"stationId":"station-003475","note":"東京都練馬区豊玉南1-7-18","count":1,"level":"detail"},{"id":"A113310400074","name":"豊多摩幼稚園","categoryId":"kindergarten","categoryLabel":"幼稚园","lat":35.727943,"lng":139.679334,"stationId":"station-003393","note":"東京都新宿区西落合4-8-18","count":1,"level":"detail"},{"id":"A113311400045","name":"金の峯幼稚園","categoryId":"kindergarten","categoryLabel":"幼稚园","lat":35.726886,"lng":139.668163,"stationId":"station-003367","note":"東京都中野区江古田3-9-9","count":1,"level":"detail"},{"id":"A113311600070","name":"長崎幼稚園","categoryId":"kindergarten","categoryLabel":"幼稚园","lat":35.73129,"lng":139.685492,"stationId":"station-003393","note":"東京都豊島区長崎4-36-1","count":1,"level":"detail"},{"id":"H213311900035","name":"東京朝鮮第３初級学校","categoryId":"other","categoryLabel":"其他","lat":35.748222,"lng":139.694274,"stationId":"station-003269","note":"東京都板橋区大山西町67-1","count":1,"level":"detail"},{"id":"H213311600047","name":"東京編物技芸学校","categoryId":"other","categoryLabel":"其他","lat":35.726791,"lng":139.694718,"stationId":"station-003426","note":"東京都豊島区長崎1-2-4","count":1,"level":"detail"},{"id":"F113310103395","name":"日本大学","categoryId":"university","categoryLabel":"大学","lat":35.749431,"lng":139.690543,"stationId":"station-003233","note":"東京都板橋区大谷口上町30-1","count":1,"level":"detail"},{"id":"F113310103395","name":"日本大学","categoryId":"university","categoryLabel":"大学","lat":35.737444,"lng":139.67577,"stationId":"station-003337","note":"東京都練馬区旭丘2-42-1","count":1,"level":"detail"},{"id":"H113311900090","name":"日本大学医学部附属看護専門学校","categoryId":"university","categoryLabel":"大学","lat":35.747717,"lng":139.689408,"stationId":"station-003296","note":"東京都板橋区大谷口上町71-12","count":1,"level":"detail"},{"id":"F113310103509","name":"武蔵大学","categoryId":"university","categoryLabel":"大学","lat":35.736997,"lng":139.667682,"stationId":"station-003311","note":"東京都練馬区豊玉上1-26-1","count":1,"level":"detail"},{"id":"F113310103527","name":"武蔵野音楽大学","categoryId":"university","categoryLabel":"大学","lat":35.741596,"lng":139.672047,"stationId":"station-003311","note":"東京都練馬区羽沢1-13-1","count":1,"level":"detail"},{"id":"E113110000037","name":"筑波大学附属桐が丘特別支援学校","categoryId":"university","categoryLabel":"大学","lat":35.748944,"lng":139.684532,"stationId":"station-003296","note":"東京都板橋区小茂根2-1-12","count":1,"level":"detail"},{"id":"H113311600066","name":"城西放射線技術専門学校","categoryId":"vocational","categoryLabel":"专门学校","lat":35.731722,"lng":139.694831,"stationId":"station-003362","note":"東京都豊島区千早1-10-26","count":1,"level":"detail"},{"id":"H113311400095","name":"東京警察病院看護専門学校","categoryId":"vocational","categoryLabel":"专门学校","lat":35.728997,"lng":139.6663,"stationId":"station-003367","note":"東京都中野区江古田3-14-18","count":1,"level":"detail"}]
