[{"id":"B113210400092","name":"新宿区立余丁町小学校","categoryId":"elementary","categoryLabel":"小学","lat":35.699209,"lng":139.715799,"stationId":"station-003623","note":"東京都新宿区若松町13-1","count":1,"level":"detail"},{"id":"B113210400298","name":"新宿区立四谷小学校","categoryId":"elementary","categoryLabel":"小学","lat":35.686599,"lng":139.725052,"stationId":"station-003740","note":"東京都新宿区四谷2-6","count":1,"level":"detail"},{"id":"B113210400118","name":"新宿区立四谷第六小学校","categoryId":"elementary","categoryLabel":"小学","lat":35.681581,"lng":139.715677,"stationId":"station-003775","note":"東京都新宿区大京町30","count":1,"level":"detail"},{"id":"B113210400127","name":"新宿区立大久保小学校","categoryId":"elementary","categoryLabel":"小学","lat":35.699522,"lng":139.70552,"stationId":"station-003630","note":"東京都新宿区大久保1-1-21","count":1,"level":"detail"},{"id":"B113210400136","name":"新宿区立天神小学校","categoryId":"elementary","categoryLabel":"小学","lat":35.695591,"lng":139.710006,"stationId":"station-003630","note":"東京都新宿区新宿6-14-2","count":1,"level":"detail"},{"id":"B113210400083","name":"新宿区立富久小学校","categoryId":"elementary","categoryLabel":"小学","lat":35.692319,"lng":139.716364,"stationId":"station-003673","note":"東京都新宿区富久町7-24","count":1,"level":"detail"},{"id":"B113210400074","name":"新宿区立牛込仲之小学校","categoryId":"elementary","categoryLabel":"小学","lat":35.695751,"lng":139.723845,"stationId":"station-003673","note":"東京都新宿区市谷仲之町4-33","count":1,"level":"detail"},{"id":"B113210400261","name":"新宿区立花園小学校","categoryId":"elementary","categoryLabel":"小学","lat":35.689609,"lng":139.713569,"stationId":"station-003707","note":"東京都新宿区新宿1-22-1","count":1,"level":"detail"},{"id":"B113211300135","name":"渋谷区立千駄谷小学校","categoryId":"elementary","categoryLabel":"小学","lat":35.675322,"lng":139.707367,"stationId":"station-003780","note":"東京都渋谷区千駄ヶ谷2-4-1","count":1,"level":"detail"},{"id":"B113211300144","name":"渋谷区立鳩森小学校","categoryId":"elementary","categoryLabel":"小学","lat":35.68252,"lng":139.705878,"stationId":"station-003746","note":"東京都渋谷区千駄ヶ谷5-9-1","count":1,"level":"detail"},{"id":"D113310400041","name":"成城高等学校","categoryId":"high_school","categoryLabel":"高中","lat":35.698568,"lng":139.723209,"stationId":"station-003618","note":"東京都新宿区原町3-87","count":1,"level":"detail"},{"id":"D113310400032","name":"成女高等学校","categoryId":"high_school","categoryLabel":"高中","lat":35.6918,"lng":139.716627,"stationId":"station-003713","note":"東京都新宿区富久町7-30","count":1,"level":"detail"},{"id":"D113299902049","name":"東京都立新宿高等学校","categoryId":"high_school","categoryLabel":"高中","lat":35.689267,"lng":139.705247,"stationId":"station-003684","note":"東京都新宿区内藤町11-4","count":1,"level":"detail"},{"id":"D113299902192","name":"東京都立総合芸術高等学校","categoryId":"high_school","categoryLabel":"高中","lat":35.693625,"lng":139.716091,"stationId":"station-003673","note":"東京都新宿区富久町22-1","count":1,"level":"detail"},{"id":"C113310400043","name":"成城中学校","categoryId":"junior_high","categoryLabel":"中学","lat":35.698751,"lng":139.72316,"stationId":"station-003618","note":"東京都新宿区原町3-87","count":1,"level":"detail"},{"id":"C113310400034","name":"成女学園中学校","categoryId":"junior_high","categoryLabel":"中学","lat":35.691788,"lng":139.717102,"stationId":"station-003713","note":"東京都新宿区富久町7-30","count":1,"level":"detail"},{"id":"C113210400072","name":"新宿区立四谷中学校","categoryId":"junior_high","categoryLabel":"中学","lat":35.684118,"lng":139.728639,"stationId":"station-003740","note":"東京都新宿区四谷1-12","count":1,"level":"detail"},{"id":"C113210400090","name":"新宿区立新宿中学校","categoryId":"junior_high","categoryLabel":"中学","lat":35.695466,"lng":139.710794,"stationId":"station-003630","note":"東京都新宿区新宿6-15-22","count":1,"level":"detail"},{"id":"A113310400047","name":"四谷新生幼稚園","categoryId":"kindergarten","categoryLabel":"幼稚园","lat":35.684255,"lng":139.727315,"stationId":"station-003740","note":"東京都新宿区四谷1-14","count":1,"level":"detail"},{"id":"A113210400085","name":"新宿区立余丁町幼稚園","categoryId":"kindergarten","categoryLabel":"幼稚园","lat":35.699403,"lng":139.715573,"stationId":"station-003623","note":"東京都新宿区若松町13-1","count":1,"level":"detail"},{"id":"A113210400094","name":"新宿区立四谷第六幼稚園","categoryId":"kindergarten","categoryLabel":"幼稚园","lat":35.681382,"lng":139.715449,"stationId":"station-003775","note":"東京都新宿区大京町30","count":1,"level":"detail"},{"id":"A113210400110","name":"新宿区立大久保幼稚園","categoryId":"kindergarten","categoryLabel":"幼稚园","lat":35.699691,"lng":139.705842,"stationId":"station-003630","note":"東京都新宿区大久保1-1-21","count":1,"level":"detail"},{"id":"A113210400076","name":"新宿区立富久幼稚園","categoryId":"kindergarten","categoryLabel":"幼稚园","lat":35.692452,"lng":139.716264,"stationId":"station-003673","note":"東京都新宿区富久町7-24","count":1,"level":"detail"},{"id":"A113210400030","name":"新宿区立市谷幼稚園","categoryId":"kindergarten","categoryLabel":"幼稚园","lat":35.69948,"lng":139.729018,"stationId":"station-003618","note":"東京都新宿区市谷山伏町1-3","count":1,"level":"detail"},{"id":"A113210400067","name":"新宿区立牛込仲之幼稚園","categoryId":"kindergarten","categoryLabel":"幼稚园","lat":35.695916,"lng":139.723518,"stationId":"station-003673","note":"東京都新宿区市谷仲之町4-33","count":1,"level":"detail"},{"id":"A113210400101","name":"新宿区立花園幼稚園","categoryId":"kindergarten","categoryLabel":"幼稚园","lat":35.689492,"lng":139.713257,"stationId":"station-003707","note":"東京都新宿区新宿1-22-1","count":1,"level":"detail"},{"id":"A113211300048","name":"渋谷区立千駄谷幼稚園","categoryId":"kindergarten","categoryLabel":"幼稚园","lat":35.675041,"lng":139.70718,"stationId":"station-003780","note":"東京都渋谷区千駄ヶ谷2-4-1","count":1,"level":"detail"},{"id":"A113310400010","name":"牛込成城幼稚園","categoryId":"kindergarten","categoryLabel":"幼稚园","lat":35.698328,"lng":139.722657,"stationId":"station-003618","note":"東京都新宿区原町3-87","count":1,"level":"detail"},{"id":"A113311300117","name":"鳩の森八幡幼稚園","categoryId":"kindergarten","categoryLabel":"幼稚园","lat":35.677633,"lng":139.709038,"stationId":"station-003780","note":"東京都渋谷区千駄ヶ谷1-1-24","count":1,"level":"detail"},{"id":"H213310400041","name":"キルビー学院","categoryId":"other","categoryLabel":"其他","lat":35.688409,"lng":139.696009,"stationId":"station-003690","note":"東京都新宿区西新宿1-21-1明宝ビル5Ｆ","count":1,"level":"detail"},{"id":"H113310400275","name":"ファッションビジネスカレッジ東京","categoryId":"other","categoryLabel":"其他","lat":35.698494,"lng":139.700903,"stationId":"station-003648","note":"東京都新宿区百人町1-5-7","count":1,"level":"detail"},{"id":"H213311300139","name":"代々木情報経理学校","categoryId":"other","categoryLabel":"其他","lat":35.681226,"lng":139.697174,"stationId":"station-003750","note":"東京都渋谷区代々木3-55-28","count":1,"level":"detail"},{"id":"H213310400014","name":"合気道学校","categoryId":"other","categoryLabel":"其他","lat":35.699157,"lng":139.714265,"stationId":"station-003623","note":"東京都新宿区若松町17-18","count":1,"level":"detail"},{"id":"H213311300031","name":"善隣書院","categoryId":"other","categoryLabel":"其他","lat":35.682186,"lng":139.701289,"stationId":"station-003746","note":"東京都渋谷区代々木1-28-16","count":1,"level":"detail"},{"id":"H113311300032","name":"国際英語学校","categoryId":"other","categoryLabel":"其他","lat":35.682429,"lng":139.701687,"stationId":"station-003746","note":"東京都渋谷区代々木1-29-5","count":1,"level":"detail"},{"id":"B113310400018","name":"学習院初等科","categoryId":"other","categoryLabel":"其他","lat":35.682949,"lng":139.727385,"stationId":"station-003740","note":"東京都新宿区若葉1-23-1","count":1,"level":"detail"},{"id":"H113311300354","name":"専修学校代々木ゼミナール本部校","categoryId":"other","categoryLabel":"其他","lat":35.685691,"lng":139.698574,"stationId":"station-003750","note":"東京都渋谷区代々木2-25-7","count":1,"level":"detail"},{"id":"H113310400382","name":"専修学校河合塾新宿校","categoryId":"other","categoryLabel":"其他","lat":35.693619,"lng":139.696827,"stationId":"station-003669","note":"東京都新宿区西新宿7-12-1","count":1,"level":"detail"},{"id":"H213311300013","name":"山野日本語学校","categoryId":"other","categoryLabel":"其他","lat":35.678355,"lng":139.704598,"stationId":"station-003780","note":"東京都渋谷区千駄ヶ谷3-10-6","count":1,"level":"detail"},{"id":"H213310400087","name":"新宿クッキングアカデミー","categoryId":"other","categoryLabel":"其他","lat":35.694485,"lng":139.700569,"stationId":"station-003648","note":"東京都新宿区歌舞伎町1-24-3","count":1,"level":"detail"},{"id":"A213210400011","name":"新宿区立四谷子ども園","categoryId":"other","categoryLabel":"其他","lat":35.686729,"lng":139.724719,"stationId":"station-003713","note":"東京都新宿区四谷2-6","count":1,"level":"detail"},{"id":"H213310400158","name":"新宿経理学校","categoryId":"other","categoryLabel":"其他","lat":35.693867,"lng":139.703415,"stationId":"station-003684","note":"東京都新宿区","count":1,"level":"detail"},{"id":"H113310400248","name":"日本メンズアパレルアカデミー","categoryId":"other","categoryLabel":"其他","lat":35.695494,"lng":139.697589,"stationId":"station-003648","note":"東京都新宿区西新宿7-15-4","count":1,"level":"detail"},{"id":"H213311400021","name":"東京スピーチ・クリニック","categoryId":"other","categoryLabel":"其他","lat":35.682845,"lng":139.705804,"stationId":"station-003746","note":"東京都中野区中央1-43-21","count":1,"level":"detail"},{"id":"H113310400319","name":"東京モード学園","categoryId":"other","categoryLabel":"其他","lat":35.691492,"lng":139.69697,"stationId":"station-003669","note":"東京都新宿区西新宿1-7-3","count":1,"level":"detail"},{"id":"H213311300086","name":"東京人形学院","categoryId":"other","categoryLabel":"其他","lat":35.685324,"lng":139.701272,"stationId":"station-003746","note":"東京都渋谷区代々木1-57-3","count":1,"level":"detail"},{"id":"H213311300102","name":"東京工学院日本語学校","categoryId":"other","categoryLabel":"其他","lat":35.685644,"lng":139.704319,"stationId":"station-003746","note":"東京都渋谷区千駄ヶ谷5-30-16","count":1,"level":"detail"},{"id":"H213310400121","name":"東京正生学院","categoryId":"other","categoryLabel":"其他","lat":35.693648,"lng":139.703517,"stationId":"station-003684","note":"東京都新宿区","count":1,"level":"detail"},{"id":"H213310400112","name":"東京韓国学校中・高等部","categoryId":"other","categoryLabel":"其他","lat":35.696909,"lng":139.721569,"stationId":"station-003623","note":"東京都新宿区若松町2-1","count":1,"level":"detail"},{"id":"H213310400103","name":"東京韓国学校初等部","categoryId":"other","categoryLabel":"其他","lat":35.697151,"lng":139.721755,"stationId":"station-003623","note":"東京都新宿区若松町2-1","count":1,"level":"detail"},{"id":"H213311300111","name":"東京高等ダンス学校","categoryId":"other","categoryLabel":"其他","lat":35.682814,"lng":139.701442,"stationId":"station-003746","note":"東京都渋谷区代々木1-38-7","count":1,"level":"detail"},{"id":"H113310400113","name":"東洋美術学校","categoryId":"other","categoryLabel":"其他","lat":35.69242,"lng":139.718159,"stationId":"station-003673","note":"東京都新宿区富久町2-6","count":1,"level":"detail"},{"id":"H213310400078","name":"白百合ドレスメーカー女学院","categoryId":"other","categoryLabel":"其他","lat":35.693781,"lng":139.703449,"stationId":"station-003684","note":"東京都新宿区","count":1,"level":"detail"},{"id":"H113310400015","name":"首都医校","categoryId":"other","categoryLabel":"其他","lat":35.691774,"lng":139.696975,"stationId":"station-003669","note":"東京都新宿区西新宿1-7-3","count":1,"level":"detail"},{"id":"H113310400202","name":"ＨＡＬ東京","categoryId":"other","categoryLabel":"其他","lat":35.691531,"lng":139.696975,"stationId":"station-003669","note":"東京都新宿区西新宿1-7-3","count":1,"level":"detail"},{"id":"H213310400069","name":"ＫＣＰ地球市民日本語学校","categoryId":"other","categoryLabel":"其他","lat":35.690577,"lng":139.713143,"stationId":"station-003707","note":"東京都新宿区新宿1-29-12","count":1,"level":"detail"},{"id":"F113310103661","name":"国際ファッション専門職大学","categoryId":"university","categoryLabel":"大学","lat":35.691585,"lng":139.696926,"stationId":"station-003669","note":"東京都新宿区西新宿1-7-3","count":1,"level":"detail"},{"id":"F127310108900","name":"宝塚大学","categoryId":"university","categoryLabel":"大学","lat":35.693793,"lng":139.697376,"stationId":"station-003669","note":"東京都新宿区西新宿7-11-1","count":1,"level":"detail"},{"id":"F113310102993","name":"工学院大学","categoryId":"university","categoryLabel":"大学","lat":35.690327,"lng":139.695441,"stationId":"station-003690","note":"東京都新宿区西新宿1-24-2","count":1,"level":"detail"},{"id":"F113310102984","name":"慶應義塾大学","categoryId":"university","categoryLabel":"大学","lat":35.682648,"lng":139.717683,"stationId":"station-003775","note":"東京都新宿区信濃町35","count":1,"level":"detail"},{"id":"F113310103242","name":"東京医科大学","categoryId":"university","categoryLabel":"大学","lat":35.693715,"lng":139.71198,"stationId":"station-003707","note":"東京都新宿区新宿6-1-1","count":1,"level":"detail"},{"id":"F113310103616","name":"東京国際工科専門職大学","categoryId":"university","categoryLabel":"大学","lat":35.691662,"lng":139.697059,"stationId":"station-003669","note":"東京都新宿区西新宿1-7-3","count":1,"level":"detail"},{"id":"F113310103304","name":"東京女子医科大学","categoryId":"university","categoryLabel":"大学","lat":35.697609,"lng":139.721601,"stationId":"station-003623","note":"東京都新宿区河田町8-1","count":1,"level":"detail"},{"id":"F113310103652","name":"東京通信大学","categoryId":"university","categoryLabel":"大学","lat":35.691694,"lng":139.696763,"stationId":"station-003669","note":"東京都新宿区西新宿1-7-3","count":1,"level":"detail"},{"id":"F113310103750","name":"津田塾大学","categoryId":"university","categoryLabel":"大学","lat":35.680544,"lng":139.710464,"stationId":"station-003767","note":"東京都渋谷区千駄ヶ谷1-18-24","count":1,"level":"detail"},{"id":"H113310400088","name":"マリールイズ美容専門学校","categoryId":"vocational","categoryLabel":"专门学校","lat":35.687048,"lng":139.722118,"stationId":"station-003713","note":"東京都新宿区須賀町3","count":1,"level":"detail"},{"id":"H113311300130","name":"専門学校ミューズモード音楽院","categoryId":"vocational","categoryLabel":"专门学校","lat":35.681949,"lng":139.702531,"stationId":"station-003746","note":"東京都渋谷区代々木1-31-2","count":1,"level":"detail"},{"id":"H113311300345","name":"専門学校ミューズ音楽院","categoryId":"vocational","categoryLabel":"专门学校","lat":35.682546,"lng":139.703854,"stationId":"station-003746","note":"東京都渋谷区千駄ヶ谷5-19-9","count":1,"level":"detail"},{"id":"H113311300336","name":"専門学校東京クールジャパン","categoryId":"vocational","categoryLabel":"专门学校","lat":35.678388,"lng":139.711115,"stationId":"station-003767","note":"東京都渋谷区千駄ヶ谷1-8-17","count":1,"level":"detail"},{"id":"H113311300247","name":"専門学校東京スクール・オブ・ビジネス","categoryId":"vocational","categoryLabel":"专门学校","lat":35.684442,"lng":139.701639,"stationId":"station-003746","note":"東京都渋谷区代々木1-56-1","count":1,"level":"detail"},{"id":"H113310400300","name":"専門学校東京経理綜合学院","categoryId":"vocational","categoryLabel":"专门学校","lat":35.698571,"lng":139.700892,"stationId":"station-003601","note":"東京都新宿区百人町1-5-6","count":1,"level":"detail"},{"id":"H113311300149","name":"山野美容専門学校","categoryId":"vocational","categoryLabel":"专门学校","lat":35.684184,"lng":139.699949,"stationId":"station-003750","note":"東京都渋谷区代々木1-53-1","count":1,"level":"detail"},{"id":"H113310400177","name":"新宿医療専門学校","categoryId":"vocational","categoryLabel":"专门学校","lat":35.686562,"lng":139.719612,"stationId":"station-003713","note":"東京都新宿区左門町5","count":1,"level":"detail"},{"id":"H113311300112","name":"日本デザイン福祉専門学校","categoryId":"vocational","categoryLabel":"专门学校","lat":35.681679,"lng":139.706131,"stationId":"station-003780","note":"東京都渋谷区千駄ヶ谷5-7-3","count":1,"level":"detail"},{"id":"H113310400122","name":"日本電子専門学校","categoryId":"vocational","categoryLabel":"专门学校","lat":35.698434,"lng":139.698134,"stationId":"station-003604","note":"東京都新宿区百人町1-25-4","count":1,"level":"detail"},{"id":"H113311300167","name":"服部栄養専門学校","categoryId":"vocational","categoryLabel":"专门学校","lat":35.684905,"lng":139.703414,"stationId":"station-003746","note":"東京都渋谷区千駄ヶ谷5-25-4","count":1,"level":"detail"},{"id":"H113310400505","name":"東京マルチ・ＡＩ専門学校","categoryId":"vocational","categoryLabel":"专门学校","lat":35.699409,"lng":139.699252,"stationId":"station-003601","note":"東京都新宿区百人町1-13-16","count":1,"level":"detail"},{"id":"H113310400140","name":"東京・ｉスマートビジネス専門学校","categoryId":"vocational","categoryLabel":"专门学校","lat":35.696194,"lng":139.696904,"stationId":"station-003648","note":"東京都新宿区西新宿7-18-12","count":1,"level":"detail"},{"id":"H113310400104","name":"東京医療専門学校","categoryId":"vocational","categoryLabel":"专门学校","lat":35.688363,"lng":139.727783,"stationId":"station-003740","note":"東京都新宿区四谷三栄町16-12","count":1,"level":"detail"},{"id":"H113310400042","name":"東京外語専門学校","categoryId":"vocational","categoryLabel":"专门学校","lat":35.696051,"lng":139.699061,"stationId":"station-003648","note":"東京都新宿区西新宿7-3-8","count":1,"level":"detail"},{"id":"H113310200053","name":"東京学園調理師専門学校","categoryId":"vocational","categoryLabel":"专门学校","lat":35.694327,"lng":139.697728,"stationId":"station-003669","note":"東京都中央区","count":1,"level":"detail"},{"id":"H113310400186","name":"東京調理製菓専門学校","categoryId":"vocational","categoryLabel":"专门学校","lat":35.69434,"lng":139.697708,"stationId":"station-003669","note":"東京都新宿区西新宿7-11-11","count":1,"level":"detail"},{"id":"H113310400211","name":"東洋鍼灸専門学校","categoryId":"vocational","categoryLabel":"专门学校","lat":35.699998,"lng":139.701425,"stationId":"station-003601","note":"東京都新宿区百人町1-4-4","count":1,"level":"detail"},{"id":"H113310400462","name":"真野美容専門学校","categoryId":"vocational","categoryLabel":"专门学校","lat":35.697711,"lng":139.701092,"stationId":"station-003648","note":"東京都新宿区歌舞伎町2-42-5","count":1,"level":"detail"}]
