[{"id":"B113210600125","name":"台東区立石浜小学校","categoryId":"elementary","categoryLabel":"小学","lat":35.724898,"lng":139.803601,"stationId":"station-003363","note":"東京都台東区清川1-14-21","count":1,"level":"detail"},{"id":"B113210700197","name":"墨田区立中川小学校","categoryId":"elementary","categoryLabel":"小学","lat":35.713392,"lng":139.83149,"stationId":"station-003525","note":"東京都墨田区立花5-49-4","count":1,"level":"detail"},{"id":"B113210700026","name":"墨田区立外手小学校","categoryId":"elementary","categoryLabel":"小学","lat":35.702505,"lng":139.800705,"stationId":"station-003538","note":"東京都墨田区本所2-1-16","count":1,"level":"detail"},{"id":"B113210700071","name":"墨田区立小梅小学校","categoryId":"elementary","categoryLabel":"小学","lat":35.714481,"lng":139.805938,"stationId":"station-003524","note":"東京都墨田区向島2-4-10","count":1,"level":"detail"},{"id":"B113210700213","name":"墨田区立押上小学校","categoryId":"elementary","categoryLabel":"小学","lat":35.712019,"lng":139.819378,"stationId":"oshiage","note":"東京都墨田区押上3-46-17","count":1,"level":"detail"},{"id":"B113210700188","name":"墨田区立曳舟小学校","categoryId":"elementary","categoryLabel":"小学","lat":35.716604,"lng":139.820775,"stationId":"station-003477","note":"東京都墨田区京島1-28-2","count":1,"level":"detail"},{"id":"B113210700204","name":"墨田区立東吾嬬小学校","categoryId":"elementary","categoryLabel":"小学","lat":35.708544,"lng":139.832036,"stationId":"station-003548","note":"東京都墨田区立花4-22-11","count":1,"level":"detail"},{"id":"B113210700080","name":"墨田区立柳島小学校","categoryId":"elementary","categoryLabel":"小学","lat":35.703609,"lng":139.817553,"stationId":"oshiage","note":"東京都墨田区横川5-2-30","count":1,"level":"detail"},{"id":"B113210700099","name":"墨田区立業平小学校","categoryId":"elementary","categoryLabel":"小学","lat":35.706473,"lng":139.811488,"stationId":"oshiage","note":"東京都墨田区業平2-4-8","count":1,"level":"detail"},{"id":"B113210700115","name":"墨田区立横川小学校","categoryId":"elementary","categoryLabel":"小学","lat":35.707217,"lng":139.806338,"stationId":"station-003538","note":"東京都墨田区東駒形4-18-4","count":1,"level":"detail"},{"id":"B113210700240","name":"墨田区立立花吾嬬の森小学校","categoryId":"elementary","categoryLabel":"小学","lat":35.706656,"lng":139.829384,"stationId":"station-003548","note":"東京都墨田区立花1-18-6","count":1,"level":"detail"},{"id":"B113210700151","name":"墨田区立第一寺島小学校","categoryId":"elementary","categoryLabel":"小学","lat":35.72165,"lng":139.814585,"stationId":"station-003479","note":"東京都墨田区東向島1-16-2","count":1,"level":"detail"},{"id":"B113210700133","name":"墨田区立第三吾嬬小学校","categoryId":"elementary","categoryLabel":"小学","lat":35.717148,"lng":139.827983,"stationId":"station-003477","note":"東京都墨田区八広2-36-3","count":1,"level":"detail"},{"id":"B113210700179","name":"墨田区立第三寺島小学校","categoryId":"elementary","categoryLabel":"小学","lat":35.721396,"lng":139.820271,"stationId":"station-003477","note":"東京都墨田区東向島6-8-1","count":1,"level":"detail"},{"id":"B113210700160","name":"墨田区立第二寺島小学校","categoryId":"elementary","categoryLabel":"小学","lat":35.724725,"lng":139.818464,"stationId":"station-003442","note":"東京都墨田区東向島4-30-2","count":1,"level":"detail"},{"id":"B113210700142","name":"墨田区立第四吾嬬小学校","categoryId":"elementary","categoryLabel":"小学","lat":35.713064,"lng":139.825146,"stationId":"station-003525","note":"東京都墨田区京島3-64-9","count":1,"level":"detail"},{"id":"B113210700062","name":"墨田区立言問小学校","categoryId":"elementary","categoryLabel":"小学","lat":35.718706,"lng":139.811587,"stationId":"station-003479","note":"東京都墨田区向島5-40-14","count":1,"level":"detail"},{"id":"B113210800196","name":"江東区立水神小学校","categoryId":"elementary","categoryLabel":"小学","lat":35.700071,"lng":139.828511,"stationId":"station-003641","note":"東京都江東区亀戸5-22-22","count":1,"level":"detail"},{"id":"B113210800187","name":"江東区立香取小学校","categoryId":"elementary","categoryLabel":"小学","lat":35.703547,"lng":139.826275,"stationId":"station-003548","note":"東京都江東区亀戸4-26-22","count":1,"level":"detail"},{"id":"D113299906027","name":"東京都立墨田川高等学校","categoryId":"high_school","categoryLabel":"高中","lat":35.721878,"lng":139.816222,"stationId":"station-003479","note":"東京都墨田区東向島3-34-14","count":1,"level":"detail"},{"id":"D113299906063","name":"東京都立日本橋高等学校","categoryId":"high_school","categoryLabel":"高中","lat":35.719641,"lng":139.824267,"stationId":"station-003477","note":"東京都墨田区八広1-28-21","count":1,"level":"detail"},{"id":"D113299906036","name":"東京都立本所高等学校","categoryId":"high_school","categoryLabel":"高中","lat":35.714402,"lng":139.811345,"stationId":"station-003524","note":"東京都墨田区向島3-37-25","count":1,"level":"detail"},{"id":"D113299906269","name":"東京都立橘高等学校","categoryId":"high_school","categoryLabel":"高中","lat":35.708911,"lng":139.833508,"stationId":"station-003548","note":"東京都墨田区立花4-29-7","count":1,"level":"detail"},{"id":"D113299906198","name":"東京都立江東商業高等学校","categoryId":"high_school","categoryLabel":"高中","lat":35.702473,"lng":139.831498,"stationId":"station-003610","note":"東京都江東区亀戸4-50-1","count":1,"level":"detail"},{"id":"D113299905135","name":"東京都立浅草高等学校","categoryId":"high_school","categoryLabel":"高中","lat":35.719518,"lng":139.802531,"stationId":"station-003502","note":"東京都台東区今戸1-8-13","count":1,"level":"detail"},{"id":"D113310700039","name":"立志舎高等学校","categoryId":"high_school","categoryLabel":"高中","lat":35.700842,"lng":139.812932,"stationId":"station-003639","note":"東京都墨田区太平2-9-6","count":1,"level":"detail"},{"id":"C113210600070","name":"台東区立桜橋中学校","categoryId":"junior_high","categoryLabel":"中学","lat":35.720722,"lng":139.80713,"stationId":"station-003479","note":"東京都台東区今戸2-1-8","count":1,"level":"detail"},{"id":"C113210700104","name":"墨田区立吾嬬立花中学校","categoryId":"junior_high","categoryLabel":"中学","lat":35.712555,"lng":139.831805,"stationId":"station-003525","note":"東京都墨田区立花5-48-2","count":1,"level":"detail"},{"id":"C113210700060","name":"墨田区立吾嬬第二中学校","categoryId":"junior_high","categoryLabel":"中学","lat":35.721884,"lng":139.827359,"stationId":"station-003422","note":"東京都墨田区八広4-4-4","count":1,"level":"detail"},{"id":"C113210700015","name":"墨田区立墨田中学校","categoryId":"junior_high","categoryLabel":"中学","lat":35.714995,"lng":139.811471,"stationId":"station-003524","note":"東京都墨田区向島4-25-22","count":1,"level":"detail"},{"id":"C113210700079","name":"墨田区立寺島中学校","categoryId":"junior_high","categoryLabel":"中学","lat":35.72011,"lng":139.823192,"stationId":"station-003477","note":"東京都墨田区八広1-17-15","count":1,"level":"detail"},{"id":"C113210700088","name":"墨田区立文花中学校","categoryId":"junior_high","categoryLabel":"中学","lat":35.710248,"lng":139.822249,"stationId":"station-003525","note":"東京都墨田区文花1-22-7","count":1,"level":"detail"},{"id":"C113210700024","name":"墨田区立本所中学校","categoryId":"junior_high","categoryLabel":"中学","lat":35.705315,"lng":139.802855,"stationId":"station-003538","note":"東京都墨田区東駒形3-1-10","count":1,"level":"detail"},{"id":"C113210700051","name":"墨田区立錦糸中学校","categoryId":"junior_high","categoryLabel":"中学","lat":35.701432,"lng":139.80697,"stationId":"station-003538","note":"東京都墨田区石原4-33-14","count":1,"level":"detail"},{"id":"C113210800103","name":"江東区立第二亀戸中学校","categoryId":"junior_high","categoryLabel":"中学","lat":35.702618,"lng":139.832711,"stationId":"station-003610","note":"東京都江東区亀戸4-51-1","count":1,"level":"detail"},{"id":"A113310700053","name":"あさひ幼稚園","categoryId":"kindergarten","categoryLabel":"幼稚园","lat":35.708559,"lng":139.81919,"stationId":"oshiage","note":"東京都墨田区文花1-1-10","count":1,"level":"detail"},{"id":"A113310700062","name":"あづま幼稚園","categoryId":"kindergarten","categoryLabel":"幼稚园","lat":35.709432,"lng":139.823738,"stationId":"station-003525","note":"東京都墨田区文花1-25-7","count":1,"level":"detail"},{"id":"A113310800052","name":"亀戸幼稚園","categoryId":"kindergarten","categoryLabel":"幼稚园","lat":35.701024,"lng":139.826438,"stationId":"station-003641","note":"東京都江東区亀戸4-17-3","count":1,"level":"detail"},{"id":"A113310600036","name":"仰願寺幼稚園","categoryId":"kindergarten","categoryLabel":"幼稚园","lat":35.723152,"lng":139.802587,"stationId":"station-003363","note":"東京都台東区清川1-4-3","count":1,"level":"detail"},{"id":"A113310700080","name":"向島わかば幼稚園","categoryId":"kindergarten","categoryLabel":"幼稚园","lat":35.718936,"lng":139.82821,"stationId":"station-003477","note":"東京都墨田区八広3-23-10","count":1,"level":"detail"},{"id":"A113210700028","name":"墨田区立柳島幼稚園","categoryId":"kindergarten","categoryLabel":"幼稚园","lat":35.703323,"lng":139.817514,"stationId":"station-003639","note":"東京都墨田区横川5-2-30","count":1,"level":"detail"},{"id":"A113210700073","name":"墨田区立立花幼稚園","categoryId":"kindergarten","categoryLabel":"幼稚园","lat":35.704786,"lng":139.831754,"stationId":"station-003548","note":"東京都墨田区立花1-25-9","count":1,"level":"detail"},{"id":"A113210700037","name":"墨田区立第三寺島幼稚園","categoryId":"kindergarten","categoryLabel":"幼稚园","lat":35.721256,"lng":139.820665,"stationId":"station-003477","note":"東京都墨田区東向島6-8-1","count":1,"level":"detail"},{"id":"A113310700099","name":"墨田幼稚園","categoryId":"kindergarten","categoryLabel":"幼稚园","lat":35.723201,"lng":139.811807,"stationId":"station-003479","note":"東京都墨田区堤通1-5-9","count":1,"level":"detail"},{"id":"A113310700017","name":"本所白百合幼稚園","categoryId":"kindergarten","categoryLabel":"幼稚园","lat":35.701944,"lng":139.80514,"stationId":"station-003538","note":"東京都墨田区石原4-37-2","count":1,"level":"detail"},{"id":"A113310700035","name":"言問幼稚園","categoryId":"kindergarten","categoryLabel":"幼稚园","lat":35.717588,"lng":139.809141,"stationId":"station-003479","note":"東京都墨田区向島5-4-4","count":1,"level":"detail"},{"id":"A213210700018","name":"墨田区立たちばな認定こども園","categoryId":"other","categoryLabel":"其他","lat":35.707085,"lng":139.834319,"stationId":"station-003548","note":"東京都墨田区立花3-21-16","count":1,"level":"detail"},{"id":"A213210700027","name":"墨田区立八広認定こども園","categoryId":"other","categoryLabel":"其他","lat":35.720908,"lng":139.826482,"stationId":"station-003477","note":"東京都墨田区八広3-7-5","count":1,"level":"detail"},{"id":"A213310700016","name":"幼保連携型認定こども園共愛館保育園","categoryId":"other","categoryLabel":"其他","lat":35.71232,"lng":139.819926,"stationId":"oshiage","note":"東京都墨田区押上3-53-6","count":1,"level":"detail"},{"id":"H213310600021","name":"日本珠算学校","categoryId":"other","categoryLabel":"其他","lat":35.724994,"lng":139.80278,"stationId":"station-003363","note":"東京都台東区清川1-15-11","count":1,"level":"detail"},{"id":"H213310700020","name":"東京朝鮮第５初中級学校","categoryId":"other","categoryLabel":"其他","lat":35.722818,"lng":139.825895,"stationId":"station-003422","note":"東京都墨田区八広5-22-15","count":1,"level":"detail"},{"id":"H213310700048","name":"渡辺珠算学校","categoryId":"other","categoryLabel":"其他","lat":35.705507,"lng":139.815737,"stationId":"oshiage","note":"東京都墨田区横川4-10-2","count":1,"level":"detail"},{"id":"A213310700025","name":"興望館こども園","categoryId":"other","categoryLabel":"其他","lat":35.715218,"lng":139.817737,"stationId":"station-003479","note":"東京都墨田区京島1-11-6","count":1,"level":"detail"},{"id":"F113310103634","name":"情報経営イノベーション専門職大学","categoryId":"university","categoryLabel":"大学","lat":35.711231,"lng":139.823363,"stationId":"station-003525","note":"東京都墨田区文花1‐18‐13","count":1,"level":"detail"}]
