[{"id":"B113220600197","name":"府中市立南白糸台小学校","categoryId":"elementary","categoryLabel":"小学","lat":35.660563,"lng":139.516648,"stationId":"station-003916","note":"東京都府中市白糸台6-48"},{"id":"B113220600151","name":"府中市立白糸台小学校","categoryId":"elementary","categoryLabel":"小学","lat":35.669518,"lng":139.514082,"stationId":"station-003916","note":"東京都府中市白糸台2-16"},{"id":"B113220800042","name":"調布市立八雲台小学校","categoryId":"elementary","categoryLabel":"小学","lat":35.654193,"lng":139.552487,"stationId":"station-003975","note":"東京都調布市八雲台1-1-1"},{"id":"B113220800097","name":"調布市立石原小学校","categoryId":"elementary","categoryLabel":"小学","lat":35.660665,"lng":139.538416,"stationId":"station-003937","note":"東京都調布市富士見町1-37-1"},{"id":"B113220800015","name":"調布市立第一小学校","categoryId":"elementary","categoryLabel":"小学","lat":35.655132,"lng":139.543574,"stationId":"station-003966","note":"東京都調布市小島町1-8-1"},{"id":"B113220800033","name":"調布市立第三小学校","categoryId":"elementary","categoryLabel":"小学","lat":35.654894,"lng":139.527404,"stationId":"station-003937","note":"東京都調布市上石原2-19-13"},{"id":"B113220800168","name":"調布市立飛田給小学校","categoryId":"elementary","categoryLabel":"小学","lat":35.654619,"lng":139.522992,"stationId":"station-003916","note":"東京都調布市飛田給3-29-1"},{"id":"D113320800019","name":"明治大学付属明治高等学校","categoryId":"high_school","categoryLabel":"高中","lat":35.667118,"lng":139.537969,"stationId":"station-003937","note":"東京都調布市富士見町4-23-25"},{"id":"D113299910067","name":"東京都立府中東高等学校","categoryId":"high_school","categoryLabel":"高中","lat":35.656506,"lng":139.51529,"stationId":"station-003916","note":"東京都府中市押立町4-21"},{"id":"C113220600060","name":"府中市立府中第六中学校","categoryId":"junior_high","categoryLabel":"中学","lat":35.660763,"lng":139.507313,"stationId":"station-003916","note":"東京都府中市押立町1-2"},{"id":"C113320800011","name":"明治大学付属明治中学校","categoryId":"junior_high","categoryLabel":"中学","lat":35.667698,"lng":139.53713,"stationId":"station-003937","note":"東京都調布市富士見町4-23-25"},{"id":"C113220800059","name":"調布市立第五中学校","categoryId":"junior_high","categoryLabel":"中学","lat":35.652279,"lng":139.52531,"stationId":"station-003937","note":"東京都調布市上石原3-27-1"},{"id":"C113220800013","name":"調布市立調布中学校","categoryId":"junior_high","categoryLabel":"中学","lat":35.665742,"lng":139.535419,"stationId":"station-003937","note":"東京都調布市富士見町4-17-1"},{"id":"A113320800024","name":"マルガリタ幼稚園","categoryId":"kindergarten","categoryLabel":"幼稚园","lat":35.650801,"lng":139.53402,"stationId":"station-004013","note":"東京都調布市下石原3-55-2"},{"id":"A113320800060","name":"保恵学園幼稚園","categoryId":"kindergarten","categoryLabel":"幼稚园","lat":35.662931,"lng":139.536987,"stationId":"station-003937","note":"東京都調布市富士見町3-1"},{"id":"A113320600106","name":"府中白糸台幼稚園","categoryId":"kindergarten","categoryLabel":"幼稚园","lat":35.663092,"lng":139.515772,"stationId":"station-003916","note":"東京都府中市白糸台5-13-5"},{"id":"E113299930104","name":"東京都立府中けやきの森学園","categoryId":"other","categoryLabel":"其他","lat":35.669712,"lng":139.523301,"stationId":"station-003916","note":"東京都府中市朝日町3-14-1"},{"id":"E113299940102","name":"東京都立調布特別支援学校","categoryId":"other","categoryLabel":"其他","lat":35.656281,"lng":139.542672,"stationId":"station-003966","note":"東京都調布市調布ヶ丘1-1-2"},{"id":"F113110102782","name":"電気通信大学","categoryId":"university","categoryLabel":"大学","lat":35.657731,"lng":139.543627,"stationId":"station-003966","note":"東京都調布市調布ケ丘1-5-1"}]
