[{"id":"B113311200018","name":"国本小学校","categoryId":"elementary","categoryLabel":"小学","lat":35.635592,"lng":139.588567,"stationId":"station-004053","note":"東京都世田谷区喜多見8-15-33"},{"id":"B113221900058","name":"狛江市立和泉小学校","categoryId":"elementary","categoryLabel":"小学","lat":35.634708,"lng":139.568351,"stationId":"station-004076","note":"東京都狛江市中和泉3-33-1"},{"id":"B113221900012","name":"狛江市立狛江第一小学校","categoryId":"elementary","categoryLabel":"小学","lat":35.63717,"lng":139.578061,"stationId":"station-004076","note":"東京都狛江市和泉本町1-37-1"},{"id":"B113221900021","name":"狛江市立狛江第三小学校","categoryId":"elementary","categoryLabel":"小学","lat":35.628099,"lng":139.585276,"stationId":"station-004076","note":"東京都狛江市猪方1-11-1"},{"id":"B113221900030","name":"狛江市立狛江第五小学校","categoryId":"elementary","categoryLabel":"小学","lat":35.643926,"lng":139.581678,"stationId":"station-004053","note":"東京都狛江市東野川1-35-13"},{"id":"B113221900067","name":"狛江市立緑野小学校","categoryId":"elementary","categoryLabel":"小学","lat":35.64157,"lng":139.571195,"stationId":"station-004076","note":"東京都狛江市和泉本町4-3-1"},{"id":"B113220800186","name":"調布市立国領小学校","categoryId":"elementary","categoryLabel":"小学","lat":35.648614,"lng":139.563464,"stationId":"station-003973","note":"東京都調布市国領町8-1-55"},{"id":"B113220800122","name":"調布市立染地小学校","categoryId":"elementary","categoryLabel":"小学","lat":35.642146,"lng":139.560608,"stationId":"station-003973","note":"東京都調布市染地3-1-81"},{"id":"B113220800024","name":"調布市立第二小学校","categoryId":"elementary","categoryLabel":"小学","lat":35.646394,"lng":139.556571,"stationId":"station-003973","note":"東京都調布市国領町4-19-1"},{"id":"D113311200041","name":"国本女子高等学校","categoryId":"high_school","categoryLabel":"高中","lat":35.635355,"lng":139.588031,"stationId":"station-004053","note":"東京都世田谷区喜多見8-15-33"},{"id":"D113299910049","name":"東京都立狛江高等学校","categoryId":"high_school","categoryLabel":"高中","lat":35.627318,"lng":139.570376,"stationId":"station-004105","note":"東京都狛江市元和泉3-9-1"},{"id":"C113311200043","name":"国本女子中学校","categoryId":"junior_high","categoryLabel":"中学","lat":35.635278,"lng":139.588463,"stationId":"station-004053","note":"東京都世田谷区喜多見8-15-33"},{"id":"C113221900010","name":"狛江市立狛江第一中学校","categoryId":"junior_high","categoryLabel":"中学","lat":35.64081,"lng":139.577736,"stationId":"station-004053","note":"東京都狛江市和泉本町2-15-1"},{"id":"C113221900038","name":"狛江市立狛江第三中学校","categoryId":"junior_high","categoryLabel":"中学","lat":35.629924,"lng":139.574649,"stationId":"station-004105","note":"東京都狛江市元和泉1-23-1"},{"id":"C113221900029","name":"狛江市立狛江第二中学校","categoryId":"junior_high","categoryLabel":"中学","lat":35.627244,"lng":139.583129,"stationId":"station-004076","note":"東京都狛江市猪方2-7-1"},{"id":"C113221900047","name":"狛江市立狛江第四中学校","categoryId":"junior_high","categoryLabel":"中学","lat":35.645196,"lng":139.581732,"stationId":"station-004053","note":"東京都狛江市東野川4-1-1"},{"id":"C113220800031","name":"調布市立第三中学校","categoryId":"junior_high","categoryLabel":"中学","lat":35.641395,"lng":139.556648,"stationId":"station-003973","note":"東京都調布市染地3-2-7"},{"id":"A113311200136","name":"国本幼稚園","categoryId":"kindergarten","categoryLabel":"幼稚园","lat":35.635705,"lng":139.588703,"stationId":"station-004053","note":"東京都世田谷区喜多見8-15-33"},{"id":"A113321900030","name":"子鹿幼稚園","categoryId":"kindergarten","categoryLabel":"幼稚园","lat":35.646005,"lng":139.584724,"stationId":"station-004053","note":"東京都狛江市東野川3-17-1"},{"id":"A113320800122","name":"染地幼稚園","categoryId":"kindergarten","categoryLabel":"幼稚园","lat":35.638554,"lng":139.562784,"stationId":"station-003973","note":"東京都調布市染地3-1-152"},{"id":"A113321900012","name":"狛江こだま幼稚園","categoryId":"kindergarten","categoryLabel":"幼稚园","lat":35.63763,"lng":139.568666,"stationId":"station-004076","note":"東京都狛江市中和泉3-14-8"},{"id":"A113311200083","name":"聖セシリア喜多見幼稚園","categoryId":"kindergarten","categoryLabel":"幼稚园","lat":35.637907,"lng":139.588706,"stationId":"station-004053","note":"東京都世田谷区喜多見9-9-5"},{"id":"A113320800051","name":"調布多摩川幼稚園","categoryId":"kindergarten","categoryLabel":"幼稚园","lat":35.641641,"lng":139.557687,"stationId":"station-003973","note":"東京都調布市染地3-1-29"},{"id":"A113320800097","name":"調布若竹幼稚園","categoryId":"kindergarten","categoryLabel":"幼稚园","lat":35.644115,"lng":139.55556,"stationId":"station-003973","note":"東京都調布市国領町6-28-8"},{"id":"A113320800159","name":"駿河台大学第一幼稚園","categoryId":"kindergarten","categoryLabel":"幼稚园","lat":35.648449,"lng":139.560569,"stationId":"station-003973","note":"東京都調布市国領町3-8-15都営くすのきアパート2号棟1階"},{"id":"D113320800028","name":"ドルトン東京学園高等部","categoryId":"other","categoryLabel":"其他","lat":35.649469,"lng":139.586772,"stationId":"station-003933","note":"東京都調布市入間町2-28-20"},{"id":"F113310103288","name":"東京慈恵会医科大学","categoryId":"university","categoryLabel":"大学","lat":35.645511,"lng":139.564998,"stationId":"station-003973","note":"東京都調布市国領町8-3-1"},{"id":"H113321900017","name":"慈恵第三看護専門学校","categoryId":"vocational","categoryLabel":"专门学校","lat":35.645446,"lng":139.565935,"stationId":"station-003973","note":"東京都狛江市和泉本町4-11-1"}]
