[{"id":"B113220400117","name":"三鷹市立中原小学校","categoryId":"elementary","categoryLabel":"小学","lat":35.670245,"lng":139.571048,"stationId":"station-003933","note":"東京都三鷹市中原2-12-13"},{"id":"B113220400144","name":"三鷹市立東台小学校","categoryId":"elementary","categoryLabel":"小学","lat":35.667415,"lng":139.572068,"stationId":"station-003933","note":"東京都三鷹市中原2-17-37"},{"id":"B113320800013","name":"晃華学園小学校","categoryId":"elementary","categoryLabel":"小学","lat":35.663061,"lng":139.560703,"stationId":"station-003959","note":"東京都調布市佐須町5-28-1"},{"id":"B113320800022","name":"桐朋小学校","categoryId":"elementary","categoryLabel":"小学","lat":35.658399,"lng":139.583542,"stationId":"station-003903","note":"東京都調布市若葉町1-41-1"},{"id":"B113220800088","name":"調布市立上ノ原小学校","categoryId":"elementary","categoryLabel":"小学","lat":35.663567,"lng":139.563485,"stationId":"station-003959","note":"東京都調布市柴崎2-26-1"},{"id":"B113220800177","name":"調布市立柏野小学校","categoryId":"elementary","categoryLabel":"小学","lat":35.660551,"lng":139.555723,"stationId":"station-003973","note":"東京都調布市深大寺南町1-1-1"},{"id":"B113220800060","name":"調布市立滝坂小学校","categoryId":"elementary","categoryLabel":"小学","lat":35.659416,"lng":139.576323,"stationId":"station-003933","note":"東京都調布市東つつじヶ丘1-4-1"},{"id":"B113220800113","name":"調布市立緑ヶ丘小学校","categoryId":"elementary","categoryLabel":"小学","lat":35.669966,"lng":139.584842,"stationId":"station-003903","note":"東京都調布市緑ヶ丘2-16-1"},{"id":"B113220800104","name":"調布市立若葉小学校","categoryId":"elementary","categoryLabel":"小学","lat":35.655332,"lng":139.582959,"stationId":"station-003933","note":"東京都調布市若葉町3-17-5"},{"id":"B113220800202","name":"調布市立調和小学校","categoryId":"elementary","categoryLabel":"小学","lat":35.651441,"lng":139.573457,"stationId":"station-003959","note":"東京都調布市西つつじヶ丘4-22-6"},{"id":"D113320800037","name":"晃華学園高等学校","categoryId":"high_school","categoryLabel":"高中","lat":35.66294,"lng":139.559569,"stationId":"station-003959","note":"東京都調布市佐須町5-28-1"},{"id":"D113299910012","name":"東京都立神代高等学校","categoryId":"high_school","categoryLabel":"高中","lat":35.657434,"lng":139.585926,"stationId":"station-003903","note":"東京都調布市若葉町1-46-1"},{"id":"D113320800046","name":"桐朋女子高等学校","categoryId":"high_school","categoryLabel":"高中","lat":35.659482,"lng":139.584279,"stationId":"station-003903","note":"東京都調布市若葉町1-41-1"},{"id":"C113220400053","name":"三鷹市立第五中学校","categoryId":"junior_high","categoryLabel":"中学","lat":35.671071,"lng":139.577376,"stationId":"station-003903","note":"東京都三鷹市新川1-7-20"},{"id":"C113320800020","name":"晃華学園中学校","categoryId":"junior_high","categoryLabel":"中学","lat":35.662546,"lng":139.559534,"stationId":"station-003959","note":"東京都調布市佐須町5-28-1"},{"id":"C113320800039","name":"桐朋女子中学校","categoryId":"junior_high","categoryLabel":"中学","lat":35.659243,"lng":139.584831,"stationId":"station-003903","note":"東京都調布市若葉町1-41-1"},{"id":"C113220800022","name":"調布市立神代中学校","categoryId":"junior_high","categoryLabel":"中学","lat":35.661639,"lng":139.56166,"stationId":"station-003959","note":"東京都調布市佐須町5-26-1"},{"id":"C113220800077","name":"調布市立第七中学校","categoryId":"junior_high","categoryLabel":"中学","lat":35.654115,"lng":139.560083,"stationId":"station-003973","note":"東京都調布市八雲台2-16-1"},{"id":"C113220800086","name":"調布市立第八中学校","categoryId":"junior_high","categoryLabel":"中学","lat":35.664408,"lng":139.581673,"stationId":"station-003903","note":"東京都調布市仙川町2-15-2"},{"id":"C113220800068","name":"調布市立第六中学校","categoryId":"junior_high","categoryLabel":"中学","lat":35.650143,"lng":139.560879,"stationId":"station-003973","note":"東京都調布市国領町3-8-23"},{"id":"C113220800040","name":"調布市立第四中学校","categoryId":"junior_high","categoryLabel":"中学","lat":35.654115,"lng":139.583065,"stationId":"station-003933","note":"東京都調布市若葉町3-15-1"},{"id":"A113320800042","name":"つつじがおか幼稚園","categoryId":"kindergarten","categoryLabel":"幼稚园","lat":35.651723,"lng":139.575896,"stationId":"station-003933","note":"東京都調布市西つつじヶ丘4-23"},{"id":"A113320400153","name":"三鷹中原幼稚園","categoryId":"kindergarten","categoryLabel":"幼稚园","lat":35.666552,"lng":139.569194,"stationId":"station-003933","note":"東京都三鷹市中原4-12-26"},{"id":"A113320800088","name":"仙川かおる幼稚園","categoryId":"kindergarten","categoryLabel":"幼稚园","lat":35.66109,"lng":139.587802,"stationId":"station-003903","note":"東京都調布市仙川町1-25"},{"id":"A113320400135","name":"愛泉幼稚園","categoryId":"kindergarten","categoryLabel":"幼稚园","lat":35.662881,"lng":139.576425,"stationId":"station-003933","note":"東京都三鷹市中原1-7-38"},{"id":"A113320400162","name":"春清学苑幼稚園","categoryId":"kindergarten","categoryLabel":"幼稚园","lat":35.66947,"lng":139.573848,"stationId":"station-003933","note":"東京都三鷹市新川4-4-22"},{"id":"A113320800033","name":"晃華学園マリアの園幼稚園","categoryId":"kindergarten","categoryLabel":"幼稚园","lat":35.662761,"lng":139.56043,"stationId":"station-003959","note":"東京都調布市佐須町5-28-1"},{"id":"A113320800015","name":"桐朋幼稚園","categoryId":"kindergarten","categoryLabel":"幼稚园","lat":35.658111,"lng":139.584222,"stationId":"station-003903","note":"東京都調布市若葉町1-41-1"},{"id":"A113320800140","name":"調布たちばな幼稚園","categoryId":"kindergarten","categoryLabel":"幼稚园","lat":35.654132,"lng":139.578124,"stationId":"station-003933","note":"東京都調布市東つつじヶ丘3-3-1"},{"id":"A113320800104","name":"調布白菊幼稚園","categoryId":"kindergarten","categoryLabel":"幼稚园","lat":35.658095,"lng":139.578404,"stationId":"station-003933","note":"東京都調布市東つつじヶ丘2-12-1"},{"id":"C113320800048","name":"ドルトン東京学園中等部","categoryId":"other","categoryLabel":"其他","lat":35.650469,"lng":139.587139,"stationId":"station-003903","note":"東京都調布市入間町2-28-20"},{"id":"F113310103812","name":"桐朋学園大学","categoryId":"university","categoryLabel":"大学","lat":35.658792,"lng":139.585171,"stationId":"station-003903","note":"東京都調布市若葉町1-41-1"},{"id":"F213310104491","name":"桐朋学園芸術短期大学","categoryId":"university","categoryLabel":"大学","lat":35.659371,"lng":139.583459,"stationId":"station-003903","note":"東京都調布市若葉町1-41-1"},{"id":"F113310103723","name":"白百合女子大学","categoryId":"university","categoryLabel":"大学","lat":35.669085,"lng":139.580932,"stationId":"station-003903","note":"東京都調布市緑ケ丘1-25"}]
