[{"id":"B113211500320","name":"杉並区立八成小学校","categoryId":"elementary","categoryLabel":"小学","lat":35.728535,"lng":139.619668,"stationId":"station-003440","note":"東京都杉並区井草2-25-4"},{"id":"B113212000485","name":"練馬区立下石神井小学校","categoryId":"elementary","categoryLabel":"小学","lat":35.731669,"lng":139.605382,"stationId":"station-003437","note":"東京都練馬区下石神井2-20-18"},{"id":"B113212000305","name":"練馬区立光和小学校","categoryId":"elementary","categoryLabel":"小学","lat":35.74621,"lng":139.607314,"stationId":"station-003292","note":"東京都練馬区石神井町2-16-34"},{"id":"B113212000537","name":"練馬区立南が丘小学校","categoryId":"elementary","categoryLabel":"小学","lat":35.733774,"lng":139.617167,"stationId":"station-003314","note":"東京都練馬区南田中2-13-1"},{"id":"B113212000449","name":"練馬区立南田中小学校","categoryId":"elementary","categoryLabel":"小学","lat":35.737067,"lng":139.611093,"stationId":"station-003314","note":"東京都練馬区南田中5-15-37"},{"id":"B113212000396","name":"練馬区立大泉東小学校","categoryId":"elementary","categoryLabel":"小学","lat":35.749017,"lng":139.591058,"stationId":"station-003263","note":"東京都練馬区東大泉1-22-1"},{"id":"B113212000494","name":"練馬区立富士見台小学校","categoryId":"elementary","categoryLabel":"小学","lat":35.744922,"lng":139.623284,"stationId":"station-003314","note":"東京都練馬区富士見台4-16-10"},{"id":"B113212000270","name":"練馬区立石神井小学校","categoryId":"elementary","categoryLabel":"小学","lat":35.735613,"lng":139.598974,"stationId":"station-003292","note":"東京都練馬区石神井台1-1-25"},{"id":"B113212000298","name":"練馬区立石神井東小学校","categoryId":"elementary","categoryLabel":"小学","lat":35.73752,"lng":139.619833,"stationId":"station-003314","note":"東京都練馬区南田中3-9-1"},{"id":"D113299903093","name":"東京都立井草高等学校","categoryId":"high_school","categoryLabel":"高中","lat":35.727665,"lng":139.598309,"stationId":"station-003437","note":"東京都練馬区上石神井2-2-43"},{"id":"D113299903100","name":"東京都立大泉高等学校","categoryId":"high_school","categoryLabel":"高中","lat":35.745594,"lng":139.593631,"stationId":"station-003263","note":"東京都練馬区東大泉5-3-1"},{"id":"C113299900052","name":"東京都立大泉高等学校附属中学校","categoryId":"junior_high","categoryLabel":"中学","lat":35.74596,"lng":139.593554,"stationId":"station-003263","note":"東京都練馬区東大泉5-3-1"},{"id":"C113212000296","name":"練馬区立南が丘中学校","categoryId":"junior_high","categoryLabel":"中学","lat":35.733959,"lng":139.613134,"stationId":"station-003314","note":"東京都練馬区南田中4-8-23"},{"id":"C113212000143","name":"練馬区立石神井中学校","categoryId":"junior_high","categoryLabel":"中学","lat":35.741216,"lng":139.595823,"stationId":"station-003292","note":"東京都練馬区石神井台1-32-1"},{"id":"C113212000152","name":"練馬区立石神井南中学校","categoryId":"junior_high","categoryLabel":"中学","lat":35.730466,"lng":139.609051,"stationId":"station-003437","note":"東京都練馬区下石神井2-7-23"},{"id":"C113212000161","name":"練馬区立石神井東中学校","categoryId":"junior_high","categoryLabel":"中学","lat":35.742459,"lng":139.616875,"stationId":"station-003314","note":"東京都練馬区高野台1-8-34"},{"id":"A113311500106","name":"ひこばえ幼稚園","categoryId":"kindergarten","categoryLabel":"幼稚园","lat":35.729674,"lng":139.623802,"stationId":"station-003444","note":"東京都杉並区井草1-45-15"},{"id":"A113311500179","name":"井荻聖母幼稚園","categoryId":"kindergarten","categoryLabel":"幼稚园","lat":35.728431,"lng":139.612084,"stationId":"station-003440","note":"東京都杉並区井草4-19-21"},{"id":"A113312000369","name":"愛和幼稚園","categoryId":"kindergarten","categoryLabel":"幼稚园","lat":35.735824,"lng":139.615546,"stationId":"station-003314","note":"東京都練馬区南田中2-23-30"},{"id":"A113312000145","name":"清心幼稚園","categoryId":"kindergarten","categoryLabel":"幼稚园","lat":35.74068,"lng":139.600589,"stationId":"station-003292","note":"東京都練馬区石神井町6-20-12"},{"id":"A113312000181","name":"石神井幼稚園","categoryId":"kindergarten","categoryLabel":"幼稚园","lat":35.748462,"lng":139.599187,"stationId":"station-003292","note":"東京都練馬区石神井町8-45-7"},{"id":"A113312000305","name":"認定こども園南光幼稚園","categoryId":"kindergarten","categoryLabel":"幼稚园","lat":35.742927,"lng":139.624448,"stationId":"station-003314","note":"東京都練馬区富士見台4-11-3"},{"id":"A113312000298","name":"認定こども園石神井南幼稚園","categoryId":"kindergarten","categoryLabel":"幼稚园","lat":35.727962,"lng":139.60217,"stationId":"station-003437","note":"東京都練馬区下石神井4-21-23"},{"id":"H213312000014","name":"東京手芸編物学校","categoryId":"other","categoryLabel":"其他","lat":35.740541,"lng":139.598343,"stationId":"station-003292","note":"東京都練馬区石神井町6-27-9"},{"id":"D113312000050","name":"早稲田大学高等学院","categoryId":"university","categoryLabel":"大学","lat":35.731132,"lng":139.593465,"stationId":"station-003427","note":"東京都練馬区上石神井3-31-1"},{"id":"C113312000052","name":"早稲田大学高等学院中学部","categoryId":"university","categoryLabel":"大学","lat":35.731192,"lng":139.592942,"stationId":"station-003427","note":"東京都練馬区上石神井3-31-1"}]
