[{"id":"B113211400081","name":"中野区立北原小学校","categoryId":"elementary","categoryLabel":"小学","lat":35.721024,"lng":139.651337,"stationId":"station-003473","note":"東京都中野区野方6-30-6"},{"id":"B113211400072","name":"中野区立啓明小学校","categoryId":"elementary","categoryLabel":"小学","lat":35.713517,"lng":139.652418,"stationId":"station-003473","note":"東京都中野区大和町1-18-1"},{"id":"B113211400198","name":"中野区立美鳩小学校","categoryId":"elementary","categoryLabel":"小学","lat":35.71447,"lng":139.645196,"stationId":"station-003453","note":"東京都中野区大和町4-26-5"},{"id":"B113211400116","name":"中野区立西中野小学校","categoryId":"elementary","categoryLabel":"小学","lat":35.72079,"lng":139.631118,"stationId":"station-003444","note":"東京都中野区白鷺3-9-2"},{"id":"B113211500017","name":"杉並区立杉並第一小学校","categoryId":"elementary","categoryLabel":"小学","lat":35.7064,"lng":139.636905,"stationId":"station-003574","note":"東京都杉並区阿佐谷北1-5-27"},{"id":"B113211500053","name":"杉並区立杉並第七小学校","categoryId":"elementary","categoryLabel":"小学","lat":35.702576,"lng":139.630983,"stationId":"station-003619","note":"東京都杉並区阿佐谷南3-19-2"},{"id":"B113211500062","name":"杉並区立杉並第九小学校","categoryId":"elementary","categoryLabel":"小学","lat":35.713632,"lng":139.633038,"stationId":"station-003574","note":"東京都杉並区本天沼1-2-19"},{"id":"B113211500044","name":"杉並区立杉並第六小学校","categoryId":"elementary","categoryLabel":"小学","lat":35.701533,"lng":139.643364,"stationId":"station-003632","note":"東京都杉並区阿佐谷南1-24-21"},{"id":"B113211500106","name":"杉並区立馬橋小学校","categoryId":"elementary","categoryLabel":"小学","lat":35.708708,"lng":139.643252,"stationId":"station-003573","note":"東京都杉並区高円寺北4-28-5"},{"id":"B113211500400","name":"杉並区立高円寺小学校","categoryId":"elementary","categoryLabel":"小学","lat":35.706023,"lng":139.655062,"stationId":"station-003573","note":"東京都杉並区高円寺北1-4-11"},{"id":"D113311500057","name":"文化学園大学杉並高等学校","categoryId":"high_school","categoryLabel":"高中","lat":35.704276,"lng":139.62857,"stationId":"station-003574","note":"東京都杉並区阿佐谷南3-48-16"},{"id":"D113311500100","name":"日本大学第二高等学校","categoryId":"high_school","categoryLabel":"高中","lat":35.71094,"lng":139.628483,"stationId":"station-003574","note":"東京都杉並区天沼1-45-33"},{"id":"D113311500011","name":"杉並学院高等学校","categoryId":"high_school","categoryLabel":"高中","lat":35.704779,"lng":139.642764,"stationId":"station-003574","note":"東京都杉並区阿佐谷南2-30-17"},{"id":"D113299903182","name":"東京都立中野工科高等学校","categoryId":"high_school","categoryLabel":"高中","lat":35.716687,"lng":139.656744,"stationId":"station-003473","note":"東京都中野区野方3-5-5"},{"id":"D113299903011","name":"東京都立鷺宮高等学校","categoryId":"high_school","categoryLabel":"高中","lat":35.720353,"lng":139.643658,"stationId":"station-003453","note":"東京都中野区若宮3-46-8"},{"id":"C113211400114","name":"中野区立明和中学校","categoryId":"junior_high","categoryLabel":"中学","lat":35.716201,"lng":139.649749,"stationId":"station-003473","note":"東京都中野区若宮1-1-18"},{"id":"C113211400070","name":"中野区立緑野中学校","categoryId":"junior_high","categoryLabel":"中学","lat":35.723911,"lng":139.657101,"stationId":"station-003473","note":"東京都中野区丸山1-1-19"},{"id":"C113311500040","name":"文化学園大学杉並中学校","categoryId":"junior_high","categoryLabel":"中学","lat":35.704385,"lng":139.628096,"stationId":"station-003577","note":"東京都杉並区阿佐谷南3-48-16"},{"id":"C113311500068","name":"日本大学第二中学校","categoryId":"junior_high","categoryLabel":"中学","lat":35.711149,"lng":139.627543,"stationId":"station-003577","note":"東京都杉並区天沼1-45-33"},{"id":"C113211500024","name":"杉並区立杉森中学校","categoryId":"junior_high","categoryLabel":"中学","lat":35.711809,"lng":139.641426,"stationId":"station-003574","note":"東京都杉並区阿佐谷北5-45-24"},{"id":"C113211500079","name":"杉並区立東原中学校","categoryId":"junior_high","categoryLabel":"中学","lat":35.717767,"lng":139.630758,"stationId":"station-003444","note":"東京都杉並区下井草1-28-5"},{"id":"C113211500033","name":"杉並区立阿佐ヶ谷中学校","categoryId":"junior_high","categoryLabel":"中学","lat":35.700353,"lng":139.6362,"stationId":"station-003619","note":"東京都杉並区阿佐谷南1-17-3"},{"id":"C113211500239","name":"杉並区立高円寺中学校","categoryId":"junior_high","categoryLabel":"中学","lat":35.706545,"lng":139.655478,"stationId":"station-003573","note":"東京都杉並区高円寺北1-4-11"},{"id":"A113311500213","name":"ちどり幼稚園","categoryId":"kindergarten","categoryLabel":"幼稚园","lat":35.721432,"lng":139.626835,"stationId":"station-003444","note":"東京都杉並区下井草2-30-9"},{"id":"A113311500062","name":"のぞみ幼稚園","categoryId":"kindergarten","categoryLabel":"幼稚园","lat":35.71459,"lng":139.637896,"stationId":"station-003451","note":"東京都杉並区阿佐谷北6-25-17"},{"id":"A113311400152","name":"やはた幼稚園","categoryId":"kindergarten","categoryLabel":"幼稚园","lat":35.714295,"lng":139.650716,"stationId":"station-003473","note":"東京都中野区大和町2-30-3"},{"id":"A113311500151","name":"世尊院幼稚園","categoryId":"kindergarten","categoryLabel":"幼稚园","lat":35.707412,"lng":139.63639,"stationId":"station-003574","note":"東京都杉並区阿佐谷北1-26-18"},{"id":"A113311400081","name":"中野小鳩幼稚園","categoryId":"kindergarten","categoryLabel":"幼稚园","lat":35.71829,"lng":139.659053,"stationId":"station-003473","note":"東京都中野区沼袋3-21-7"},{"id":"A113311500044","name":"光塩女子学院幼稚園","categoryId":"kindergarten","categoryLabel":"幼稚园","lat":35.701576,"lng":139.65898,"stationId":"station-003628","note":"東京都杉並区高円寺南5-11-35"},{"id":"A113311400198","name":"大和幼稚園","categoryId":"kindergarten","categoryLabel":"幼稚园","lat":35.716316,"lng":139.651084,"stationId":"station-003473","note":"東京都中野区野方5-8-8"},{"id":"A113311500026","name":"日本大学幼稚園","categoryId":"kindergarten","categoryLabel":"幼稚园","lat":35.707784,"lng":139.627681,"stationId":"station-003577","note":"東京都杉並区天沼1-31-14"},{"id":"A113311500295","name":"杉並央文幼稚園","categoryId":"kindergarten","categoryLabel":"幼稚园","lat":35.704959,"lng":139.659061,"stationId":"nakano","note":"東京都杉並区高円寺南5-37-15"},{"id":"A113311500302","name":"杉並幼稚園","categoryId":"kindergarten","categoryLabel":"幼稚园","lat":35.702679,"lng":139.642545,"stationId":"station-003574","note":"東京都杉並区阿佐谷南2-4-36"},{"id":"A113311400161","name":"若宮幼稚園","categoryId":"kindergarten","categoryLabel":"幼稚园","lat":35.719298,"lng":139.644484,"stationId":"station-003453","note":"東京都中野区若宮3-45-11"},{"id":"A113311500080","name":"阿佐谷幼稚園","categoryId":"kindergarten","categoryLabel":"幼稚园","lat":35.709657,"lng":139.641902,"stationId":"station-003574","note":"東京都杉並区阿佐谷北5-13-2"},{"id":"A213311400026","name":"なかのこども園","categoryId":"other","categoryLabel":"其他","lat":35.712062,"lng":139.659669,"stationId":"nakano","note":"東京都中野区野方1-10-2"},{"id":"C113311500013","name":"光塩女子学院中等科","categoryId":"other","categoryLabel":"其他","lat":35.700214,"lng":139.653205,"stationId":"station-003632","note":"東京都杉並区高円寺南2-33-28"},{"id":"B113311500015","name":"光塩女子学院初等科","categoryId":"other","categoryLabel":"其他","lat":35.700512,"lng":139.653294,"stationId":"station-003632","note":"東京都杉並区高円寺南2-33-28"},{"id":"D113311500020","name":"光塩女子学院高等科","categoryId":"other","categoryLabel":"其他","lat":35.700393,"lng":139.653252,"stationId":"station-003632","note":"東京都杉並区高円寺南2-33-28"},{"id":"H113311500147","name":"専修学校中央ゼミナール","categoryId":"other","categoryLabel":"其他","lat":35.704971,"lng":139.650681,"stationId":"station-003573","note":"東京都杉並区高円寺南4-45-10"},{"id":"A113211500028","name":"杉並区立高円寺北子供園","categoryId":"other","categoryLabel":"其他","lat":35.706914,"lng":139.653587,"stationId":"station-003573","note":"東京都杉並区高円寺北2-14-13"},{"id":"H213311500011","name":"東京朝鮮第９初級学校","categoryId":"other","categoryLabel":"其他","lat":35.709116,"lng":139.638163,"stationId":"station-003574","note":"東京都杉並区阿佐谷北1-39-3"},{"id":"F113310102911","name":"帝京平成大学","categoryId":"university","categoryLabel":"大学","lat":35.707604,"lng":139.658967,"stationId":"nakano","note":"東京都中野区中野4-21-2"},{"id":"F113310103536","name":"明治大学","categoryId":"university","categoryLabel":"大学","lat":35.706664,"lng":139.659195,"stationId":"nakano","note":"東京都中野区中野4-21-1"},{"id":"H113311500101","name":"専門学校日本鉄道＆スポーツビジネスカレッジ","categoryId":"vocational","categoryLabel":"专门学校","lat":35.704637,"lng":139.655077,"stationId":"station-003573","note":"東京都杉並区高円寺南5-32-10"},{"id":"H113311500076","name":"日本動物専門学校","categoryId":"vocational","categoryLabel":"专门学校","lat":35.702956,"lng":139.649234,"stationId":"station-003573","note":"東京都杉並区高円寺南4-6-8"},{"id":"H113311500085","name":"日本医歯薬専門学校","categoryId":"vocational","categoryLabel":"专门学校","lat":35.701385,"lng":139.649777,"stationId":"station-003632","note":"東京都杉並区高円寺南2-44-1"},{"id":"H113311500138","name":"東京法律公務員専門学校杉並校","categoryId":"vocational","categoryLabel":"专门学校","lat":35.705395,"lng":139.646807,"stationId":"station-003573","note":"東京都杉並区高円寺北3-4-21"},{"id":"H113311500129","name":"東京ＩＴプログラミング＆会計専門学校杉並校","categoryId":"vocational","categoryLabel":"专门学校","lat":35.703247,"lng":139.650995,"stationId":"station-003573","note":"東京都杉並区高円寺南4-21-8"}]
