[{"id":"B113311000029","name":"サレジアン国際学園目黒星美小学校","categoryId":"elementary","categoryLabel":"小学","lat":35.620517,"lng":139.686625,"stationId":"station-004094","note":"東京都目黒区碑文谷2-17-6"},{"id":"B113311000010","name":"トキワ松学園小学校","categoryId":"elementary","categoryLabel":"小学","lat":35.620775,"lng":139.682447,"stationId":"station-004143","note":"東京都目黒区碑文谷4-17-16"},{"id":"B113211200323","name":"世田谷区立八幡小学校","categoryId":"elementary","categoryLabel":"小学","lat":35.602813,"lng":139.666967,"stationId":"station-004223","note":"東京都世田谷区玉川田園調布2-17-15"},{"id":"B113211100299","name":"大田区立洗足池小学校","categoryId":"elementary","categoryLabel":"小学","lat":35.600005,"lng":139.686618,"stationId":"station-004247","note":"東京都大田区南千束3-35-2"},{"id":"B113211100315","name":"大田区立清水窪小学校","categoryId":"elementary","categoryLabel":"小学","lat":35.60937,"lng":139.688336,"stationId":"station-004202","note":"東京都大田区北千束1-20-15"},{"id":"B113211100306","name":"大田区立赤松小学校","categoryId":"elementary","categoryLabel":"小学","lat":35.606201,"lng":139.69236,"stationId":"station-004212","note":"東京都大田区北千束2-35-8"},{"id":"B113211000209","name":"目黒区立中根小学校","categoryId":"elementary","categoryLabel":"小学","lat":35.6127,"lng":139.67821,"stationId":"station-004143","note":"東京都目黒区緑が丘1-1-1"},{"id":"B113211000012","name":"目黒区立八雲小学校","categoryId":"elementary","categoryLabel":"小学","lat":35.61817,"lng":139.671265,"stationId":"station-004143","note":"東京都目黒区八雲2-5-1"},{"id":"B113211000165","name":"目黒区立原町小学校","categoryId":"elementary","categoryLabel":"小学","lat":35.615688,"lng":139.690523,"stationId":"station-004180","note":"東京都目黒区原町2-18-12"},{"id":"B113211000076","name":"目黒区立大岡山小学校","categoryId":"elementary","categoryLabel":"小学","lat":35.615477,"lng":139.682954,"stationId":"station-004143","note":"東京都目黒区平町2-3-1"},{"id":"B113211000218","name":"目黒区立宮前小学校","categoryId":"elementary","categoryLabel":"小学","lat":35.615418,"lng":139.667035,"stationId":"station-004143","note":"東京都目黒区八雲3-13-21"},{"id":"B113211000049","name":"目黒区立碑小学校","categoryId":"elementary","categoryLabel":"小学","lat":35.61929,"lng":139.690632,"stationId":"station-004157","note":"東京都目黒区碑文谷1-18-2"},{"id":"B113211000156","name":"目黒区立緑ヶ丘小学校","categoryId":"elementary","categoryLabel":"小学","lat":35.610338,"lng":139.673334,"stationId":"station-004196","note":"東京都目黒区緑が丘2-13-1"},{"id":"D113311000034","name":"トキワ松学園高等学校","categoryId":"high_school","categoryLabel":"高中","lat":35.620604,"lng":139.682175,"stationId":"station-004143","note":"東京都目黒区碑文谷4-17-16"},{"id":"D113311000070","name":"八雲学園高等学校","categoryId":"high_school","categoryLabel":"高中","lat":35.61844,"lng":139.6701,"stationId":"station-004143","note":"東京都目黒区八雲2-14-1"},{"id":"D113311000016","name":"自由ヶ丘学園高等学校","categoryId":"high_school","categoryLabel":"高中","lat":35.612231,"lng":139.666492,"stationId":"station-004196","note":"東京都目黒区自由が丘2-21-1"},{"id":"C113311000036","name":"トキワ松学園中学校","categoryId":"junior_high","categoryLabel":"中学","lat":35.620282,"lng":139.682308,"stationId":"station-004143","note":"東京都目黒区碑文谷4-17-16"},{"id":"C113211200134","name":"世田谷区立八幡中学校","categoryId":"junior_high","categoryLabel":"中学","lat":35.610858,"lng":139.661534,"stationId":"station-004216","note":"東京都世田谷区等々力6-4-1"},{"id":"C113211200125","name":"世田谷区立奥沢中学校","categoryId":"junior_high","categoryLabel":"中学","lat":35.602762,"lng":139.679546,"stationId":"station-004210","note":"東京都世田谷区奥沢1-42-1"},{"id":"C113311000045","name":"八雲学園中学校","categoryId":"junior_high","categoryLabel":"中学","lat":35.618376,"lng":139.669679,"stationId":"station-004143","note":"東京都目黒区八雲2-14-1"},{"id":"C113211100144","name":"大田区立大森第六中学校","categoryId":"junior_high","categoryLabel":"中学","lat":35.601842,"lng":139.692851,"stationId":"station-004239","note":"東京都大田区南千束1-33-1"},{"id":"C113211000029","name":"目黒区立第七中学校","categoryId":"junior_high","categoryLabel":"中学","lat":35.623001,"lng":139.691837,"stationId":"station-004094","note":"東京都目黒区碑文谷1-1-33"},{"id":"C113211000047","name":"目黒区立第九中学校","categoryId":"junior_high","categoryLabel":"中学","lat":35.613581,"lng":139.694605,"stationId":"station-004180","note":"東京都目黒区洗足1-29-26"},{"id":"C113211000038","name":"目黒区立第八中学校","categoryId":"junior_high","categoryLabel":"中学","lat":35.619724,"lng":139.682623,"stationId":"station-004143","note":"東京都目黒区碑文谷4-19-25"},{"id":"C113211000065","name":"目黒区立第十一中学校","categoryId":"junior_high","categoryLabel":"中学","lat":35.609466,"lng":139.679028,"stationId":"station-004210","note":"東京都目黒区緑が丘1-8-1"},{"id":"C113211000056","name":"目黒区立第十中学校","categoryId":"junior_high","categoryLabel":"中学","lat":35.624372,"lng":139.668434,"stationId":"station-004143","note":"東京都目黒区八雲5-2-1"},{"id":"A113311000218","name":"ベテル幼稚園","categoryId":"kindergarten","categoryLabel":"幼稚园","lat":35.61956,"lng":139.675306,"stationId":"station-004143","note":"東京都目黒区柿の木坂1-31-19"},{"id":"A113311000129","name":"円融寺幼稚園","categoryId":"kindergarten","categoryLabel":"幼稚园","lat":35.620156,"lng":139.689412,"stationId":"station-004157","note":"東京都目黒区碑文谷1-22-22"},{"id":"A113311200270","name":"奥沢幼稚園","categoryId":"kindergarten","categoryLabel":"幼稚园","lat":35.606282,"lng":139.671504,"stationId":"station-004196","note":"東京都世田谷区奥沢2-36-7"},{"id":"A113311000183","name":"志のぶ幼稚園","categoryId":"kindergarten","categoryLabel":"幼稚园","lat":35.613939,"lng":139.680817,"stationId":"station-004143","note":"東京都目黒区平町2-17-21"},{"id":"A113311000049","name":"柿ノ木坂幼稚園","categoryId":"kindergarten","categoryLabel":"幼稚园","lat":35.624922,"lng":139.673257,"stationId":"station-004143","note":"東京都目黒区柿ノ木坂2-28-20"},{"id":"A113311200298","name":"玉川小羊幼稚園","categoryId":"kindergarten","categoryLabel":"幼稚园","lat":35.607671,"lng":139.664059,"stationId":"station-004216","note":"東京都世田谷区奥沢7-12-22"},{"id":"A113311200289","name":"白菊幼稚園","categoryId":"kindergarten","categoryLabel":"幼稚园","lat":35.601196,"lng":139.679507,"stationId":"station-004210","note":"東京都世田谷区奥沢1-18-9"},{"id":"A113311000012","name":"目黒サレジオ幼稚園","categoryId":"kindergarten","categoryLabel":"幼稚园","lat":35.620389,"lng":139.687706,"stationId":"station-004094","note":"東京都目黒区碑文谷1-26-24"},{"id":"A113311100100","name":"福音ルーテル教会大岡山幼稚園","categoryId":"kindergarten","categoryLabel":"幼稚园","lat":35.603207,"lng":139.685288,"stationId":"station-004202","note":"東京都大田区南千束3-16-5"},{"id":"A113311100271","name":"若竹幼稚園","categoryId":"kindergarten","categoryLabel":"幼稚园","lat":35.611043,"lng":139.689183,"stationId":"station-004180","note":"東京都大田区北千束1-17-2"},{"id":"A113311000174","name":"若草幼稚園","categoryId":"kindergarten","categoryLabel":"幼稚园","lat":35.613081,"lng":139.667093,"stationId":"station-004196","note":"東京都目黒区自由が丘2-3-20"},{"id":"H213311000016","name":"アサヒドレスメーカー女学院","categoryId":"other","categoryLabel":"其他","lat":35.615839,"lng":139.668826,"stationId":"station-004143","note":"東京都目黒区八雲3-10-22"},{"id":"H113311000044","name":"専修学校河合塾自由が丘校","categoryId":"other","categoryLabel":"其他","lat":35.610314,"lng":139.67016,"stationId":"station-004196","note":"東京都目黒区自由が丘1-15-13"},{"id":"D213299900013","name":"東京都立桜修館中等教育学校","categoryId":"other","categoryLabel":"其他","lat":35.621497,"lng":139.671001,"stationId":"station-004143","note":"東京都目黒区八雲1-1-2"},{"id":"C113311200141","name":"玉川聖学院中等部","categoryId":"other","categoryLabel":"其他","lat":35.606681,"lng":139.664599,"stationId":"station-004216","note":"東京都世田谷区奥沢7-11-22"},{"id":"D113311200176","name":"玉川聖学院高等部","categoryId":"other","categoryLabel":"其他","lat":35.606314,"lng":139.664567,"stationId":"station-004216","note":"東京都世田谷区奥沢7-11-22"},{"id":"A113211000023","name":"目黒区立げっこうはらこども園","categoryId":"other","categoryLabel":"其他","lat":35.622523,"lng":139.694533,"stationId":"station-004157","note":"東京都目黒区目黒本町4-15-3"},{"id":"A113211000014","name":"目黒区立みどりがおかこども園","categoryId":"other","categoryLabel":"其他","lat":35.609439,"lng":139.674296,"stationId":"station-004210","note":"東京都目黒区緑が丘2-7-20"},{"id":"H213311200041","name":"自由ケ丘お料理学校","categoryId":"other","categoryLabel":"其他","lat":35.606247,"lng":139.668565,"stationId":"station-004196","note":"東京都世田谷区奥沢5-27-5"},{"id":"F113310103073","name":"昭和大学","categoryId":"university","categoryLabel":"大学","lat":35.609,"lng":139.694,"stationId":"station-004180","note":"東京都大田区北千束2-1-1"},{"id":"F113110102746","name":"東京工業大学","categoryId":"university","categoryLabel":"大学","lat":35.604405,"lng":139.683856,"stationId":"station-004202","note":"東京都目黒区大岡山2-12-1"},{"id":"F113310104125","name":"産業能率大学","categoryId":"university","categoryLabel":"大学","lat":35.613555,"lng":139.661573,"stationId":"station-004216","note":"東京都世田谷区等々力6-39-15"},{"id":"F213310104259","name":"自由が丘産能短期大学","categoryId":"university","categoryLabel":"大学","lat":35.613413,"lng":139.660938,"stationId":"station-004216","note":"東京都世田谷区等々力6-39-15"},{"id":"H113311000035","name":"グレッグ外語専門学校","categoryId":"vocational","categoryLabel":"专门学校","lat":35.609202,"lng":139.669942,"stationId":"station-004196","note":"東京都目黒区自由が丘1-14-6"},{"id":"H113311000017","name":"専門学校アイシーエスカレッジオブアーツ","categoryId":"vocational","categoryLabel":"专门学校","lat":35.620418,"lng":139.679845,"stationId":"station-004143","note":"東京都目黒区柿の木坂1-5-6"}]
