[{"id":"B113211200617","name":"世田谷区立下北沢小学校","categoryId":"elementary","categoryLabel":"小学","lat":35.666706,"lng":139.664588,"stationId":"station-003901","note":"東京都世田谷区大原1-4-6"},{"id":"B113211200065","name":"世田谷区立代沢小学校","categoryId":"elementary","categoryLabel":"小学","lat":35.655036,"lng":139.667524,"stationId":"station-003931","note":"東京都世田谷区代沢5-1-10"},{"id":"B113211200074","name":"世田谷区立多聞小学校","categoryId":"elementary","categoryLabel":"小学","lat":35.652583,"lng":139.67394,"stationId":"station-003914","note":"東京都世田谷区三宿2-26-11"},{"id":"B113211200163","name":"世田谷区立池之上小学校","categoryId":"elementary","categoryLabel":"小学","lat":35.668105,"lng":139.672249,"stationId":"station-003880","note":"東京都世田谷区北沢4-32-20"},{"id":"B113211300082","name":"渋谷区立上原小学校","categoryId":"elementary","categoryLabel":"小学","lat":35.666288,"lng":139.67895,"stationId":"station-003848","note":"東京都渋谷区上原3-13-20"},{"id":"B113211300117","name":"渋谷区立富谷小学校","categoryId":"elementary","categoryLabel":"小学","lat":35.669298,"lng":139.686827,"stationId":"station-003837","note":"東京都渋谷区上原1-46-4"},{"id":"B113211300108","name":"渋谷区立西原小学校","categoryId":"elementary","categoryLabel":"小学","lat":35.673996,"lng":139.678609,"stationId":"station-003791","note":"東京都渋谷区西原2-22-1"},{"id":"B113211000021","name":"目黒区立菅刈小学校","categoryId":"elementary","categoryLabel":"小学","lat":35.651743,"lng":139.692191,"stationId":"station-003938","note":"東京都目黒区青葉台3-3-26"},{"id":"B113211000147","name":"目黒区立駒場小学校","categoryId":"elementary","categoryLabel":"小学","lat":35.659843,"lng":139.682002,"stationId":"station-003929","note":"東京都目黒区駒場3-11-13"},{"id":"D113311200130","name":"下北沢成徳高等学校","categoryId":"high_school","categoryLabel":"高中","lat":35.665123,"lng":139.664853,"stationId":"station-003901","note":"東京都世田谷区代田6-12-39"},{"id":"D113311000025","name":"日本工業大学駒場高等学校","categoryId":"high_school","categoryLabel":"高中","lat":35.657353,"lng":139.6843,"stationId":"station-003929","note":"東京都目黒区駒場1-35-32"},{"id":"D113299902183","name":"東京都立国際高等学校","categoryId":"high_school","categoryLabel":"高中","lat":35.659293,"lng":139.67895,"stationId":"station-003929","note":"東京都目黒区駒場2-19-59"},{"id":"D113299902021","name":"東京都立駒場高等学校","categoryId":"high_school","categoryLabel":"高中","lat":35.654898,"lng":139.685888,"stationId":"station-003929","note":"東京都目黒区大橋2-18-1"},{"id":"D113311300086","name":"東海大学付属望星高等学校","categoryId":"high_school","categoryLabel":"高中","lat":35.665208,"lng":139.68642,"stationId":"station-003845","note":"東京都渋谷区富ヶ谷2-10-7"},{"id":"D113311200103","name":"松蔭大学附属松蔭高等学校","categoryId":"high_school","categoryLabel":"高中","lat":35.663132,"lng":139.675021,"stationId":"station-003880","note":"東京都世田谷区北沢1-16-10"},{"id":"D113110000030","name":"筑波大学附属駒場高等学校","categoryId":"high_school","categoryLabel":"高中","lat":35.655017,"lng":139.681001,"stationId":"station-003929","note":"東京都世田谷区池尻4-7-1"},{"id":"D113311200096","name":"駒場学園高等学校","categoryId":"high_school","categoryLabel":"高中","lat":35.656051,"lng":139.677688,"stationId":"station-003914","note":"東京都世田谷区代沢1-23-8"},{"id":"D113311200023","name":"駒場東邦高等学校","categoryId":"high_school","categoryLabel":"高中","lat":35.65387,"lng":139.682602,"stationId":"station-003972","note":"東京都世田谷区池尻4-5-1"},{"id":"C113311200114","name":"下北沢成徳中学校","categoryId":"junior_high","categoryLabel":"中学","lat":35.664778,"lng":139.665117,"stationId":"station-003908","note":"東京都世田谷区代田6-12-39"},{"id":"C113211200054","name":"世田谷区立北沢中学校","categoryId":"junior_high","categoryLabel":"中学","lat":35.669346,"lng":139.667149,"stationId":"station-003806","note":"東京都世田谷区北沢5-12-3"},{"id":"C113211200018","name":"世田谷区立太子堂中学校","categoryId":"junior_high","categoryLabel":"中学","lat":35.650869,"lng":139.668898,"stationId":"station-004006","note":"東京都世田谷区太子堂3-27-17"},{"id":"C113211200107","name":"世田谷区立富士中学校","categoryId":"junior_high","categoryLabel":"中学","lat":35.65703,"lng":139.677472,"stationId":"station-003914","note":"東京都世田谷区代沢1-23-17"},{"id":"C113311000027","name":"日本工業大学駒場中学校","categoryId":"junior_high","categoryLabel":"中学","lat":35.657128,"lng":139.68426,"stationId":"station-003929","note":"東京都目黒区駒場1-35-32"},{"id":"C113311200089","name":"松蔭大学附属松蔭中学校","categoryId":"junior_high","categoryLabel":"中学","lat":35.663461,"lng":139.674922,"stationId":"station-003880","note":"東京都世田谷区北沢1-16-10"},{"id":"C113211300035","name":"渋谷区立上原中学校","categoryId":"junior_high","categoryLabel":"中学","lat":35.667207,"lng":139.67739,"stationId":"station-003848","note":"東京都渋谷区上原3-41-2"},{"id":"C113211300044","name":"渋谷区立代々木中学校","categoryId":"junior_high","categoryLabel":"中学","lat":35.674452,"lng":139.683365,"stationId":"station-003791","note":"東京都渋谷区西原1-46-1"},{"id":"C113211300062","name":"渋谷区立松濤中学校","categoryId":"junior_high","categoryLabel":"中学","lat":35.661497,"lng":139.69079,"stationId":"station-003938","note":"東京都渋谷区松濤1-20-4"},{"id":"C113211000010","name":"目黒区立第一中学校","categoryId":"junior_high","categoryLabel":"中学","lat":35.654627,"lng":139.686446,"stationId":"station-003972","note":"東京都目黒区大橋2-11-1"},{"id":"C113110000050","name":"筑波大学附属駒場中学校","categoryId":"junior_high","categoryLabel":"中学","lat":35.654711,"lng":139.681025,"stationId":"station-003929","note":"東京都世田谷区池尻4-7-1"},{"id":"C113311200025","name":"駒場東邦中学校","categoryId":"junior_high","categoryLabel":"中学","lat":35.654015,"lng":139.682143,"stationId":"station-003972","note":"東京都世田谷区池尻4-5-1"},{"id":"A113311300082","name":"シオン幼稚園","categoryId":"kindergarten","categoryLabel":"幼稚园","lat":35.67118,"lng":139.686623,"stationId":"station-003837","note":"東京都渋谷区元代々木町26-1"},{"id":"A113311200396","name":"三宿さくら幼稚園","categoryId":"kindergarten","categoryLabel":"幼稚园","lat":35.651035,"lng":139.674353,"stationId":"station-004016","note":"東京都世田谷区三宿2-27-4"},{"id":"A113311200216","name":"代田幼稚園","categoryId":"kindergarten","categoryLabel":"幼稚园","lat":35.656224,"lng":139.66061,"stationId":"station-003931","note":"東京都世田谷区代田2-17-14"},{"id":"A113311300153","name":"小鳩幼稚園","categoryId":"kindergarten","categoryLabel":"幼稚园","lat":35.674338,"lng":139.662704,"stationId":"station-003806","note":"東京都渋谷区笹塚2-30-14"},{"id":"A113311300126","name":"岸辺幼稚園","categoryId":"kindergarten","categoryLabel":"幼稚园","lat":35.665426,"lng":139.679797,"stationId":"station-003848","note":"東京都渋谷区上原2-37-13"},{"id":"A113311300108","name":"松村幼稚園","categoryId":"kindergarten","categoryLabel":"幼稚园","lat":35.662147,"lng":139.688784,"stationId":"station-003929","note":"東京都渋谷区神山町21-11"},{"id":"A113311200092","name":"松蔭幼稚園","categoryId":"kindergarten","categoryLabel":"幼稚园","lat":35.663025,"lng":139.675672,"stationId":"station-003914","note":"東京都世田谷区北沢1-16-10"},{"id":"A113311000076","name":"枝光会駒場幼稚園","categoryId":"kindergarten","categoryLabel":"幼稚园","lat":35.657295,"lng":139.68977,"stationId":"station-003938","note":"東京都目黒区駒場3-3-18"},{"id":"A113311200234","name":"淡島幼稚園","categoryId":"kindergarten","categoryLabel":"幼稚园","lat":35.656315,"lng":139.668329,"stationId":"station-003908","note":"東京都世田谷区代沢3-27-1"},{"id":"A113311300046","name":"笹塚幼稚園","categoryId":"kindergarten","categoryLabel":"幼稚园","lat":35.672921,"lng":139.666962,"stationId":"station-003806","note":"東京都渋谷区笹塚1-28-6"},{"id":"A113311200449","name":"育成幼稚園","categoryId":"kindergarten","categoryLabel":"幼稚园","lat":35.668078,"lng":139.667122,"stationId":"station-003880","note":"東京都世田谷区北沢4-20-5"},{"id":"A113211200049","name":"認定こども園世田谷区立多聞幼稚園","categoryId":"kindergarten","categoryLabel":"幼稚园","lat":35.652941,"lng":139.673228,"stationId":"station-003914","note":"東京都世田谷区三宿2-25-9"},{"id":"A113311000067","name":"駒場幼稚園","categoryId":"kindergarten","categoryLabel":"幼稚园","lat":35.655685,"lng":139.684455,"stationId":"station-003929","note":"東京都目黒区大橋2-18-71"},{"id":"H213311300022","name":"ドルトンスクール東京","categoryId":"other","categoryLabel":"其他","lat":35.664626,"lng":139.674888,"stationId":"station-003880","note":"東京都渋谷区上原3-28-18"},{"id":"H213311300120","name":"東京日本語学校","categoryId":"other","categoryLabel":"其他","lat":35.654525,"lng":139.694686,"stationId":"station-003938","note":"東京都渋谷区南平台町16-26"},{"id":"F213310104534","name":"ヤマザキ動物看護専門職短期大学","categoryId":"university","categoryLabel":"大学","lat":35.660671,"lng":139.689143,"stationId":"station-003929","note":"東京都渋谷区松濤2-3-10"},{"id":"F113110102700","name":"東京大学","categoryId":"university","categoryLabel":"大学","lat":35.659809,"lng":139.68485,"stationId":"station-003929","note":"東京都目黒区駒場3-8-1"},{"id":"F113310103233","name":"東海大学","categoryId":"university","categoryLabel":"大学","lat":35.664491,"lng":139.684551,"stationId":"station-003929","note":"東京都渋谷区富ヶ谷2-10-2"},{"id":"H113311300381","name":"ヤマザキ動物専門学校","categoryId":"vocational","categoryLabel":"专门学校","lat":35.658043,"lng":139.690425,"stationId":"station-003938","note":"東京都渋谷区松涛2-16-5"},{"id":"H113311300185","name":"国際文化理容美容専門学校渋谷校","categoryId":"vocational","categoryLabel":"专门学校","lat":35.65795,"lng":139.693525,"stationId":"station-003938","note":"東京都渋谷区神泉町2-2"},{"id":"H113311000026","name":"専門学校東都リハビリテーション学院","categoryId":"vocational","categoryLabel":"专门学校","lat":35.654135,"lng":139.688947,"stationId":"station-003938","note":"東京都目黒区大橋2-4-2"},{"id":"H113311300069","name":"山手調理製菓専門学校","categoryId":"vocational","categoryLabel":"专门学校","lat":35.655534,"lng":139.694291,"stationId":"station-003938","note":"東京都渋谷区円山町28-5"}]
