[{"id":"B113211200332","name":"世田谷区立奥沢小学校","categoryId":"elementary","categoryLabel":"小学","lat":35.599814,"lng":139.674958,"stationId":"station-004223","note":"東京都世田谷区奥沢3-1-1"},{"id":"B113211200369","name":"世田谷区立東玉川小学校","categoryId":"elementary","categoryLabel":"小学","lat":35.598557,"lng":139.680569,"stationId":"station-004247","note":"東京都世田谷区奥沢1-1-1"},{"id":"B113211100244","name":"大田区立久原小学校","categoryId":"elementary","categoryLabel":"小学","lat":35.580214,"lng":139.69408,"stationId":"station-004292","note":"東京都大田区久が原4-12-10"},{"id":"B113211100271","name":"大田区立小池小学校","categoryId":"elementary","categoryLabel":"小学","lat":35.59742,"lng":139.694738,"stationId":"station-004239","note":"東京都大田区上池台2-22-7"},{"id":"B113211100226","name":"大田区立嶺町小学校","categoryId":"elementary","categoryLabel":"小学","lat":35.578413,"lng":139.674547,"stationId":"station-004279","note":"東京都大田区田園調布南6-10"},{"id":"B113211100182","name":"大田区立東調布第一小学校","categoryId":"elementary","categoryLabel":"小学","lat":35.582702,"lng":139.677625,"stationId":"station-004279","note":"東京都大田区田園調布南28-7"},{"id":"B113211100217","name":"大田区立東調布第三小学校","categoryId":"elementary","categoryLabel":"小学","lat":35.577381,"lng":139.685309,"stationId":"station-004292","note":"東京都大田区南久が原2-17-1"},{"id":"B113211100253","name":"大田区立松仙小学校","categoryId":"elementary","categoryLabel":"小学","lat":35.586148,"lng":139.690689,"stationId":"station-004273","note":"東京都大田区久が原1-11-1"},{"id":"B113211100262","name":"大田区立池雪小学校","categoryId":"elementary","categoryLabel":"小学","lat":35.590749,"lng":139.69427,"stationId":"station-004239","note":"東京都大田区東雪谷5-7-1"},{"id":"B113211100191","name":"大田区立田園調布小学校","categoryId":"elementary","categoryLabel":"小学","lat":35.595531,"lng":139.668521,"stationId":"station-004245","note":"東京都大田区田園調布2-31-16"},{"id":"B113211100208","name":"大田区立調布大塚小学校","categoryId":"elementary","categoryLabel":"小学","lat":35.590779,"lng":139.678116,"stationId":"station-004259","note":"東京都大田区雪谷大塚町12-1"},{"id":"B113211100280","name":"大田区立雪谷小学校","categoryId":"elementary","categoryLabel":"小学","lat":35.59287,"lng":139.68637,"stationId":"station-004247","note":"東京都大田区南雪谷3-9-23"},{"id":"B113311100028","name":"文教大学付属小学校","categoryId":"elementary","categoryLabel":"小学","lat":35.598315,"lng":139.685837,"stationId":"station-004247","note":"東京都大田区東雪谷2-3-12"},{"id":"D113299901095","name":"東京都立田園調布高等学校","categoryId":"high_school","categoryLabel":"高中","lat":35.582242,"lng":139.676638,"stationId":"station-004279","note":"東京都大田区田園調布南27-1"},{"id":"D113299901077","name":"東京都立雪谷高等学校","categoryId":"high_school","categoryLabel":"高中","lat":35.585759,"lng":139.689428,"stationId":"station-004273","note":"東京都大田区久が原1-14-1"},{"id":"C113211100117","name":"大田区立大森第七中学校","categoryId":"junior_high","categoryLabel":"中学","lat":35.578278,"lng":139.689379,"stationId":"station-004292","note":"東京都大田区南久が原1-3-1"},{"id":"C113211100091","name":"大田区立東調布中学校","categoryId":"junior_high","categoryLabel":"中学","lat":35.583506,"lng":139.678849,"stationId":"station-004273","note":"東京都大田区田園調布南29-15"},{"id":"C113211100108","name":"大田区立田園調布中学校","categoryId":"junior_high","categoryLabel":"中学","lat":35.59827,"lng":139.669531,"stationId":"station-004245","note":"東京都大田区田園調布2-60-1"},{"id":"C113211100153","name":"大田区立石川台中学校","categoryId":"junior_high","categoryLabel":"中学","lat":35.599178,"lng":139.681676,"stationId":"station-004247","note":"東京都大田区石川町2-23-1"},{"id":"C113211100126","name":"大田区立雪谷中学校","categoryId":"junior_high","categoryLabel":"中学","lat":35.590786,"lng":139.688861,"stationId":"station-004259","note":"東京都大田区南雪谷5-1-1"},{"id":"C113311100026","name":"清明学園中学校","categoryId":"junior_high","categoryLabel":"中学","lat":35.591648,"lng":139.68615,"stationId":"station-004259","note":"東京都大田区南雪谷3-12-26"},{"id":"A113311100137","name":"こひつじ幼稚園","categoryId":"kindergarten","categoryLabel":"幼稚园","lat":35.577034,"lng":139.690273,"stationId":"station-004305","note":"東京都大田区久が原4-37-14"},{"id":"A113311100235","name":"ぶどうの木幼稚園","categoryId":"kindergarten","categoryLabel":"幼稚园","lat":35.589236,"lng":139.680801,"stationId":"station-004259","note":"東京都大田区北嶺町3-25"},{"id":"A113311100379","name":"みたけ幼稚園","categoryId":"kindergarten","categoryLabel":"幼稚园","lat":35.58612,"lng":139.680836,"stationId":"station-004273","note":"東京都大田区北嶺町37-20"},{"id":"A113311100128","name":"天使幼稚園","categoryId":"kindergarten","categoryLabel":"幼稚园","lat":35.582703,"lng":139.694224,"stationId":"station-004292","note":"東京都大田区久が原4-3-23"},{"id":"A113311100119","name":"小さき花の幼稚園","categoryId":"kindergarten","categoryLabel":"幼稚园","lat":35.594863,"lng":139.665856,"stationId":"station-004245","note":"東京都大田区田園調布3-30-25"},{"id":"A113311100020","name":"清明幼稚園","categoryId":"kindergarten","categoryLabel":"幼稚园","lat":35.590604,"lng":139.685936,"stationId":"station-004259","note":"東京都大田区南雪谷3-17-19"},{"id":"A113311100217","name":"田園調布ルーテル幼稚園","categoryId":"kindergarten","categoryLabel":"幼稚园","lat":35.59644,"lng":139.672059,"stationId":"station-004245","note":"東京都大田区田園調布2-37-5"},{"id":"A113311100226","name":"田園調布幼稚園","categoryId":"kindergarten","categoryLabel":"幼稚园","lat":35.598404,"lng":139.666788,"stationId":"station-004245","note":"東京都大田区田園調布3-4-6"},{"id":"A113311200118","name":"調布幼稚園","categoryId":"kindergarten","categoryLabel":"幼稚园","lat":35.595297,"lng":139.680724,"stationId":"station-004259","note":"東京都世田谷区東玉川1-1-21"},{"id":"A113311200261","name":"銀の鈴幼稚園","categoryId":"kindergarten","categoryLabel":"幼稚园","lat":35.596974,"lng":139.672724,"stationId":"station-004245","note":"東京都世田谷区東玉川2-30-3"},{"id":"A113311100244","name":"雪ヶ谷ルーテル幼稚園","categoryId":"kindergarten","categoryLabel":"幼稚园","lat":35.592046,"lng":139.689823,"stationId":"station-004247","note":"東京都大田区東雪谷3-24-10"},{"id":"A113311100039","name":"鵜ノ木幼稚園","categoryId":"kindergarten","categoryLabel":"幼稚园","lat":35.577254,"lng":139.683756,"stationId":"station-004292","note":"東京都大田区南久が原2-19-3"},{"id":"H213311100033","name":"こまどり芸術学園","categoryId":"other","categoryLabel":"其他","lat":35.599669,"lng":139.694259,"stationId":"station-004239","note":"東京都大田区上池台2-12-4"},{"id":"B113311100019","name":"清明学園初等学校","categoryId":"other","categoryLabel":"其他","lat":35.591447,"lng":139.686221,"stationId":"station-004259","note":"東京都大田区南雪谷3-12-26"},{"id":"C113311200196","name":"田園調布学園中等部","categoryId":"other","categoryLabel":"其他","lat":35.595399,"lng":139.673999,"stationId":"station-004245","note":"東京都世田谷区東玉川2-21-8"},{"id":"D113311200185","name":"田園調布学園高等部","categoryId":"other","categoryLabel":"其他","lat":35.595575,"lng":139.673761,"stationId":"station-004245","note":"東京都世田谷区東玉川2-21-8"},{"id":"H113211100018","name":"東京都立荏原看護専門学校","categoryId":"vocational","categoryLabel":"专门学校","lat":35.593847,"lng":139.694105,"stationId":"station-004239","note":"東京都大田区東雪谷4-5-28"}]
