[{"id":"B113211700364","name":"北区立十条小学校","categoryId":"elementary","categoryLabel":"小学","lat":35.763423,"lng":139.725738,"stationId":"station-003210","note":"東京都北区北区中十条3-1-6"},{"id":"B113211700097","name":"北区立東十条小学校","categoryId":"elementary","categoryLabel":"小学","lat":35.766085,"lng":139.729061,"stationId":"station-003210","note":"東京都北区東十条3-14-23"},{"id":"B113211700140","name":"北区立梅木小学校","categoryId":"elementary","categoryLabel":"小学","lat":35.767926,"lng":139.714021,"stationId":"station-003216","note":"東京都北区西が丘2-21-15"},{"id":"B113211700355","name":"北区立滝野川もみじ小学校","categoryId":"elementary","categoryLabel":"小学","lat":35.751005,"lng":139.728456,"stationId":"station-003276","note":"東京都北区滝野川3-72-1"},{"id":"B113211700033","name":"北区立王子第三小学校","categoryId":"elementary","categoryLabel":"小学","lat":35.765538,"lng":139.718125,"stationId":"station-003218","note":"東京都北区上十条5-2-3"},{"id":"B113211700042","name":"北区立王子第五小学校","categoryId":"elementary","categoryLabel":"小学","lat":35.759732,"lng":139.719474,"stationId":"station-003218","note":"東京都北区上十条2-18-17"},{"id":"B113211700159","name":"北区立神谷小学校","categoryId":"elementary","categoryLabel":"小学","lat":35.772107,"lng":139.729338,"stationId":"station-003153","note":"東京都北区神谷2-30-5"},{"id":"B113211700168","name":"北区立稲田小学校","categoryId":"elementary","categoryLabel":"小学","lat":35.773267,"lng":139.725469,"stationId":"station-003155","note":"東京都北区赤羽南2-23-24"},{"id":"B113211700346","name":"北区立西が丘小学校","categoryId":"elementary","categoryLabel":"小学","lat":35.771162,"lng":139.714417,"stationId":"station-003155","note":"東京都北区西が丘1-12-14"},{"id":"B113211700202","name":"北区立赤羽台西小学校","categoryId":"elementary","categoryLabel":"小学","lat":35.774996,"lng":139.713532,"stationId":"station-003155","note":"東京都北区赤羽台2-1-34"},{"id":"B113211900255","name":"板橋区立中根橋小学校","categoryId":"elementary","categoryLabel":"小学","lat":35.756132,"lng":139.701053,"stationId":"station-003233","note":"東京都板橋区栄町14-1"},{"id":"B113211900512","name":"板橋区立加賀小学校","categoryId":"elementary","categoryLabel":"小学","lat":35.761417,"lng":139.710595,"stationId":"station-003216","note":"東京都板橋区稲荷台23-1"},{"id":"B113211900111","name":"板橋区立富士見台小学校","categoryId":"elementary","categoryLabel":"小学","lat":35.763961,"lng":139.69535,"stationId":"station-003223","note":"東京都板橋区前野町1-10-1"},{"id":"B113211900022","name":"板橋区立志村第一小学校","categoryId":"elementary","categoryLabel":"小学","lat":35.766451,"lng":139.701296,"stationId":"station-003193","note":"東京都板橋区泉町17-1"},{"id":"B113211900040","name":"板橋区立志村第三小学校","categoryId":"elementary","categoryLabel":"小学","lat":35.766885,"lng":139.705102,"stationId":"station-003193","note":"東京都板橋区清水町83-1"},{"id":"B113211900031","name":"板橋区立志村第二小学校","categoryId":"elementary","categoryLabel":"小学","lat":35.77257,"lng":139.697804,"stationId":"station-003165","note":"東京都板橋区志村1-7-1"},{"id":"B113211900166","name":"板橋区立板橋第一小学校","categoryId":"elementary","categoryLabel":"小学","lat":35.753791,"lng":139.707654,"stationId":"station-003245","note":"東京都板橋区氷川町13-1"},{"id":"B113211900228","name":"板橋区立板橋第八小学校","categoryId":"elementary","categoryLabel":"小学","lat":35.7596,"lng":139.700006,"stationId":"station-003216","note":"東京都板橋区双葉町42-1"},{"id":"B113211900246","name":"板橋区立金沢小学校","categoryId":"elementary","categoryLabel":"小学","lat":35.755349,"lng":139.715257,"stationId":"station-003245","note":"東京都板橋区加賀2-2-1"},{"id":"D113311900044","name":"帝京高等学校","categoryId":"high_school","categoryLabel":"高中","lat":35.760512,"lng":139.711123,"stationId":"station-003216","note":"東京都板橋区稲荷台27-1"},{"id":"D113311700082","name":"成立学園高等学校","categoryId":"high_school","categoryLabel":"高中","lat":35.771795,"lng":139.72477,"stationId":"station-003155","note":"東京都北区東十条6-9-13"},{"id":"D113311900053","name":"東京家政大学附属女子高等学校","categoryId":"high_school","categoryLabel":"高中","lat":35.754831,"lng":139.720105,"stationId":"station-003218","note":"東京都板橋区加賀1-18-1"},{"id":"D113299904056","name":"東京都立北園高等学校","categoryId":"high_school","categoryLabel":"高中","lat":35.750515,"lng":139.715882,"stationId":"station-003268","note":"東京都板橋区板橋4-14-1"},{"id":"D113299904145","name":"東京都立北豊島工科高等学校","categoryId":"high_school","categoryLabel":"高中","lat":35.760818,"lng":139.697151,"stationId":"station-003233","note":"東京都板橋区富士見町28-1"},{"id":"D113299904163","name":"東京都立赤羽北桜高等学校","categoryId":"high_school","categoryLabel":"高中","lat":35.769899,"lng":139.709504,"stationId":"station-003193","note":"東京都北区西が丘3-14-20"},{"id":"C113211700095","name":"北区立十条富士見中学校","categoryId":"junior_high","categoryLabel":"中学","lat":35.757292,"lng":139.723413,"stationId":"station-003218","note":"東京都北区十条台1-9-33"},{"id":"C113211700031","name":"北区立神谷中学校","categoryId":"junior_high","categoryLabel":"中学","lat":35.773629,"lng":139.729312,"stationId":"station-003153","note":"東京都北区神谷2-46-13"},{"id":"C113211700022","name":"北区立稲付中学校","categoryId":"junior_high","categoryLabel":"中学","lat":35.770731,"lng":139.707908,"stationId":"station-003193","note":"東京都北区赤羽西6-1-4"},{"id":"C113311900046","name":"帝京中学校","categoryId":"junior_high","categoryLabel":"中学","lat":35.760206,"lng":139.711625,"stationId":"station-003216","note":"東京都板橋区稲荷台27-1"},{"id":"C113311700100","name":"成立学園中学校","categoryId":"junior_high","categoryLabel":"中学","lat":35.771268,"lng":139.724811,"stationId":"station-003155","note":"東京都北区東十条6-9-13"},{"id":"C113311900037","name":"東京家政大学附属女子中学校","categoryId":"junior_high","categoryLabel":"中学","lat":35.75543,"lng":139.721585,"stationId":"station-003218","note":"東京都板橋区加賀1-18-1"},{"id":"C113211900057","name":"板橋区立加賀中学校","categoryId":"junior_high","categoryLabel":"中学","lat":35.760772,"lng":139.715952,"stationId":"station-003218","note":"東京都板橋区加賀2-19-1"},{"id":"C113211900066","name":"板橋区立志村第一中学校","categoryId":"junior_high","categoryLabel":"中学","lat":35.767139,"lng":139.697,"stationId":"station-003193","note":"東京都板橋区大原町33-1"},{"id":"C113211900011","name":"板橋区立板橋第一中学校","categoryId":"junior_high","categoryLabel":"中学","lat":35.750444,"lng":139.704679,"stationId":"station-003269","note":"東京都板橋区大山東町50-1"},{"id":"C113211900039","name":"板橋区立板橋第三中学校","categoryId":"junior_high","categoryLabel":"中学","lat":35.7554,"lng":139.707134,"stationId":"station-003245","note":"東京都板橋区氷川町22-3"},{"id":"C113211900048","name":"板橋区立板橋第五中学校","categoryId":"junior_high","categoryLabel":"中学","lat":35.752486,"lng":139.71952,"stationId":"station-003268","note":"東京都板橋区板橋4-49-3"},{"id":"A113311900157","name":"なでしこ幼稚園","categoryId":"kindergarten","categoryLabel":"幼稚园","lat":35.757676,"lng":139.698104,"stationId":"station-003233","note":"東京都板橋区双葉町17-19"},{"id":"A113211700026","name":"北区立うめのき幼稚園","categoryId":"kindergarten","categoryLabel":"幼稚园","lat":35.766873,"lng":139.714045,"stationId":"station-003216","note":"東京都北区西が丘2-21-15"},{"id":"A113211700035","name":"北区立じゅうじょうなかはら幼稚園","categoryId":"kindergarten","categoryLabel":"幼稚园","lat":35.763699,"lng":139.720085,"stationId":"station-003218","note":"東京都北区十条仲原1-21-8"},{"id":"A113311900013","name":"帝京幼稚園","categoryId":"kindergarten","categoryLabel":"幼稚园","lat":35.75888,"lng":139.711925,"stationId":"station-003216","note":"東京都板橋区加賀2-10-1"},{"id":"A113311700293","name":"成立学園幼稚園","categoryId":"kindergarten","categoryLabel":"幼稚园","lat":35.772358,"lng":139.725502,"stationId":"station-003155","note":"東京都北区東十条6-17-10"},{"id":"A113311900022","name":"東京家政大学附属みどりヶ丘幼稚園","categoryId":"kindergarten","categoryLabel":"幼稚园","lat":35.754614,"lng":139.720941,"stationId":"station-003218","note":"東京都板橋区加賀1-18-1"},{"id":"A113311900273","name":"板橋富士見幼稚園","categoryId":"kindergarten","categoryLabel":"幼稚园","lat":35.763384,"lng":139.700913,"stationId":"station-003216","note":"東京都板橋区宮本町29-1"},{"id":"A113311900139","name":"板橋明星幼稚園","categoryId":"kindergarten","categoryLabel":"幼稚园","lat":35.751197,"lng":139.714496,"stationId":"station-003245","note":"東京都板橋区板橋3-25-24"},{"id":"A113311700113","name":"清和学園幼稚園","categoryId":"kindergarten","categoryLabel":"幼稚园","lat":35.770261,"lng":139.719856,"stationId":"station-003155","note":"東京都北区赤羽西3-11-11"},{"id":"H113311900036","name":"加賀高等看護学院","categoryId":"other","categoryLabel":"其他","lat":35.751084,"lng":139.709155,"stationId":"station-003245","note":"東京都板橋区"},{"id":"H113311900081","name":"帝京高等看護学院","categoryId":"other","categoryLabel":"其他","lat":35.758601,"lng":139.712382,"stationId":"station-003216","note":"東京都板橋区加賀2-10-1"},{"id":"H213311700019","name":"東京国際フランス学園","categoryId":"other","categoryLabel":"其他","lat":35.750184,"lng":139.723444,"stationId":"station-003268","note":"東京都北区滝野川5-57-37"},{"id":"H213311700073","name":"東京朝鮮中高級学校","categoryId":"other","categoryLabel":"其他","lat":35.758702,"lng":139.718167,"stationId":"station-003218","note":"東京都北区十条台2-6-32"},{"id":"E113299930024","name":"東京都立北特別支援学校","categoryId":"other","categoryLabel":"其他","lat":35.7526,"lng":139.723095,"stationId":"station-003268","note":"東京都北区十条台1-1-1"},{"id":"E113299940022","name":"東京都立王子特別支援学校","categoryId":"other","categoryLabel":"其他","lat":35.755892,"lng":139.72287,"stationId":"station-003218","note":"東京都北区十条台1-8-41"},{"id":"F113310103769","name":"帝京大学","categoryId":"university","categoryLabel":"大学","lat":35.759243,"lng":139.714866,"stationId":"station-003218","note":"東京都板橋区加賀2-11-1"},{"id":"F113310103251","name":"東京家政大学","categoryId":"university","categoryLabel":"大学","lat":35.756141,"lng":139.720781,"stationId":"station-003218","note":"東京都板橋区加賀1-18-1"},{"id":"F213310104357","name":"東京家政大学短期大学部","categoryId":"university","categoryLabel":"大学","lat":35.754924,"lng":139.719926,"stationId":"station-003218","note":"東京都板橋区加賀1-18-1"},{"id":"F113310102895","name":"東京成徳大学","categoryId":"university","categoryLabel":"大学","lat":35.757041,"lng":139.724254,"stationId":"station-003218","note":"東京都北区十条台1-7-13"},{"id":"F213310104375","name":"東京成徳短期大学","categoryId":"university","categoryLabel":"大学","lat":35.757441,"lng":139.724405,"stationId":"station-003218","note":"東京都北区十条台1-7-13"},{"id":"H113211900010","name":"東京都立板橋看護専門学校","categoryId":"vocational","categoryLabel":"专门学校","lat":35.751856,"lng":139.700849,"stationId":"station-003269","note":"東京都板橋区栄町34-1"},{"id":"H113311900125","name":"資生堂美容技術専門学校","categoryId":"vocational","categoryLabel":"专门学校","lat":35.756611,"lng":139.716055,"stationId":"station-003218","note":"東京都板橋区加賀2-15-1"}]
