[{"id":"B113211700177","name":"北区立八幡小学校","categoryId":"elementary","categoryLabel":"小学","lat":35.78089,"lng":139.714301,"stationId":"station-003155","note":"東京都北区赤羽台3-18-5"},{"id":"B113211700122","name":"北区立岩淵小学校","categoryId":"elementary","categoryLabel":"小学","lat":35.784472,"lng":139.726195,"stationId":"station-003142","note":"東京都北区岩淵町6-6"},{"id":"B113211700300","name":"北区立桐ケ丘郷小学校","categoryId":"elementary","categoryLabel":"小学","lat":35.776811,"lng":139.707194,"stationId":"station-003193","note":"東京都北区桐ヶ丘1-10-23"},{"id":"B113211700186","name":"北区立浮間小学校","categoryId":"elementary","categoryLabel":"小学","lat":35.785964,"lng":139.700667,"stationId":"station-003130","note":"東京都北区浮間3-4-27"},{"id":"B113211700131","name":"北区立第四岩淵小学校","categoryId":"elementary","categoryLabel":"小学","lat":35.786036,"lng":139.720771,"stationId":"station-003142","note":"東京都北区赤羽3-24-23"},{"id":"B113211700293","name":"北区立袋小学校","categoryId":"elementary","categoryLabel":"小学","lat":35.784076,"lng":139.705879,"stationId":"station-003130","note":"東京都北区赤羽北2-15-3"},{"id":"B113211700195","name":"北区立西浮間小学校","categoryId":"elementary","categoryLabel":"小学","lat":35.792816,"lng":139.69924,"stationId":"station-003107","note":"東京都北区浮間2-7-1"},{"id":"B113211700113","name":"北区立赤羽小学校","categoryId":"elementary","categoryLabel":"小学","lat":35.780561,"lng":139.721616,"stationId":"station-003142","note":"東京都北区赤羽1-24-6"},{"id":"B113311700022","name":"星美学園小学校","categoryId":"elementary","categoryLabel":"小学","lat":35.783693,"lng":139.716795,"stationId":"station-003142","note":"東京都北区赤羽台4-2-14"},{"id":"B113211900059","name":"板橋区立志村第四小学校","categoryId":"elementary","categoryLabel":"小学","lat":35.780434,"lng":139.701514,"stationId":"station-003165","note":"東京都板橋区小豆沢4-13-1"},{"id":"D113311700073","name":"サレジアン国際学園高等学校","categoryId":"high_school","categoryLabel":"高中","lat":35.783993,"lng":139.715988,"stationId":"station-003142","note":"東京都北区赤羽台4-2-14"},{"id":"D113299904092","name":"東京都立桐ヶ丘高等学校","categoryId":"high_school","categoryLabel":"高中","lat":35.781772,"lng":139.707379,"stationId":"station-003130","note":"東京都北区赤羽北3-5-22"},{"id":"C113311700039","name":"サレジアン国際学園中学校","categoryId":"junior_high","categoryLabel":"中学","lat":35.784857,"lng":139.714967,"stationId":"station-003142","note":"東京都北区赤羽台4-2-14"},{"id":"C113211700077","name":"北区立桐ケ丘中学校","categoryId":"junior_high","categoryLabel":"中学","lat":35.779956,"lng":139.708621,"stationId":"station-003130","note":"東京都北区桐ケ丘2-6-11"},{"id":"C113211700120","name":"北区立赤羽岩淵中学校","categoryId":"junior_high","categoryLabel":"中学","lat":35.779293,"lng":139.725829,"stationId":"station-003155","note":"東京都北区赤羽2-6-18"},{"id":"C113211900075","name":"板橋区立志村第二中学校","categoryId":"junior_high","categoryLabel":"中学","lat":35.775471,"lng":139.70293,"stationId":"station-003193","note":"東京都板橋区小豆沢1-21-1"},{"id":"A113311700131","name":"あかいとり幼稚園","categoryId":"kindergarten","categoryLabel":"幼稚园","lat":35.775688,"lng":139.713949,"stationId":"station-003155","note":"東京都北区赤羽台2-1"},{"id":"A113311700140","name":"ホーリネス幼稚園","categoryId":"kindergarten","categoryLabel":"幼稚园","lat":35.782097,"lng":139.72457,"stationId":"station-003142","note":"東京都北区赤羽2-57-11"},{"id":"A113211700044","name":"北区立ふくろ幼稚園","categoryId":"kindergarten","categoryLabel":"幼稚园","lat":35.784587,"lng":139.705724,"stationId":"station-003130","note":"東京都北区赤羽北2-15-1-114"},{"id":"A113311700104","name":"北幼稚園","categoryId":"kindergarten","categoryLabel":"幼稚园","lat":35.78592,"lng":139.699027,"stationId":"station-003130","note":"東京都北区浮間3-10-15"},{"id":"A113311700097","name":"明日香幼稚園","categoryId":"kindergarten","categoryLabel":"幼稚园","lat":35.789698,"lng":139.697773,"stationId":"station-003107","note":"東京都北区浮間4-2-1"},{"id":"A113311700042","name":"明照幼稚園","categoryId":"kindergarten","categoryLabel":"幼稚园","lat":35.783484,"lng":139.726173,"stationId":"station-003142","note":"東京都北区岩渕町2-8"},{"id":"A113311700015","name":"星美学園幼稚園","categoryId":"kindergarten","categoryLabel":"幼稚园","lat":35.784938,"lng":139.715854,"stationId":"station-003142","note":"東京都北区赤羽台4-2-14"},{"id":"A113311700248","name":"桐ヶ丘幼稚園","categoryId":"kindergarten","categoryLabel":"幼稚园","lat":35.777351,"lng":139.710978,"stationId":"station-003155","note":"東京都北区桐ヶ丘1-1"},{"id":"A113311700088","name":"浮間幼稚園","categoryId":"kindergarten","categoryLabel":"幼稚园","lat":35.789471,"lng":139.699306,"stationId":"station-003130","note":"東京都北区浮間3-33-16"},{"id":"A113311700051","name":"聖母の騎士幼稚園","categoryId":"kindergarten","categoryLabel":"幼稚园","lat":35.779061,"lng":139.723444,"stationId":"station-003155","note":"東京都北区赤羽2-1-12"},{"id":"A113311700122","name":"赤羽幼稚園","categoryId":"kindergarten","categoryLabel":"幼稚园","lat":35.779032,"lng":139.718605,"stationId":"station-003155","note":"東京都北区赤羽西1-36-1"},{"id":"H213311700135","name":"東京外語学園日本語学校","categoryId":"other","categoryLabel":"其他","lat":35.78744,"lng":139.699472,"stationId":"station-003130","note":"東京都北区浮間3-19-21"},{"id":"H213311700064","name":"東京文化綜合学院","categoryId":"other","categoryLabel":"其他","lat":35.778606,"lng":139.719556,"stationId":"station-003155","note":"東京都北区赤羽西1-40-2"},{"id":"H213311700108","name":"赤羽學園","categoryId":"other","categoryLabel":"其他","lat":35.778931,"lng":139.718427,"stationId":"station-003155","note":"東京都北区赤羽西1-39-12"},{"id":"H213311700046","name":"高島珠算学校","categoryId":"other","categoryLabel":"其他","lat":35.779208,"lng":139.72474,"stationId":"station-003155","note":"東京都北区赤羽2-4-1"},{"id":"F213310104311","name":"星美学園短期大学","categoryId":"university","categoryLabel":"大学","lat":35.784218,"lng":139.714647,"stationId":"station-003142","note":"東京都北区赤羽台4-2-14"},{"id":"F113310103368","name":"東洋大学","categoryId":"university","categoryLabel":"大学","lat":35.780596,"lng":139.715695,"stationId":"station-003155","note":"東京都北区赤羽台1-7-11"},{"id":"H113311900054","name":"板橋中央看護専門学校","categoryId":"vocational","categoryLabel":"专门学校","lat":35.776597,"lng":139.700514,"stationId":"station-003165","note":"東京都板橋区小豆沢2-6-4"}]
