[{"id":"B113210900104","name":"品川区立大井第一小学校","categoryId":"elementary","categoryLabel":"小学","lat":35.598648,"lng":139.731487,"stationId":"station-004244","note":"東京都品川区大井6-1-32"},{"id":"B113210900140","name":"品川区立浜川小学校","categoryId":"elementary","categoryLabel":"小学","lat":35.59819,"lng":139.735833,"stationId":"station-004244","note":"東京都品川区南大井4-3-27"},{"id":"B113210900168","name":"品川区立鈴ケ森小学校","categoryId":"elementary","categoryLabel":"小学","lat":35.59455,"lng":139.735105,"stationId":"station-004244","note":"東京都品川区南大井4-16-2"},{"id":"B113211100066","name":"大田区立入新井第五小学校","categoryId":"elementary","categoryLabel":"小学","lat":35.581191,"lng":139.73371,"stationId":"station-004294","note":"東京都大田区大森北6-4-8"},{"id":"B113211100574","name":"大田区立大森東小学校","categoryId":"elementary","categoryLabel":"小学","lat":35.575538,"lng":139.738725,"stationId":"station-004294","note":"東京都大田区大森東1-29-1"},{"id":"B113211100057","name":"大田区立大森第五小学校","categoryId":"elementary","categoryLabel":"小学","lat":35.581998,"lng":139.73785,"stationId":"station-004294","note":"東京都大田区大森本町1-10-5"},{"id":"B113211100592","name":"大田区立開桜小学校","categoryId":"elementary","categoryLabel":"小学","lat":35.575605,"lng":139.731169,"stationId":"station-004307","note":"東京都大田区大森西2-26-3"},{"id":"D113299901148","name":"東京都立美原高等学校","categoryId":"high_school","categoryLabel":"高中","lat":35.577992,"lng":139.740366,"stationId":"station-004294","note":"東京都大田区大森東1-33-1"},{"id":"C113210900040","name":"品川区立鈴ケ森中学校","categoryId":"junior_high","categoryLabel":"中学","lat":35.59311,"lng":139.737751,"stationId":"station-004244","note":"東京都品川区南大井2-3-14"},{"id":"C113211100028","name":"大田区立大森第二中学校","categoryId":"junior_high","categoryLabel":"中学","lat":35.579608,"lng":139.732246,"stationId":"station-004294","note":"東京都大田区大森北6-18-1"},{"id":"A113310900079","name":"あけぼの幼稚園","categoryId":"kindergarten","categoryLabel":"幼稚园","lat":35.598361,"lng":139.730047,"stationId":"station-004244","note":"東京都品川区大井5-10-12"},{"id":"A113210900099","name":"品川区立八潮わかば幼稚園","categoryId":"kindergarten","categoryLabel":"幼稚园","lat":35.596398,"lng":139.749769,"stationId":"station-004244","note":"東京都品川区八潮5-6-32"},{"id":"A113210900035","name":"品川区立浜川幼稚園","categoryId":"kindergarten","categoryLabel":"幼稚园","lat":35.597662,"lng":139.736189,"stationId":"station-004244","note":"東京都品川区南大井4-3-14"},{"id":"A113311100208","name":"大森聖マリア幼稚園","categoryId":"kindergarten","categoryLabel":"幼稚园","lat":35.584841,"lng":139.732613,"stationId":"station-004268","note":"東京都大田区大森北2-5-11"},{"id":"A113310900186","name":"鈴ヶ森めばえ幼稚園","categoryId":"kindergarten","categoryLabel":"幼稚园","lat":35.593238,"lng":139.736893,"stationId":"station-004244","note":"東京都品川区南大井2-4-1"},{"id":"H113311100089","name":"すず学園高等専修学校","categoryId":"other","categoryLabel":"其他","lat":35.579179,"lng":139.734632,"stationId":"station-004294","note":"東京都大田区大森北6-13-2"},{"id":"H113310900074","name":"新東京歯科技工士学校","categoryId":"other","categoryLabel":"其他","lat":35.587141,"lng":139.731145,"stationId":"station-004264","note":"東京都大田区大森北1-18-2"},{"id":"H113311100098","name":"新東京歯科衛生士学校","categoryId":"other","categoryLabel":"其他","lat":35.587091,"lng":139.731137,"stationId":"station-004264","note":"東京都大田区大森北1-18-2"}]
