[{"id":"B113210200021","name":"中央区立泰明小学校","categoryId":"elementary","categoryLabel":"小学","lat":35.672319,"lng":139.761282,"stationId":"station-003823","note":"東京都中央区銀座5-1-13"},{"id":"B113210300084","name":"港区立南山小学校","categoryId":"elementary","categoryLabel":"小学","lat":35.65727,"lng":139.731125,"stationId":"station-003955","note":"東京都港区元麻布3-8-15"},{"id":"B113210300146","name":"港区立御成門小学校","categoryId":"elementary","categoryLabel":"小学","lat":35.661307,"lng":139.749729,"stationId":"station-003911","note":"東京都港区芝公園3-2-4"},{"id":"B113210300119","name":"港区立東町小学校","categoryId":"elementary","categoryLabel":"小学","lat":35.650877,"lng":139.735794,"stationId":"station-003955","note":"東京都港区南麻布1-8-11"},{"id":"B113210300011","name":"港区立芝小学校","categoryId":"elementary","categoryLabel":"小学","lat":35.650995,"lng":139.750008,"stationId":"station-003962","note":"東京都港区芝2-21-3"},{"id":"B113210300155","name":"港区立赤坂小学校","categoryId":"elementary","categoryLabel":"小学","lat":35.66908,"lng":139.730868,"stationId":"station-003868","note":"東京都港区赤坂8-13-29"},{"id":"B113210300020","name":"港区立赤羽小学校","categoryId":"elementary","categoryLabel":"小学","lat":35.652752,"lng":139.742611,"stationId":"station-003954","note":"東京都港区三田2-6-2"},{"id":"B113210300075","name":"港区立麻布小学校","categoryId":"elementary","categoryLabel":"小学","lat":35.661597,"lng":139.738392,"stationId":"station-003884","note":"東京都港区麻布台1-5-15"},{"id":"D113310300131","name":"山脇学園高等学校","categoryId":"high_school","categoryLabel":"高中","lat":35.67417,"lng":139.732464,"stationId":"station-003822","note":"東京都港区赤坂4-10-36"},{"id":"D113299901031","name":"東京都立三田高等学校","categoryId":"high_school","categoryLabel":"高中","lat":35.652386,"lng":139.742694,"stationId":"station-003954","note":"東京都港区三田1-4-46"},{"id":"D113299901120","name":"東京都立六本木高等学校","categoryId":"high_school","categoryLabel":"高中","lat":35.657905,"lng":139.731171,"stationId":"station-003955","note":"東京都港区六本木6-16-36"},{"id":"D113299901157","name":"東京都立芝商業高等学校","categoryId":"high_school","categoryLabel":"高中","lat":35.656451,"lng":139.760603,"stationId":"station-003958","note":"東京都港区海岸1-8-25"},{"id":"D113310300060","name":"正則高等学校","categoryId":"high_school","categoryLabel":"高中","lat":35.661162,"lng":139.747798,"stationId":"station-003900","note":"東京都港区芝公園3-1-36"},{"id":"D113310300033","name":"芝高等学校","categoryId":"high_school","categoryLabel":"高中","lat":35.660269,"lng":139.746458,"stationId":"station-003900","note":"東京都港区芝公園3-5-37"},{"id":"C113210200038","name":"中央区立銀座中学校","categoryId":"junior_high","categoryLabel":"中学","lat":35.665601,"lng":139.764547,"stationId":"station-003886","note":"東京都中央区銀座8-19-15"},{"id":"C113310300124","name":"山脇学園中学校","categoryId":"junior_high","categoryLabel":"中学","lat":35.674709,"lng":139.733029,"stationId":"station-003822","note":"東京都港区赤坂4-10-36"},{"id":"C113210300091","name":"港区立六本木中学校","categoryId":"junior_high","categoryLabel":"中学","lat":35.660817,"lng":139.732198,"stationId":"station-003897","note":"東京都港区六本木6-8-16"},{"id":"C113210300019","name":"港区立御成門中学校","categoryId":"junior_high","categoryLabel":"中学","lat":35.661619,"lng":139.750423,"stationId":"station-003911","note":"東京都港区西新橋3-25-30"},{"id":"C113210300064","name":"港区立赤坂中学校","categoryId":"junior_high","categoryLabel":"中学","lat":35.668191,"lng":139.730575,"stationId":"station-003868","note":"東京都港区赤坂9-2-3"},{"id":"C113310300044","name":"芝中学校","categoryId":"junior_high","categoryLabel":"中学","lat":35.660386,"lng":139.746261,"stationId":"station-003900","note":"東京都港区芝公園3-5-37"},{"id":"A113310300048","name":"みなと幼稚園","categoryId":"kindergarten","categoryLabel":"幼稚园","lat":35.650592,"lng":139.75143,"stationId":"station-003987","note":"東京都港区芝2-25-6"},{"id":"A113210200023","name":"中央区立泰明幼稚園","categoryId":"kindergarten","categoryLabel":"幼稚园","lat":35.672454,"lng":139.761849,"stationId":"station-003823","note":"東京都中央区銀座5-1-13"},{"id":"A113310300100","name":"安藤記念教会附属幼稚園","categoryId":"kindergarten","categoryLabel":"幼稚园","lat":35.652442,"lng":139.730314,"stationId":"station-003955","note":"東京都港区元麻布2-14-16"},{"id":"A113310300039","name":"明徳幼稚園","categoryId":"kindergarten","categoryLabel":"幼稚园","lat":35.657168,"lng":139.74687,"stationId":"station-003954","note":"東京都港区芝公園4-7-4"},{"id":"A113310300020","name":"東洋英和幼稚園","categoryId":"kindergarten","categoryLabel":"幼稚园","lat":35.660871,"lng":139.734214,"stationId":"station-003897","note":"東京都港区六本木5-6-14"},{"id":"A113210300086","name":"港区立中之町幼稚園","categoryId":"kindergarten","categoryLabel":"幼稚园","lat":35.668054,"lng":139.731659,"stationId":"station-003897","note":"東京都港区赤坂9-2-26"},{"id":"A113210300068","name":"港区立南山幼稚園","categoryId":"kindergarten","categoryLabel":"幼稚园","lat":35.657232,"lng":139.730662,"stationId":"station-003955","note":"東京都港区元麻布3-8-15"},{"id":"A113210300013","name":"港区立赤羽幼稚園","categoryId":"kindergarten","categoryLabel":"幼稚园","lat":35.651604,"lng":139.742482,"stationId":"station-003954","note":"東京都港区三田2-6-2"},{"id":"A113210300059","name":"港区立麻布幼稚園","categoryId":"kindergarten","categoryLabel":"幼稚园","lat":35.662047,"lng":139.738565,"stationId":"station-003884","note":"東京都港区麻布台1-5-15"},{"id":"A113310300093","name":"芝幼稚園","categoryId":"kindergarten","categoryLabel":"幼稚园","lat":35.659463,"lng":139.751614,"stationId":"station-003911","note":"東京都港区芝公園1-3-16"},{"id":"A113310300146","name":"霊南坂幼稚園","categoryId":"kindergarten","categoryLabel":"幼稚园","lat":35.666996,"lng":139.741824,"stationId":"station-003884","note":"東京都港区赤坂1-14-3"},{"id":"A113310300057","name":"麻布山幼稚園","categoryId":"kindergarten","categoryLabel":"幼稚园","lat":35.654011,"lng":139.732776,"stationId":"station-003955","note":"東京都港区元麻布1-6-21"},{"id":"H213310300051","name":"カルチャーセンター・米会話学院","categoryId":"other","categoryLabel":"其他","lat":35.658464,"lng":139.75155,"stationId":"station-003911","note":"東京都港区"},{"id":"H213310300015","name":"東亜学院","categoryId":"other","categoryLabel":"其他","lat":35.669472,"lng":139.738252,"stationId":"station-003822","note":"東京都港区赤坂2-17-47"},{"id":"C113310300099","name":"東洋英和女学院中学部","categoryId":"other","categoryLabel":"其他","lat":35.659207,"lng":139.734732,"stationId":"station-003955","note":"東京都港区六本木5-14-40"},{"id":"B113310300028","name":"東洋英和女学院小学部","categoryId":"other","categoryLabel":"其他","lat":35.661127,"lng":139.733618,"stationId":"station-003897","note":"東京都港区六本木5-6-14"},{"id":"D113310300140","name":"東洋英和女学院高等部","categoryId":"other","categoryLabel":"其他","lat":35.659508,"lng":139.734768,"stationId":"station-003955","note":"東京都港区六本木5-14-40"},{"id":"H213310300033","name":"西町インターナショナルスクール","categoryId":"other","categoryLabel":"其他","lat":35.653601,"lng":139.730283,"stationId":"station-003955","note":"東京都港区元麻布2-14-7"},{"id":"F113310104072","name":"ハリウッド大学院大学","categoryId":"university","categoryLabel":"大学","lat":35.661717,"lng":139.730431,"stationId":"station-003897","note":"東京都港区六本木6-4-1"},{"id":"F113310102984","name":"慶應義塾大学","categoryId":"university","categoryLabel":"大学","lat":35.658669,"lng":139.751602,"stationId":"station-003911","note":"東京都港区芝公園1-5-30"},{"id":"F213310104348","name":"戸板女子短期大学","categoryId":"university","categoryLabel":"大学","lat":35.651052,"lng":139.749675,"stationId":"station-003962","note":"東京都港区芝2-21-17"},{"id":"F113310103288","name":"東京慈恵会医科大学","categoryId":"university","categoryLabel":"大学","lat":35.662683,"lng":139.750177,"stationId":"station-003911","note":"東京都港区西新橋3-25-8"},{"id":"F113310104081","name":"ＳＢＩ大学院大学","categoryId":"university","categoryLabel":"大学","lat":35.664614,"lng":139.739489,"stationId":"station-003884","note":"東京都港区六本木1-6-1　泉ガーデンタワー21階"},{"id":"H113310300070","name":"タカラ美容専門学校","categoryId":"vocational","categoryLabel":"专门学校","lat":35.673842,"lng":139.730183,"stationId":"station-003817","note":"東京都港区赤坂7-2-29"},{"id":"H113310300034","name":"ハリウッド美容専門学校","categoryId":"vocational","categoryLabel":"专门学校","lat":35.661664,"lng":139.73041,"stationId":"station-003897","note":"東京都港区六本木6-4-1"},{"id":"H113310300016","name":"慈恵看護専門学校","categoryId":"vocational","categoryLabel":"专门学校","lat":35.661983,"lng":139.75081,"stationId":"station-003911","note":"東京都港区西新橋3-25-8"},{"id":"H113310300043","name":"音響芸術専門学校","categoryId":"vocational","categoryLabel":"专门学校","lat":35.661389,"lng":139.750811,"stationId":"station-003911","note":"東京都港区西新橋3-24-10"}]
