[{"id":"B113210800329","name":"江東区立第二辰巳小学校","categoryId":"elementary","categoryLabel":"小学","lat":35.648255,"lng":139.80845,"stationId":"station-003999","note":"東京都江東区辰巳1-1-22"},{"id":"B113210800150","name":"江東区立辰巳小学校","categoryId":"elementary","categoryLabel":"小学","lat":35.64658,"lng":139.809981,"stationId":"station-003999","note":"東京都江東区辰巳1-11-1"},{"id":"C113210800185","name":"江東区立辰巳中学校","categoryId":"junior_high","categoryLabel":"中学","lat":35.646857,"lng":139.811449,"stationId":"station-003999","note":"東京都江東区辰巳1-10-57"},{"id":"A113210800063","name":"江東区立辰巳幼稚園","categoryId":"kindergarten","categoryLabel":"幼稚园","lat":35.646269,"lng":139.810656,"stationId":"station-003999","note":"東京都江東区辰巳1-11-1"},{"id":"A213310800015","name":"しののめＹＭＣＡこども園","categoryId":"other","categoryLabel":"其他","lat":35.649212,"lng":139.803785,"stationId":"station-003999","note":"東京都江東区東雲1-9-46"}]
