[{"id":"B113212100509","name":"足立区立中島根小学校","categoryId":"elementary","categoryLabel":"小学","lat":35.782176,"lng":139.800783,"stationId":"station-003159","note":"東京都足立区島根2-9-22"},{"id":"B113212100242","name":"足立区立加平小学校","categoryId":"elementary","categoryLabel":"小学","lat":35.78526,"lng":139.817931,"stationId":"station-003133","note":"東京都足立区六町3-3-11"},{"id":"B113212100545","name":"足立区立平野小学校","categoryId":"elementary","categoryLabel":"小学","lat":35.782859,"lng":139.808089,"stationId":"station-003133","note":"東京都足立区平野3-6-3"},{"id":"B113212100304","name":"足立区立東加平小学校","categoryId":"elementary","categoryLabel":"小学","lat":35.776745,"lng":139.8282,"stationId":"station-003162","note":"東京都足立区加平1-12-12"},{"id":"B113212100251","name":"足立区立東栗原小学校","categoryId":"elementary","categoryLabel":"小学","lat":35.781106,"lng":139.813351,"stationId":"station-003133","note":"東京都足立区一ッ家3-20-1"},{"id":"B113212100233","name":"足立区立栗島小学校","categoryId":"elementary","categoryLabel":"小学","lat":35.776841,"lng":139.812532,"stationId":"station-003177","note":"東京都足立区青井6-13-10"},{"id":"B113212100493","name":"足立区立花保小学校","categoryId":"elementary","categoryLabel":"小学","lat":35.790366,"lng":139.817851,"stationId":"station-003133","note":"東京都足立区南花畑2-19-1"},{"id":"B113212100368","name":"足立区立花畑小学校","categoryId":"elementary","categoryLabel":"小学","lat":35.79263,"lng":139.826259,"stationId":"station-003133","note":"東京都足立区南花畑3-22-1"},{"id":"D113299905073","name":"東京都立淵江高等学校","categoryId":"high_school","categoryLabel":"高中","lat":35.792027,"lng":139.81171,"stationId":"station-003133","note":"東京都足立区東保木間2-10-1"},{"id":"C113212100311","name":"足立区立六月中学校","categoryId":"junior_high","categoryLabel":"中学","lat":35.788355,"lng":139.800094,"stationId":"station-003101","note":"東京都足立区六月1-30-1"},{"id":"C113212100142","name":"足立区立東島根中学校","categoryId":"junior_high","categoryLabel":"中学","lat":35.78108,"lng":139.808532,"stationId":"station-003133","note":"東京都足立区平野1-27-2"},{"id":"C113212100277","name":"足立区立栗島中学校","categoryId":"junior_high","categoryLabel":"中学","lat":35.778036,"lng":139.810748,"stationId":"station-003177","note":"東京都足立区中央本町5-23-1"},{"id":"C113212100151","name":"足立区立渕江中学校","categoryId":"junior_high","categoryLabel":"中学","lat":35.796235,"lng":139.803612,"stationId":"station-003101","note":"東京都足立区保木間3-6-6"},{"id":"C113212100106","name":"足立区立第十三中学校","categoryId":"junior_high","categoryLabel":"中学","lat":35.790632,"lng":139.828817,"stationId":"station-003133","note":"東京都足立区神明南1-16-1"},{"id":"C113212100268","name":"足立区立花保中学校","categoryId":"junior_high","categoryLabel":"中学","lat":35.792715,"lng":139.818277,"stationId":"station-003133","note":"東京都足立区南花畑2-41-1"},{"id":"A113312100288","name":"あおい幼稚園","categoryId":"kindergarten","categoryLabel":"幼稚园","lat":35.781069,"lng":139.820758,"stationId":"station-003133","note":"東京都足立区西加平2-7-19"},{"id":"A113312100135","name":"栗島幼稚園","categoryId":"kindergarten","categoryLabel":"幼稚园","lat":35.776478,"lng":139.816399,"stationId":"station-003177","note":"東京都足立区青井5-2-14"},{"id":"A113312100466","name":"石鍋幼稚園","categoryId":"kindergarten","categoryLabel":"幼稚园","lat":35.785137,"lng":139.822588,"stationId":"station-003133","note":"東京都足立区六町4-4-18"},{"id":"A113312100518","name":"足立つくし幼稚園","categoryId":"kindergarten","categoryLabel":"幼稚园","lat":35.780796,"lng":139.806811,"stationId":"station-003176","note":"東京都足立区平野1-19-16"},{"id":"E113299930131","name":"東京都立花畑学園","categoryId":"other","categoryLabel":"其他","lat":35.797053,"lng":139.815134,"stationId":"station-003133","note":"東京都足立区南花畑5-24-49"}]
