[{"id":"B113212200394","name":"葛飾区立飯塚小学校","categoryId":"elementary","categoryLabel":"小学","lat":35.777012,"lng":139.858174,"stationId":"station-003191","note":"東京都葛飾区南水元1-13-1"},{"id":"B113212100322","name":"足立区立中川小学校","categoryId":"elementary","categoryLabel":"小学","lat":35.780862,"lng":139.841713,"stationId":"station-003162","note":"東京都足立区大谷田3-17-20"},{"id":"B113212100572","name":"足立区立中川東小学校","categoryId":"elementary","categoryLabel":"小学","lat":35.781157,"lng":139.843816,"stationId":"station-003162","note":"東京都足立区大谷田2-1-10"},{"id":"B113212100554","name":"足立区立辰沼小学校","categoryId":"elementary","categoryLabel":"小学","lat":35.783739,"lng":139.835215,"stationId":"station-003162","note":"東京都足立区谷中5-12-1"},{"id":"D113299906214","name":"東京都立本所工科高等学校","categoryId":"high_school","categoryLabel":"高中","lat":35.7774,"lng":139.864154,"stationId":"station-003191","note":"東京都葛飾区南水元4-21-1"},{"id":"D113299906170","name":"東京都立葛飾総合高等学校","categoryId":"high_school","categoryLabel":"高中","lat":35.777696,"lng":139.864988,"stationId":"station-003191","note":"東京都葛飾区南水元4-21-1"},{"id":"D113299905091","name":"東京都立足立東高等学校","categoryId":"high_school","categoryLabel":"高中","lat":35.78126,"lng":139.845417,"stationId":"station-003162","note":"東京都足立区大谷田2-3-5"},{"id":"C113212100099","name":"足立区立第十二中学校","categoryId":"junior_high","categoryLabel":"中学","lat":35.779966,"lng":139.84706,"stationId":"station-003162","note":"東京都足立区大谷田1-37-1"},{"id":"C113212100259","name":"足立区立谷中中学校","categoryId":"junior_high","categoryLabel":"中学","lat":35.78005,"lng":139.835612,"stationId":"station-003162","note":"東京都足立区谷中3-14-1"},{"id":"A113312100493","name":"東京いずみ幼稚園","categoryId":"kindergarten","categoryLabel":"幼稚园","lat":35.786533,"lng":139.842526,"stationId":"station-003162","note":"東京都足立区佐野1-20-10"},{"id":"A113312200054","name":"東江幼稚園","categoryId":"kindergarten","categoryLabel":"幼稚园","lat":35.775721,"lng":139.869721,"stationId":"station-003191","note":"東京都葛飾区東金町2-25-12"},{"id":"A113312100215","name":"黒川幼稚園","categoryId":"kindergarten","categoryLabel":"幼稚园","lat":35.788472,"lng":139.835672,"stationId":"station-003133","note":"東京都足立区辰沼2-5-3"}]
