[{"id":"B113212200296","name":"葛飾区立北野小学校","categoryId":"elementary","categoryLabel":"小学","lat":35.759789,"lng":139.871668,"stationId":"station-003232","note":"東京都葛飾区柴又3-10-1"},{"id":"B113212200385","name":"葛飾区立東柴又小学校","categoryId":"elementary","categoryLabel":"小学","lat":35.752707,"lng":139.880466,"stationId":"station-003244","note":"東京都葛飾区柴又5-12-15"},{"id":"B113212200456","name":"葛飾区立東金町小学校","categoryId":"elementary","categoryLabel":"小学","lat":35.773869,"lng":139.87095,"stationId":"station-003191","note":"東京都葛飾区東金町1-33-1"},{"id":"B113212200189","name":"葛飾区立柴又小学校","categoryId":"elementary","categoryLabel":"小学","lat":35.753066,"lng":139.877186,"stationId":"station-003244","note":"東京都葛飾区柴又4-30-1"},{"id":"B113212200161","name":"葛飾区立金町小学校","categoryId":"elementary","categoryLabel":"小学","lat":35.766795,"lng":139.877629,"stationId":"station-003195","note":"東京都葛飾区金町3-44-1"},{"id":"C113212200178","name":"葛飾区立常盤中学校","categoryId":"junior_high","categoryLabel":"中学","lat":35.763184,"lng":139.870589,"stationId":"station-003195","note":"東京都葛飾区金町2-11-1"},{"id":"C113212200098","name":"葛飾区立桜道中学校","categoryId":"junior_high","categoryLabel":"中学","lat":35.752723,"lng":139.873065,"stationId":"station-003232","note":"東京都葛飾区柴又4-3-1"},{"id":"A113312200107","name":"ルンビニー幼稚園","categoryId":"kindergarten","categoryLabel":"幼稚园","lat":35.758785,"lng":139.879708,"stationId":"station-003232","note":"東京都葛飾区柴又7-10-30"},{"id":"A213312200035","name":"幼保連携型認定こども園葛飾二葉幼稚園","categoryId":"kindergarten","categoryLabel":"幼稚园","lat":35.764815,"lng":139.870962,"stationId":"station-003195","note":"東京都葛飾区金町2-19-6"},{"id":"E113299940184","name":"東京都立葛飾特別支援学校","categoryId":"other","categoryLabel":"其他","lat":35.763819,"lng":139.870783,"stationId":"station-003195","note":"東京都葛飾区金町2-14-1"}]
