[{"id":"public-13229-22701","name":"ひばりが丘公民館","categoryId":"community","categoryLabel":"社区设施","lat":35.747402,"lng":139.540617,"stationId":"station-003242","note":"西東京市ひばりが丘2-3-4"},{"id":"public-13229-22761","name":"柳沢公民館","categoryId":"community","categoryLabel":"社区设施","lat":35.728338,"lng":139.553952,"stationId":"station-003409","note":"西東京市柳沢1-15-1"},{"id":"public-13229-22748","name":"田無公民館","categoryId":"community","categoryLabel":"社区设施","lat":35.726032,"lng":139.537807,"stationId":"station-003423","note":"西東京市南町5-6-11"},{"id":"public-13229-22716","name":"芝久保公民館","categoryId":"community","categoryLabel":"社区设施","lat":35.732673,"lng":139.528074,"stationId":"station-003423","note":"西東京市芝久保町5-4-48"},{"id":"public-13229-22723","name":"谷戸公民館","categoryId":"community","categoryLabel":"社区设施","lat":35.741483,"lng":139.543705,"stationId":"station-003242","note":"西東京市谷戸町1-17-2"},{"id":"medical-3-1214","name":"おおたけ歯科医院","categoryId":"medical","categoryLabel":"医疗","lat":35.729618,"lng":139.554521,"stationId":"station-003409","note":"歯　小歯"},{"id":"medical-3-1428","name":"かじた歯科クリニック","categoryId":"medical","categoryLabel":"医疗","lat":35.748469,"lng":139.542881,"stationId":"station-003242","note":"歯　小歯"},{"id":"medical-2-1793","name":"けやき在宅診療所","categoryId":"medical","categoryLabel":"医疗","lat":35.728959,"lng":139.539648,"stationId":"station-003423","note":"内　外　皮"},{"id":"medical-3-1819","name":"ごうけ矯正歯科クリニック","categoryId":"medical","categoryLabel":"医疗","lat":35.728293,"lng":139.538475,"stationId":"station-003423","note":"矯"},{"id":"medical-3-2055","name":"さくらい歯科医院","categoryId":"medical","categoryLabel":"医疗","lat":35.732848,"lng":139.550281,"stationId":"station-003409","note":"歯　小歯　矯"},{"id":"medical-3-2090","name":"さくら歯科クリニック","categoryId":"medical","categoryLabel":"医疗","lat":35.728524,"lng":139.554866,"stationId":"station-003409","note":"歯　小歯"},{"id":"medical-2-2230","name":"しげみつファミリークリニック","categoryId":"medical","categoryLabel":"医疗","lat":35.730644,"lng":139.535826,"stationId":"station-003423","note":"内　小　呼内"},{"id":"medical-2-2367","name":"すがひろ内科クリニック","categoryId":"medical","categoryLabel":"医疗","lat":35.727033,"lng":139.540211,"stationId":"station-003423","note":"内　循"},{"id":"medical-3-2585","name":"たかしま歯科クリニック","categoryId":"medical","categoryLabel":"医疗","lat":35.731775,"lng":139.546897,"stationId":"station-003409","note":"歯"},{"id":"medical-2-2614","name":"たかはし医院","categoryId":"medical","categoryLabel":"医疗","lat":35.729092,"lng":139.553079,"stationId":"station-003409","note":"内　消内　肝臓内"},{"id":"medical-2-2708","name":"たなか内科・リウマチ科クリニック","categoryId":"medical","categoryLabel":"医疗","lat":35.744276,"lng":139.539915,"stationId":"station-003242","note":"内　リウ"},{"id":"medical-2-2709","name":"たなしこどもクリニック","categoryId":"medical","categoryLabel":"医疗","lat":35.729578,"lng":139.526563,"stationId":"station-003423","note":"小"},{"id":"medical-2-2710","name":"たなし中村眼科クリニック","categoryId":"medical","categoryLabel":"医疗","lat":35.729614,"lng":139.540703,"stationId":"station-003423","note":"眼"},{"id":"medical-3-3276","name":"のぞみ歯科クリニック","categoryId":"medical","categoryLabel":"医疗","lat":35.729605,"lng":139.551828,"stationId":"station-003409","note":"歯　小歯　歯外"},{"id":"medical-3-3352","name":"はせがわ歯科クリニック","categoryId":"medical","categoryLabel":"医疗","lat":35.729602,"lng":139.54065,"stationId":"station-003423","note":"歯　小歯　歯外"},{"id":"medical-2-3446","name":"はるクリニック","categoryId":"medical","categoryLabel":"医疗","lat":35.748594,"lng":139.5432,"stationId":"station-003242","note":"糖内　内　小"},{"id":"medical-2-3525","name":"ひばりが丘やまね小児科アレルギー科","categoryId":"medical","categoryLabel":"医疗","lat":35.744276,"lng":139.539915,"stationId":"station-003242","note":"小　ア　小皮"},{"id":"medical-2-3526","name":"ひばりクリニック","categoryId":"medical","categoryLabel":"医疗","lat":35.744276,"lng":139.539915,"stationId":"station-003242","note":"脳外　整外　リハ"},{"id":"medical-2-3527","name":"ひばりヶ丘クリニック","categoryId":"medical","categoryLabel":"医疗","lat":35.749251,"lng":139.543233,"stationId":"station-003242","note":"内　消　小　リハ"},{"id":"medical-2-3529","name":"ひばり中村眼科","categoryId":"medical","categoryLabel":"医疗","lat":35.744837,"lng":139.543243,"stationId":"station-003242","note":"眼"},{"id":"medical-2-3579","name":"ひろクリニック","categoryId":"medical","categoryLabel":"医疗","lat":35.74943,"lng":139.543912,"stationId":"station-003242","note":"産婦　内　神内　漢内"},{"id":"medical-3-4082","name":"みむら矯正歯科","categoryId":"medical","categoryLabel":"医疗","lat":35.749263,"lng":139.543177,"stationId":"station-003242","note":"矯"},{"id":"medical-3-4132","name":"みんなの歯科クリニック","categoryId":"medical","categoryLabel":"医疗","lat":35.747972,"lng":139.535995,"stationId":"station-003242","note":"歯　小歯　矯歯　歯外"},{"id":"medical-3-4153","name":"むとう歯科医院","categoryId":"medical","categoryLabel":"医疗","lat":35.727009,"lng":139.540742,"stationId":"station-003423","note":"歯　小歯　矯"},{"id":"medical-2-4266","name":"やぎさわ内科・脳神経内科","categoryId":"medical","categoryLabel":"医疗","lat":35.726005,"lng":139.552556,"stationId":"station-003409","note":"内　脳神経内"},{"id":"medical-2-4340","name":"やまもと眼科","categoryId":"medical","categoryLabel":"医疗","lat":35.728391,"lng":139.540165,"stationId":"station-003423","note":"眼"},{"id":"medical-3-1167","name":"エンゼル歯科クリニック","categoryId":"medical","categoryLabel":"医疗","lat":35.73016,"lng":139.551309,"stationId":"station-003409","note":"歯　小歯　矯"},{"id":"medical-2-1380","name":"オンラインクリニック西東京","categoryId":"medical","categoryLabel":"医疗","lat":35.728601,"lng":139.541465,"stationId":"station-003423","note":"外　内　消内"},{"id":"medical-3-1746","name":"グレースデンタルクリニック　多摩分院","categoryId":"medical","categoryLabel":"医疗","lat":35.728921,"lng":139.541971,"stationId":"station-003423","note":"歯　小歯　矯　歯外"},{"id":"medical-2-1749","name":"グレースホームケアクリニック　多摩","categoryId":"medical","categoryLabel":"医疗","lat":35.728921,"lng":139.541971,"stationId":"station-003423","note":"内"},{"id":"medical-2-2237","name":"シチズン東京事業所　健康管理室","categoryId":"medical","categoryLabel":"医疗","lat":35.727681,"lng":139.532311,"stationId":"station-003423","note":"内"},{"id":"medical-3-2277","name":"シマデンタルクリニック","categoryId":"medical","categoryLabel":"医疗","lat":35.745127,"lng":139.54174,"stationId":"station-003242","note":"歯　小歯　矯　歯外"},{"id":"medical-3-3155","name":"ナチュラル歯科クリニック","categoryId":"medical","categoryLabel":"医疗","lat":35.732039,"lng":139.552201,"stationId":"station-003409","note":"歯　小歯　矯　歯外"},{"id":"medical-3-3188","name":"ニイヤマ歯科","categoryId":"medical","categoryLabel":"医疗","lat":35.730014,"lng":139.535493,"stationId":"station-003423","note":"歯"},{"id":"medical-2-4209","name":"メル眼科クリニック","categoryId":"medical","categoryLabel":"医疗","lat":35.728478,"lng":139.541479,"stationId":"station-003423","note":"眼"},{"id":"medical-2-13540","name":"三尾整形外科","categoryId":"medical","categoryLabel":"医疗","lat":35.729554,"lng":139.53813,"stationId":"station-003423","note":"整　リハ　リウ"},{"id":"medical-2-17371","name":"中山皮膚科医院","categoryId":"medical","categoryLabel":"医疗","lat":35.743889,"lng":139.553926,"stationId":"station-003242","note":"皮"},{"id":"medical-2-17366","name":"中山耳鼻咽喉科","categoryId":"medical","categoryLabel":"医疗","lat":35.748204,"lng":139.539287,"stationId":"station-003242","note":"耳"},{"id":"medical-2-11868","name":"久保眼科医院","categoryId":"medical","categoryLabel":"医疗","lat":35.728396,"lng":139.53943,"stationId":"station-003423","note":"眼"},{"id":"medical-3-10628","name":"井出歯科","categoryId":"medical","categoryLabel":"医疗","lat":35.738839,"lng":139.548939,"stationId":"station-003409","note":"歯　小歯"},{"id":"medical-2-11289","name":"介護老人福祉施設　ひばりが丘ふれあいの里　医務室","categoryId":"medical","categoryLabel":"医疗","lat":35.746819,"lng":139.53257,"stationId":"station-003242","note":"消外"},{"id":"medical-3-4795","name":"伊藤歯科医院","categoryId":"medical","categoryLabel":"医疗","lat":35.725745,"lng":139.538796,"stationId":"station-003423","note":"矯　歯　小歯"},{"id":"medical-2-13225","name":"佐藤眼科","categoryId":"medical","categoryLabel":"医疗","lat":35.73793,"lng":139.554629,"stationId":"station-003409","note":"眼"},{"id":"medical-2-19779","name":"保谷内科呼吸器科クリニック","categoryId":"medical","categoryLabel":"医疗","lat":35.743502,"lng":139.551817,"stationId":"station-003242","note":"内　呼　ア"},{"id":"medical-2-12419","name":"健光園","categoryId":"medical","categoryLabel":"医疗","lat":35.731762,"lng":139.536665,"stationId":"station-003423","note":"内"},{"id":"medical-2-20680","name":"六角地蔵整形外科クリニック","categoryId":"medical","categoryLabel":"医疗","lat":35.737421,"lng":139.535001,"stationId":"station-003423","note":"整　リハ"},{"id":"medical-3-5109","name":"医療法人社団　おばら歯科医院","categoryId":"medical","categoryLabel":"医疗","lat":35.739046,"lng":139.53254,"stationId":"station-003423","note":"歯　小歯"},{"id":"medical-2-5158","name":"医療法人社団　ひばりこどもクリニック","categoryId":"medical","categoryLabel":"医疗","lat":35.746738,"lng":139.543228,"stationId":"station-003242","note":"小　ア"},{"id":"medical-3-5127","name":"医療法人社団　サルビア歯科医院","categoryId":"medical","categoryLabel":"医疗","lat":35.72683,"lng":139.53364,"stationId":"station-003423","note":"歯"},{"id":"medical-2-6038","name":"医療法人社団　優希会　すぎはらこどもクリニック","categoryId":"medical","categoryLabel":"医疗","lat":35.737246,"lng":139.535307,"stationId":"station-003423","note":"小"},{"id":"medical-1-5538","name":"医療法人社団　時正会　佐々総合病院","categoryId":"medical","categoryLabel":"医疗","lat":35.729566,"lng":139.538733,"stationId":"station-003423","note":"内科　循環器内科　消化器内科　皮膚科　小児科　外科　消化器外科　泌尿器科　脳神経外科　整形外科　産婦人科　リハビリ科　麻酔科　救急科　形成外科　呼吸器内科　乳腺外科　糖尿病内科　脳神経内科　呼吸器外科　肛門外科　小児精神科　放射線診断科"},{"id":"medical-1-5897","name":"医療法人社団　東光会　西東京中央総合病院","categoryId":"medical","categoryLabel":"医疗","lat":35.726736,"lng":139.530931,"stationId":"station-003423","note":"内科　消化器内科　消化器外科　小児科　神経内科　外科　整形外科　脳神経外科　心臓血管外科　眼科　耳鼻いんこう科　皮膚科　泌尿器科　麻酔科　リハビリ科　循環器内科　腎臓内科"},{"id":"medical-1-5324","name":"医療法人社団　薫風会　山田病院","categoryId":"medical","categoryLabel":"医疗","lat":35.726634,"lng":139.541429,"stationId":"station-003423","note":"内科　精神科　心療内科　歯科"},{"id":"medical-2-6691","name":"医療法人社団ヒマワリ会　畑中医院","categoryId":"medical","categoryLabel":"医疗","lat":35.725144,"lng":139.542498,"stationId":"station-003423","note":"内　こ　産婦"},{"id":"medical-2-8046","name":"医療法人社団三宝会　川村クリニック","categoryId":"medical","categoryLabel":"医疗","lat":35.728462,"lng":139.552612,"stationId":"station-003409","note":"ひ　内　皮"},{"id":"medical-2-8748","name":"医療法人社団仁明会　安部医院","categoryId":"medical","categoryLabel":"医疗","lat":35.729524,"lng":139.552028,"stationId":"station-003409","note":"内　精　小　耳"},{"id":"medical-2-10072","name":"医療法人社団佑友会　ひばりケ丘診療所","categoryId":"medical","categoryLabel":"医疗","lat":35.748327,"lng":139.534756,"stationId":"station-003242","note":"内　胃　循　小"},{"id":"medical-3-10396","name":"医療法人社団六言会　田無北デンタルクリニック","categoryId":"medical","categoryLabel":"医疗","lat":35.729562,"lng":139.540297,"stationId":"station-003423","note":"歯　矯　小歯　歯外"},{"id":"medical-3-9678","name":"医療法人社団博山会　博山歯科クリニック","categoryId":"medical","categoryLabel":"医疗","lat":35.729056,"lng":139.53971,"stationId":"station-003423","note":"歯　小歯　矯　歯外"},{"id":"medical-3-9676","name":"医療法人社団博山会　沼澤歯科医院","categoryId":"medical","categoryLabel":"医疗","lat":35.728442,"lng":139.539275,"stationId":"station-003423","note":"歯　矯　小歯　歯外"},{"id":"medical-3-9677","name":"医療法人社団博山会　沼澤田無駅前歯科","categoryId":"medical","categoryLabel":"医疗","lat":35.727778,"lng":139.539235,"stationId":"station-003423","note":"歯　矯歯　小歯　歯外"},{"id":"medical-3-9695","name":"医療法人社団博西会　三國歯科医院","categoryId":"medical","categoryLabel":"医疗","lat":35.727008,"lng":139.55206,"stationId":"station-003409","note":"歯　小歯　矯"},{"id":"medical-2-7642","name":"医療法人社団吾勢会　指田医院","categoryId":"medical","categoryLabel":"医疗","lat":35.727778,"lng":139.539235,"stationId":"station-003423","note":"脳　外　内"},{"id":"medical-2-7190","name":"医療法人社団希照会　ひばりが丘てらむらクリニック","categoryId":"medical","categoryLabel":"医疗","lat":35.743499,"lng":139.535563,"stationId":"station-003242","note":"内　循内　消内"},{"id":"medical-2-10159","name":"医療法人社団悠悠会　つばさクリニック","categoryId":"medical","categoryLabel":"医疗","lat":35.729842,"lng":139.539744,"stationId":"station-003423","note":"眼"},{"id":"medical-2-8179","name":"医療法人社団慈秀会　石田クリニック","categoryId":"medical","categoryLabel":"医疗","lat":35.743939,"lng":139.543612,"stationId":"station-003242","note":"内　胃　外　こ"},{"id":"medical-3-7483","name":"医療法人社団敬天愛人会　パンダ歯科クリニック","categoryId":"medical","categoryLabel":"医疗","lat":35.728271,"lng":139.538535,"stationId":"station-003423","note":"歯　小歯　矯"},{"id":"medical-2-7468","name":"医療法人社団敬康会　やまぐち内科眼科クリニック","categoryId":"medical","categoryLabel":"医疗","lat":35.731188,"lng":139.534256,"stationId":"station-003423","note":"内　呼内　消内　循内　眼"},{"id":"medical-2-10000","name":"医療法人社団明心会やぎさわ循環器クリニック","categoryId":"medical","categoryLabel":"医疗","lat":35.72868,"lng":139.5499,"stationId":"station-003409","note":"循　呼　内"},{"id":"medical-2-10033","name":"医療法人社団明理会　田無皮フ科コンタニクリニック","categoryId":"medical","categoryLabel":"医疗","lat":35.729056,"lng":139.53971,"stationId":"station-003423","note":"皮膚科"},{"id":"medical-2-8375","name":"医療法人社団春陽会　大野医院","categoryId":"medical","categoryLabel":"医疗","lat":35.72672,"lng":139.554509,"stationId":"station-003409","note":"整　内　小　皮"},{"id":"medical-2-8422","name":"医療法人社団曙新泉会　知念医院","categoryId":"medical","categoryLabel":"医疗","lat":35.738868,"lng":139.547042,"stationId":"station-003409","note":"内　小"},{"id":"medical-2-9288","name":"医療法人社団村市医院","categoryId":"medical","categoryLabel":"医疗","lat":35.730516,"lng":139.55209,"stationId":"station-003409","note":"内　小　皮"},{"id":"medical-2-8505","name":"医療法人社団松和会　望星田無クリニック","categoryId":"medical","categoryLabel":"医疗","lat":35.728651,"lng":139.546114,"stationId":"station-003409","note":"内"},{"id":"medical-3-8894","name":"医療法人社団正昌会　山口歯科医院","categoryId":"medical","categoryLabel":"医疗","lat":35.749769,"lng":139.542412,"stationId":"station-003242","note":"歯"},{"id":"medical-3-8908","name":"医療法人社団正麻会田無スマイル歯科クリニック","categoryId":"medical","categoryLabel":"医疗","lat":35.72853,"lng":139.540448,"stationId":"station-003423","note":"歯　小歯　歯外　矯"},{"id":"medical-2-9564","name":"医療法人社団湯川　湯川ウィメンズクリニック","categoryId":"medical","categoryLabel":"医疗","lat":35.728638,"lng":139.538752,"stationId":"station-003423","note":"産婦　内"},{"id":"medical-2-8011","name":"医療法人社団皐月会　平井内科小児科","categoryId":"medical","categoryLabel":"医疗","lat":35.729667,"lng":139.53565,"stationId":"station-003423","note":"内　小　神内"},{"id":"medical-2-8012","name":"医療法人社団皐月会　平井皮フ科","categoryId":"medical","categoryLabel":"医疗","lat":35.729667,"lng":139.53565,"stationId":"station-003423","note":"皮　ア"},{"id":"medical-2-9121","name":"医療法人社団石和会　耳鼻咽喉科ヒロクリニック","categoryId":"medical","categoryLabel":"医疗","lat":35.72941,"lng":139.539658,"stationId":"station-003423","note":"耳"},{"id":"medical-2-8336","name":"医療法人社団秀友会　ひらつか内科クリニック","categoryId":"medical","categoryLabel":"医疗","lat":35.725653,"lng":139.545614,"stationId":"station-003423","note":"内"},{"id":"medical-2-10263","name":"医療法人社団翌檜会　ひがき医院","categoryId":"medical","categoryLabel":"医疗","lat":35.725275,"lng":139.527948,"stationId":"station-003423","note":"内　小　循内"},{"id":"medical-3-10510","name":"医療法人社団翔英会　ねま歯科医院","categoryId":"medical","categoryLabel":"医疗","lat":35.738868,"lng":139.547042,"stationId":"station-003409","note":"歯"},{"id":"medical-2-7122","name":"医療法人社団花楓会　笠井医院","categoryId":"medical","categoryLabel":"医疗","lat":35.726924,"lng":139.533058,"stationId":"station-003423","note":"内　外"},{"id":"medical-2-7336","name":"医療法人社団薫風会　田無メンタルクリニック","categoryId":"medical","categoryLabel":"医疗","lat":35.729111,"lng":139.538212,"stationId":"station-003423","note":"精　心内"},{"id":"medical-2-8222","name":"医療法人社団鹿島医院","categoryId":"medical","categoryLabel":"医疗","lat":35.746634,"lng":139.531359,"stationId":"station-003242","note":"内　消　小　皮　循"},{"id":"medical-1-4948","name":"医療法人財団　緑秀会　田無病院","categoryId":"medical","categoryLabel":"医疗","lat":35.741487,"lng":139.541432,"stationId":"station-003242","note":"内科　外科　消化器外科　泌尿器科　脳神経外科　整形外科　眼科　耳鼻いんこう科　リハビリ科"},{"id":"medical-3-18799","name":"南田歯科医院","categoryId":"medical","categoryLabel":"医疗","lat":35.727788,"lng":139.547908,"stationId":"station-003409","note":"歯"},{"id":"medical-2-11759","name":"吉川小児科医院","categoryId":"medical","categoryLabel":"医疗","lat":35.737964,"lng":139.55339,"stationId":"station-003409","note":"内　小　皮"},{"id":"medical-3-13800","name":"四津谷歯科医院","categoryId":"medical","categoryLabel":"医疗","lat":35.746255,"lng":139.542782,"stationId":"station-003242","note":"歯　小歯"},{"id":"medical-3-19974","name":"堀歯科医院","categoryId":"medical","categoryLabel":"医疗","lat":35.731755,"lng":139.539156,"stationId":"station-003423","note":"歯　小歯"},{"id":"medical-2-4754","name":"安部医院　泉町分院","categoryId":"medical","categoryLabel":"医疗","lat":35.740896,"lng":139.550842,"stationId":"station-003242","note":"内　神　精　耳　心内"},{"id":"medical-3-14547","name":"小川歯科","categoryId":"medical","categoryLabel":"医疗","lat":35.725504,"lng":139.547058,"stationId":"station-003409","note":"歯"},{"id":"medical-2-14665","name":"小野内科循環器科クリニック","categoryId":"medical","categoryLabel":"医疗","lat":35.737465,"lng":139.535026,"stationId":"station-003423","note":"内"},{"id":"medical-3-13625","name":"山口歯科医院","categoryId":"medical","categoryLabel":"医疗","lat":35.727123,"lng":139.535509,"stationId":"station-003423","note":"歯"},{"id":"medical-3-10938","name":"押見歯科診療室","categoryId":"medical","categoryLabel":"医疗","lat":35.748949,"lng":139.543554,"stationId":"station-003242","note":"歯"},{"id":"medical-3-20033","name":"本町歯科","categoryId":"medical","categoryLabel":"医疗","lat":35.729027,"lng":139.541151,"stationId":"station-003423","note":"歯　小歯　矯"},{"id":"medical-2-20031","name":"本町胃腸クリニック","categoryId":"medical","categoryLabel":"医疗","lat":35.731286,"lng":139.54781,"stationId":"station-003409","note":"内　胃　放"},{"id":"medical-3-14815","name":"松川歯科医院","categoryId":"medical","categoryLabel":"医疗","lat":35.729977,"lng":139.541998,"stationId":"station-003423","note":"歯"},{"id":"medical-3-14863","name":"松本歯科医院","categoryId":"medical","categoryLabel":"医疗","lat":35.731411,"lng":139.552892,"stationId":"station-003409","note":"歯"},{"id":"medical-2-20401","name":"柳沢中西眼科","categoryId":"medical","categoryLabel":"医疗","lat":35.728734,"lng":139.549327,"stationId":"station-003409","note":"眼"},{"id":"medical-3-19288","name":"樋口歯科医院","categoryId":"medical","categoryLabel":"医疗","lat":35.728948,"lng":139.552801,"stationId":"station-003409","note":"歯"},{"id":"medical-3-13865","name":"歯科　吉岡","categoryId":"medical","categoryLabel":"医疗","lat":35.749122,"lng":139.543537,"stationId":"station-003242","note":"歯　小歯　矯"},{"id":"medical-3-16411","name":"泉台歯科医院","categoryId":"medical","categoryLabel":"医疗","lat":35.74481,"lng":139.55456,"stationId":"station-003242","note":"歯"},{"id":"medical-3-16423","name":"浅沼歯科クリニック","categoryId":"medical","categoryLabel":"医疗","lat":35.729594,"lng":139.526761,"stationId":"station-003423","note":"歯"},{"id":"medical-3-16456","name":"浅野第三歯科診療所","categoryId":"medical","categoryLabel":"医疗","lat":35.725676,"lng":139.52316,"stationId":"station-003423","note":"歯　小歯　矯"},{"id":"medical-3-17932","name":"渡辺歯科医院","categoryId":"medical","categoryLabel":"医疗","lat":35.726622,"lng":139.538139,"stationId":"station-003423","note":"歯　小歯　歯外"},{"id":"medical-2-18603","name":"特別養護老人ホームクレイン内診察室","categoryId":"medical","categoryLabel":"医疗","lat":35.735145,"lng":139.528762,"stationId":"station-003423","note":"内"},{"id":"medical-2-18602","name":"特別養護老人ホームグリーンロード医務室","categoryId":"medical","categoryLabel":"医疗","lat":35.733692,"lng":139.532182,"stationId":"station-003423","note":"内"},{"id":"medical-2-18674","name":"特別養護老人ホーム福寿園ひばりが丘医務室","categoryId":"medical","categoryLabel":"医疗","lat":35.745101,"lng":139.536949,"stationId":"station-003242","note":"内"},{"id":"medical-2-17770","name":"田村医院","categoryId":"medical","categoryLabel":"医疗","lat":35.731133,"lng":139.531988,"stationId":"station-003423","note":"内　小　消"},{"id":"medical-2-17880","name":"田無スキンクリニック","categoryId":"medical","categoryLabel":"医疗","lat":35.726275,"lng":139.537026,"stationId":"station-003423","note":"皮　小皮　皮外　美皮"},{"id":"medical-2-17881","name":"田無ペインクリニック内科","categoryId":"medical","categoryLabel":"医疗","lat":35.725065,"lng":139.539982,"stationId":"station-003423","note":"麻　ペ内"},{"id":"medical-2-17883","name":"田無循環器クリニック","categoryId":"medical","categoryLabel":"医疗","lat":35.726275,"lng":139.537026,"stationId":"station-003423","note":"循内　循外　内"},{"id":"medical-3-17884","name":"田無町歯科クリニック","categoryId":"medical","categoryLabel":"医疗","lat":35.729111,"lng":139.538212,"stationId":"station-003423","note":"歯　小歯　歯外"},{"id":"medical-2-17882","name":"田無耳鼻咽喉科クリニック","categoryId":"medical","categoryLabel":"医疗","lat":35.726275,"lng":139.537026,"stationId":"station-003423","note":"耳　小耳"},{"id":"medical-2-16127","name":"石川クリニック","categoryId":"medical","categoryLabel":"医疗","lat":35.731144,"lng":139.554738,"stationId":"station-003409","note":"内　神内　循内　皮"},{"id":"medical-3-15430","name":"神田歯科医院","categoryId":"medical","categoryLabel":"医疗","lat":35.741651,"lng":139.543197,"stationId":"station-003242","note":"歯　矯"},{"id":"medical-3-17287","name":"竹中歯科医院","categoryId":"medical","categoryLabel":"医疗","lat":35.727351,"lng":139.541343,"stationId":"station-003423","note":"歯　小歯　矯"},{"id":"medical-2-17306","name":"竹内内科クリニック","categoryId":"medical","categoryLabel":"医疗","lat":35.74791,"lng":139.552226,"stationId":"station-003242","note":"内　循　消　ア"},{"id":"medical-3-11086","name":"荻野デンタルクリニック","categoryId":"medical","categoryLabel":"医疗","lat":35.728287,"lng":139.552694,"stationId":"station-003409","note":"歯　小歯　矯　歯外"},{"id":"medical-3-18444","name":"藤井かおる歯科医院","categoryId":"medical","categoryLabel":"医疗","lat":35.748393,"lng":139.550075,"stationId":"station-003242","note":"歯　小歯　歯外　矯"},{"id":"medical-2-15929","name":"西東京めぐみクリニック","categoryId":"medical","categoryLabel":"医疗","lat":35.728833,"lng":139.541022,"stationId":"station-003423","note":"内　消内　外　内視内"},{"id":"medical-3-15931","name":"西東京口腔研クリニック","categoryId":"medical","categoryLabel":"医疗","lat":35.729573,"lng":139.538391,"stationId":"station-003423","note":"歯"},{"id":"medical-2-15933","name":"西東京市成人保健センター","categoryId":"medical","categoryLabel":"医疗","lat":35.7318,"lng":139.536295,"stationId":"station-003423","note":"内　外　小　眼　ひ　皮　産婦　耳　整　精　歯"},{"id":"medical-3-15935","name":"西東京生協歯科","categoryId":"medical","categoryLabel":"医疗","lat":35.747507,"lng":139.538058,"stationId":"station-003242","note":"歯　小歯"},{"id":"medical-2-15930","name":"西東京眼科クリニック","categoryId":"medical","categoryLabel":"医疗","lat":35.732054,"lng":139.55072,"stationId":"station-003409","note":"眼"},{"id":"medical-3-15951","name":"西武柳沢デンタルクリニック","categoryId":"medical","categoryLabel":"医疗","lat":35.726012,"lng":139.552558,"stationId":"station-003409","note":"歯　小歯　矯　歯外"},{"id":"medical-3-15952","name":"西武柳沢南口歯科","categoryId":"medical","categoryLabel":"医疗","lat":35.728287,"lng":139.552694,"stationId":"station-003409","note":"歯　小歯　歯外"},{"id":"medical-3-10895","name":"遠藤歯科医院","categoryId":"medical","categoryLabel":"医疗","lat":35.728743,"lng":139.545753,"stationId":"station-003409","note":"歯　小歯"},{"id":"medical-2-14260","name":"酒枝医院","categoryId":"medical","categoryLabel":"医疗","lat":35.733943,"lng":139.543825,"stationId":"station-003423","note":"内　小　循　整"},{"id":"medical-3-20330","name":"野本歯科医院","categoryId":"medical","categoryLabel":"医疗","lat":35.72825,"lng":139.550962,"stationId":"station-003409","note":"歯"},{"id":"medical-2-18990","name":"馬場医院","categoryId":"medical","categoryLabel":"医疗","lat":35.733428,"lng":139.552088,"stationId":"station-003409","note":"内　小　循"},{"id":"medical-2-12914","name":"高橋クリニック","categoryId":"medical","categoryLabel":"医疗","lat":35.726421,"lng":139.537569,"stationId":"station-003423","note":"内　外　整　リハ"},{"id":"medical-3-13023","name":"高畑歯科","categoryId":"medical","categoryLabel":"医疗","lat":35.747733,"lng":139.536543,"stationId":"station-003242","note":"歯"},{"id":"medical-3-13113","name":"黒川歯科医院","categoryId":"medical","categoryLabel":"医疗","lat":35.726935,"lng":139.538907,"stationId":"station-003423","note":"歯"},{"id":"medical-3-192","name":"ＨＩＢＡＲＩＧＡＯＫＡ　ＤＥＮＴＡＬ　ＯＦＦＩＣＥ","categoryId":"medical","categoryLabel":"医疗","lat":35.744698,"lng":139.542726,"stationId":"station-003242","note":"歯　矯　小歯　歯外"},{"id":"public-13229-22704","name":"ひばりが丘児童センター","categoryId":"public_service","categoryLabel":"公共服务","lat":35.746185,"lng":139.53702,"stationId":"station-003242","note":"西東京市ひばりが丘3-1-25"},{"id":"public-13222-22675","name":"ひばりが丘地区センター","categoryId":"public_service","categoryLabel":"公共服务","lat":35.746518,"lng":139.534248,"stationId":"station-003242","note":"東久留米市ひばりが丘団地185南部地域センター内"},{"id":"public-13229-22700","name":"ひばりが丘市民集会所","categoryId":"public_service","categoryLabel":"公共服务","lat":35.748519,"lng":139.541408,"stationId":"station-003242","note":"西東京市ひばりが丘2-2-25"},{"id":"public-13229-22702","name":"ひばりが丘福祉会館","categoryId":"public_service","categoryLabel":"公共服务","lat":35.748538,"lng":139.537783,"stationId":"station-003242","note":"西東京市ひばりが丘2-8-27"},{"id":"public-13222-22673","name":"ひばりが丘連絡所","categoryId":"public_service","categoryLabel":"公共服务","lat":35.746541,"lng":139.534309,"stationId":"station-003242","note":"東久留米市ひばりが丘団地185"},{"id":"public-13229-22732","name":"アスタ市民ホール","categoryId":"public_service","categoryLabel":"公共服务","lat":35.72839,"lng":139.540203,"stationId":"station-003423","note":"西東京市田無町2-1-1"},{"id":"public-13229-22733","name":"コール田無","categoryId":"public_service","categoryLabel":"公共服务","lat":35.729251,"lng":139.543753,"stationId":"station-003423","note":"西東京市田無町3-7-2"},{"id":"public-13229-22709","name":"下宿コミュニティセンター","categoryId":"public_service","categoryLabel":"公共服务","lat":35.72526,"lng":139.536237,"stationId":"station-003423","note":"西東京市南町5-26-1"},{"id":"public-13229-22747","name":"下宿地区会館","categoryId":"public_service","categoryLabel":"公共服务","lat":35.72526,"lng":139.536237,"stationId":"station-003423","note":"西東京市南町5-26-1"},{"id":"public-13229-22717","name":"住吉町第二市民集会所","categoryId":"public_service","categoryLabel":"公共服务","lat":35.743514,"lng":139.55116,"stationId":"station-003242","note":"西東京市住吉町6-1-5"},{"id":"public-13229-22718","name":"住吉老人福祉センター","categoryId":"public_service","categoryLabel":"公共服务","lat":35.744116,"lng":139.551415,"stationId":"station-003242","note":"西東京市住吉町6-15-6"},{"id":"public-13229-22756","name":"保谷町市民集会所","categoryId":"public_service","categoryLabel":"公共服务","lat":35.734359,"lng":139.550708,"stationId":"station-003409","note":"西東京市保谷町5-5-19"},{"id":"public-13229-22758","name":"北原地区会館","categoryId":"public_service","categoryLabel":"公共服务","lat":35.732401,"lng":139.543767,"stationId":"station-003423","note":"西東京市北原町1-6-13"},{"id":"public-13229-22757","name":"北原市民集会所","categoryId":"public_service","categoryLabel":"公共服务","lat":35.732393,"lng":139.543761,"stationId":"station-003423","note":"西東京市北原町1-6-13"},{"id":"public-13229-22746","name":"南町コミュニティセンター","categoryId":"public_service","categoryLabel":"公共服务","lat":35.725277,"lng":139.546114,"stationId":"station-003409","note":"西東京市南町2-21-9"},{"id":"public-13229-22744","name":"南町地区会館","categoryId":"public_service","categoryLabel":"公共服务","lat":35.725277,"lng":139.546114,"stationId":"station-003409","note":"西東京市南町2-21-9"},{"id":"public-13222-22682","name":"南部地域センター","categoryId":"public_service","categoryLabel":"公共服务","lat":35.746518,"lng":139.534248,"stationId":"station-003242","note":"東久留米市ひばりが丘団地185"},{"id":"public-13229-22714","name":"市役所田無庁舎・田無第二庁舎","categoryId":"public_service","categoryLabel":"公共服务","lat":35.725676,"lng":139.53796,"stationId":"station-003423","note":"西東京市南町5-6-13"},{"id":"public-13229-22752","name":"文化交流センターきらっと","categoryId":"public_service","categoryLabel":"公共服务","lat":35.725521,"lng":139.537532,"stationId":"station-003423","note":"西東京市南町5-6-5"},{"id":"public-13229-22736","name":"田無町地区会館","categoryId":"public_service","categoryLabel":"公共服务","lat":35.730212,"lng":139.537879,"stationId":"station-003423","note":"西東京市田無町5-3-3"},{"id":"public-13229-22735","name":"田無町市民集会所","categoryId":"public_service","categoryLabel":"公共服务","lat":35.730212,"lng":139.537879,"stationId":"station-003423","note":"西東京市田無町5-3-3"},{"id":"public-13229-22737","name":"田無総合福祉センター","categoryId":"public_service","categoryLabel":"公共服务","lat":35.731809,"lng":139.536212,"stationId":"station-003423","note":"西東京市田無町5-5-12"},{"id":"public-13229-22763","name":"緑町コミュニティセンター","categoryId":"public_service","categoryLabel":"公共服务","lat":35.73512,"lng":139.537498,"stationId":"station-003423","note":"西東京市緑町1-5-1"},{"id":"public-13229-22764","name":"緑町市民集会所","categoryId":"public_service","categoryLabel":"公共服务","lat":35.742172,"lng":139.538089,"stationId":"station-003242","note":"西東京市緑町3-8-3"},{"id":"public-13229-22715","name":"芝久保第二地区会館","categoryId":"public_service","categoryLabel":"公共服务","lat":35.730759,"lng":139.525641,"stationId":"station-003423","note":"西東京市芝久保町4-4-25"},{"id":"public-13229-22724","name":"芝久保第二市民集会所","categoryId":"public_service","categoryLabel":"公共服务","lat":35.730759,"lng":139.525641,"stationId":"station-003423","note":"西東京市芝久保町4-4-25"},{"id":"public-13229-22722","name":"西原総合教育施設","categoryId":"public_service","categoryLabel":"公共服务","lat":35.736778,"lng":139.529048,"stationId":"station-003423","note":"西東京市西原町4-5-6"},{"id":"public-13229-22750","name":"西東京市役所","categoryId":"public_service","categoryLabel":"公共服务","lat":35.725499,"lng":139.538162,"stationId":"station-003423","note":"西東京市南町5-6-13"},{"id":"public-13229-22734","name":"西東京市民会館","categoryId":"public_service","categoryLabel":"公共服务","lat":35.728065,"lng":139.534435,"stationId":"station-003423","note":"西東京市田無町4-15-11"},{"id":"public-13229-22728","name":"谷戸コミュニティセンター","categoryId":"public_service","categoryLabel":"公共服务","lat":35.739367,"lng":139.544583,"stationId":"station-003242","note":"西東京市谷戸町1-9-2"},{"id":"public-13229-22725","name":"谷戸地区会館","categoryId":"public_service","categoryLabel":"公共服务","lat":35.739367,"lng":139.544583,"stationId":"station-003242","note":"西東京市谷戸町1-9-2"},{"id":"public-13229-22727","name":"谷戸第二地区会館","categoryId":"public_service","categoryLabel":"公共服务","lat":35.744678,"lng":139.545977,"stationId":"station-003242","note":"西東京市谷戸町3-13-2"},{"id":"public-13229-22731","name":"谷戸第二市民集会所","categoryId":"public_service","categoryLabel":"公共服务","lat":35.744677,"lng":139.545978,"stationId":"station-003242","note":"西東京市谷戸町3-13-2"},{"id":"public-13229-22751","name":"南町スポーツきらっと","categoryId":"sports","categoryLabel":"体育设施","lat":35.725521,"lng":139.537542,"stationId":"station-003423","note":"西東京市南町5-6-5"}]
