[{"id":"public-13206-22593","name":"押立公民館","categoryId":"community","categoryLabel":"社区设施","lat":35.653694,"lng":139.517843,"stationId":"station-003916","note":"府中市押立町5-4"},{"id":"public-13208-22620","name":"西部公民館","categoryId":"community","categoryLabel":"社区设施","lat":35.652936,"lng":139.522159,"stationId":"station-003916","note":"調布市上石原3-21-6"},{"id":"medical-3-473","name":"あい歯科医院","categoryId":"medical","categoryLabel":"医疗","lat":35.656503,"lng":139.530032,"stationId":"station-003937","note":"歯　小歯　歯外"},{"id":"medical-2-736","name":"あらし耳鼻咽喉科クリニック","categoryId":"medical","categoryLabel":"医疗","lat":35.652875,"lng":139.544255,"stationId":"station-003966","note":"耳　小"},{"id":"medical-2-906","name":"いづみ内科","categoryId":"medical","categoryLabel":"医疗","lat":35.655433,"lng":139.512706,"stationId":"station-003916","note":"内　消内　鏡内　ア"},{"id":"medical-3-929","name":"いなだ歯科クリニック","categoryId":"medical","categoryLabel":"医疗","lat":35.650526,"lng":139.545816,"stationId":"station-003966","note":"歯"},{"id":"medical-2-1457","name":"かつら医院","categoryId":"medical","categoryLabel":"医疗","lat":35.666751,"lng":139.513919,"stationId":"station-003916","note":"皮　内　眼"},{"id":"medical-3-1493","name":"かねこ歯科","categoryId":"medical","categoryLabel":"医疗","lat":35.664006,"lng":139.510557,"stationId":"station-003916","note":"歯　小歯"},{"id":"medical-2-1675","name":"くまざわ整形外科クリニック","categoryId":"medical","categoryLabel":"医疗","lat":35.652652,"lng":139.533934,"stationId":"station-003937","note":"整　リハ"},{"id":"medical-2-1863","name":"こころのクリニック調布","categoryId":"medical","categoryLabel":"医疗","lat":35.650246,"lng":139.550786,"stationId":"station-003975","note":"精　児精　心内"},{"id":"medical-3-1921","name":"こはた歯科医院","categoryId":"medical","categoryLabel":"医疗","lat":35.663721,"lng":139.512354,"stationId":"station-003916","note":"歯"},{"id":"medical-3-1955","name":"こまむら歯科クリニック","categoryId":"medical","categoryLabel":"医疗","lat":35.657434,"lng":139.5303,"stationId":"station-003937","note":"歯　小歯　矯　歯外"},{"id":"medical-2-2111","name":"ささもとこどもクリニック","categoryId":"medical","categoryLabel":"医疗","lat":35.660341,"lng":139.523822,"stationId":"station-003916","note":"小　ア"},{"id":"medical-2-2222","name":"しおり小児科","categoryId":"medical","categoryLabel":"医疗","lat":35.651421,"lng":139.549474,"stationId":"station-003975","note":"小　ア"},{"id":"medical-2-2330","name":"しらいとだい整形外科","categoryId":"medical","categoryLabel":"医疗","lat":35.667424,"lng":139.511768,"stationId":"station-003916","note":"整　リハ"},{"id":"medical-3-2329","name":"しらいとだい歯科","categoryId":"medical","categoryLabel":"医疗","lat":35.664457,"lng":139.51474,"stationId":"station-003916","note":"歯　小歯　歯外　矯"},{"id":"medical-2-2501","name":"せき循環器内科クリニック","categoryId":"medical","categoryLabel":"医疗","lat":35.65389,"lng":139.542495,"stationId":"station-003966","note":"循内　内"},{"id":"medical-2-2503","name":"せしもクリニック","categoryId":"medical","categoryLabel":"医疗","lat":35.650311,"lng":139.542124,"stationId":"station-003966","note":"皮　形　ア"},{"id":"medical-3-2596","name":"たかつ歯科","categoryId":"medical","categoryLabel":"医疗","lat":35.664026,"lng":139.544651,"stationId":"station-003966","note":"歯"},{"id":"medical-2-2783","name":"ちょうふの里医務室","categoryId":"medical","categoryLabel":"医疗","lat":35.667647,"lng":139.523069,"stationId":"station-003916","note":"内"},{"id":"medical-3-2830","name":"つばさデンタルクリニック","categoryId":"medical","categoryLabel":"医疗","lat":35.664322,"lng":139.511654,"stationId":"station-003916","note":"歯　矯　小歯　歯外"},{"id":"medical-2-2837","name":"つゆくさ医院","categoryId":"medical","categoryLabel":"医疗","lat":35.653667,"lng":139.546932,"stationId":"station-003966","note":"内　漢内　心内　アレ内　皮　精"},{"id":"medical-3-2948","name":"ときざき歯科","categoryId":"medical","categoryLabel":"医疗","lat":35.655293,"lng":139.547722,"stationId":"station-003966","note":"歯　小歯　矯"},{"id":"medical-3-3004","name":"とみさわ歯科医院","categoryId":"medical","categoryLabel":"医疗","lat":35.66283,"lng":139.543971,"stationId":"station-003966","note":"歯　小歯　矯"},{"id":"medical-2-3094","name":"ながせ腎泌尿器科・外科","categoryId":"medical","categoryLabel":"医疗","lat":35.65389,"lng":139.542495,"stationId":"station-003966","note":"泌　外　腎内　緩内"},{"id":"medical-2-3211","name":"にしぼりこどもクリニック","categoryId":"medical","categoryLabel":"医疗","lat":35.654608,"lng":139.530207,"stationId":"station-003937","note":"小"},{"id":"medical-3-3217","name":"にしやま歯科","categoryId":"medical","categoryLabel":"医疗","lat":35.667055,"lng":139.540445,"stationId":"station-003937","note":"歯"},{"id":"medical-3-3313","name":"はあとふる調布歯科医院","categoryId":"medical","categoryLabel":"医疗","lat":35.650909,"lng":139.536719,"stationId":"station-003966","note":"歯　小歯　矯"},{"id":"medical-3-3334","name":"はじめ歯科クリニック","categoryId":"medical","categoryLabel":"医疗","lat":35.661166,"lng":139.511268,"stationId":"station-003916","note":"歯　小歯"},{"id":"medical-3-3422","name":"はやし歯科医院","categoryId":"medical","categoryLabel":"医疗","lat":35.66488,"lng":139.513111,"stationId":"station-003916","note":"歯"},{"id":"medical-3-3487","name":"ひかり歯科クリニック","categoryId":"medical","categoryLabel":"医疗","lat":35.653625,"lng":139.530836,"stationId":"station-003937","note":"歯　小歯　歯外　矯"},{"id":"medical-2-3688","name":"ふしや内科・消化器内科クリニック","categoryId":"medical","categoryLabel":"医疗","lat":35.656845,"lng":139.551736,"stationId":"station-003975","note":"内　消内　内視鏡内科　肝臓　胆嚢　膵臓内科　胃腸内科"},{"id":"medical-3-3671","name":"ふじた矯正歯科クリニック","categoryId":"medical","categoryLabel":"医疗","lat":35.653593,"lng":139.543371,"stationId":"station-003966","note":"矯"},{"id":"medical-2-3843","name":"ほんまクリニック","categoryId":"medical","categoryLabel":"医疗","lat":35.652547,"lng":139.545171,"stationId":"station-003966","note":"心内　精　内"},{"id":"medical-3-4077","name":"みはし歯科クリニック","categoryId":"medical","categoryLabel":"医疗","lat":35.650798,"lng":139.547051,"stationId":"station-003966","note":"歯　小歯　矯　歯外"},{"id":"medical-2-4146","name":"むさしの台眼科","categoryId":"medical","categoryLabel":"医疗","lat":35.66458,"lng":139.512775,"stationId":"station-003916","note":"眼"},{"id":"medical-2-4509","name":"らくえん深大寺診療所","categoryId":"medical","categoryLabel":"医疗","lat":35.662093,"lng":139.552703,"stationId":"station-003966","note":"内"},{"id":"medical-2-678","name":"アフラック診療所","categoryId":"medical","categoryLabel":"医疗","lat":35.651459,"lng":139.54157,"stationId":"station-003966","note":"内"},{"id":"medical-2-704","name":"アミノバイタルフィールド診療所","categoryId":"medical","categoryLabel":"医疗","lat":35.663401,"lng":139.525439,"stationId":"station-003916","note":"脳外　整"},{"id":"medical-3-1008","name":"ウエダ歯科","categoryId":"medical","categoryLabel":"医疗","lat":35.651995,"lng":139.545289,"stationId":"station-003966","note":"歯　矯"},{"id":"medical-3-1166","name":"エンゼル歯科クリニック","categoryId":"medical","categoryLabel":"医疗","lat":35.650467,"lng":139.543677,"stationId":"station-003966","note":"歯　小歯　矯　歯外"},{"id":"medical-2-1536","name":"カラダとココロのクリニック西調布院","categoryId":"medical","categoryLabel":"医疗","lat":35.656642,"lng":139.530412,"stationId":"station-003937","note":"内科　血内　感染症内科　緩和ケア内科"},{"id":"medical-3-2286","name":"シミズ歯科医院","categoryId":"medical","categoryLabel":"医疗","lat":35.650015,"lng":139.540382,"stationId":"station-003966","note":"歯　小歯"},{"id":"medical-3-3261","name":"ノーブル武蔵野台歯科・矯正歯科","categoryId":"medical","categoryLabel":"医疗","lat":35.663812,"lng":139.51197,"stationId":"station-003916","note":"歯　矯　小歯　歯外"},{"id":"medical-3-4613","name":"ロゴスデンタルクリニック","categoryId":"medical","categoryLabel":"医疗","lat":35.650822,"lng":139.543042,"stationId":"station-003966","note":"歯　小歯　矯　歯外"},{"id":"medical-3-14952","name":"上石原歯科医院","categoryId":"medical","categoryLabel":"医疗","lat":35.659116,"lng":139.531916,"stationId":"station-003937","note":"歯　小歯"},{"id":"medical-2-17469","name":"中島整形外科医院","categoryId":"medical","categoryLabel":"医疗","lat":35.667489,"lng":139.510756,"stationId":"station-003916","note":"整"},{"id":"medical-3-17417","name":"中村歯科医院","categoryId":"medical","categoryLabel":"医疗","lat":35.656522,"lng":139.533215,"stationId":"station-003937","note":"歯"},{"id":"medical-1-12669","name":"公益財団法人　日本心臓血圧研究振興会附属榊原記念病院","categoryId":"medical","categoryLabel":"医疗","lat":35.666206,"lng":139.520319,"stationId":"station-003916","note":"内科　循環器内科　小児科　外科　心臓血管外科　小児外科　放射線科　麻酔科　産婦人科　リハビリ科"},{"id":"medical-2-5086","name":"医療法人社団　SJS　金子レディースクリニック","categoryId":"medical","categoryLabel":"医疗","lat":35.657085,"lng":139.551648,"stationId":"station-003975","note":"産科　婦人科"},{"id":"medical-2-5209","name":"医療法人社団　一志会　清水脊椎クリニック","categoryId":"medical","categoryLabel":"医疗","lat":35.652474,"lng":139.547305,"stationId":"station-003966","note":"リウマチ科　整形外科　リハビリ科　麻酔科"},{"id":"medical-1-5832","name":"医療法人社団　大坪会　北多摩病院","categoryId":"medical","categoryLabel":"医疗","lat":35.659593,"lng":139.543772,"stationId":"station-003966","note":"内科　循環器内科　内視鏡内科　腎臓内科　外科　整形外科　形成外科　美容外科　皮膚科　泌尿器科　耳鼻いんこう科　リハビリ科"},{"id":"medical-1-5821","name":"医療法人社団　大慈会　慈秀病院","categoryId":"medical","categoryLabel":"医疗","lat":35.666385,"lng":139.516981,"stationId":"station-003916","note":"内科　腎臓内科"},{"id":"medical-1-5898","name":"医療法人社団　東山会　調布東山病院","categoryId":"medical","categoryLabel":"医疗","lat":35.651904,"lng":139.541764,"stationId":"station-003966","note":"内科　呼吸器内科　消化器内科　循環器内科　神経内科　糖尿病内分泌内科　腎臓内科　外科　消化器外科　整形外科　大腸肛門外科　皮膚科　泌尿器科　リウマチ科　麻酔科　リハビリ科　放射線科"},{"id":"medical-1-5305","name":"医療法人社団　桐光会　調布病院","categoryId":"medical","categoryLabel":"医疗","lat":35.650943,"lng":139.532719,"stationId":"station-003937","note":"内科　外科　整形外科　脳神経外科　産婦人科　泌尿器科　リハビリ科　麻酔科　小児科"},{"id":"medical-1-5764","name":"医療法人社団　青山会　青木病院","categoryId":"medical","categoryLabel":"医疗","lat":35.650584,"lng":139.524695,"stationId":"station-003937","note":"内科　精神科　心療内科"},{"id":"medical-1-5949","name":"医療法人社団　飯野病院","categoryId":"medical","categoryLabel":"医疗","lat":35.651241,"lng":139.545046,"stationId":"station-003966","note":"内科　小児科　外科　乳腺外科　産婦人科"},{"id":"medical-2-6765","name":"医療法人社団みぎわ会　高坂皮膚科","categoryId":"medical","categoryLabel":"医疗","lat":35.661778,"lng":139.523808,"stationId":"station-003916","note":"皮"},{"id":"medical-2-6418","name":"医療法人社団オキノピオ　おき医院","categoryId":"medical","categoryLabel":"医疗","lat":35.662238,"lng":139.511631,"stationId":"station-003916","note":"小　ア"},{"id":"medical-3-6517","name":"医療法人社団シティデンタルクリニック　西調布シティデンタルクリニック","categoryId":"medical","categoryLabel":"医疗","lat":35.656642,"lng":139.530412,"stationId":"station-003937","note":"歯　小歯　矯　歯外"},{"id":"medical-3-6518","name":"医療法人社団シティデンタルクリニック　西調布ロータリー歯科","categoryId":"medical","categoryLabel":"医疗","lat":35.657489,"lng":139.530508,"stationId":"station-003937","note":"歯　小歯　矯　歯外"},{"id":"medical-2-6576","name":"医療法人社団スリープクリニック　スリープクリニック調布","categoryId":"medical","categoryLabel":"医疗","lat":35.650214,"lng":139.542937,"stationId":"station-003966","note":"心内　精　耳　内"},{"id":"medical-3-6717","name":"医療法人社団プラスアルファ　あべ歯科クリニック","categoryId":"medical","categoryLabel":"医疗","lat":35.650246,"lng":139.550786,"stationId":"station-003975","note":"歯"},{"id":"medical-2-6846","name":"医療法人社団ラサンテ　くにさわクリニック","categoryId":"medical","categoryLabel":"医疗","lat":35.659448,"lng":139.54291,"stationId":"station-003966","note":"呼内　内　ア"},{"id":"medical-3-8579","name":"医療法人社団信清会　布施歯科医院","categoryId":"medical","categoryLabel":"医疗","lat":35.653416,"lng":139.542844,"stationId":"station-003966","note":"歯　歯外　小歯　矯"},{"id":"medical-2-7580","name":"医療法人社団健理会　ふの内科クリニック","categoryId":"medical","categoryLabel":"医疗","lat":35.666067,"lng":139.515022,"stationId":"station-003916","note":"内　呼内　ア　小　老内"},{"id":"medical-2-9661","name":"医療法人社団入村会　にゅうむら医院","categoryId":"medical","categoryLabel":"医疗","lat":35.651639,"lng":139.550458,"stationId":"station-003975","note":"内　胃　肛　外　ア　リハ"},{"id":"medical-2-6931","name":"医療法人社団医光会　西調布井上クリニック","categoryId":"medical","categoryLabel":"医疗","lat":35.657424,"lng":139.530755,"stationId":"station-003937","note":"内　消内　外　皮"},{"id":"medical-2-10149","name":"医療法人社団友歩会　いしいこどもクリニック","categoryId":"medical","categoryLabel":"医疗","lat":35.656845,"lng":139.551736,"stationId":"station-003975","note":"小"},{"id":"medical-2-7761","name":"医療法人社団幸風会古沢眼科","categoryId":"medical","categoryLabel":"医疗","lat":35.653536,"lng":139.544378,"stationId":"station-003966","note":"眼"},{"id":"medical-2-7783","name":"医療法人社団広優会　松山眼科","categoryId":"medical","categoryLabel":"医疗","lat":35.651817,"lng":139.549299,"stationId":"station-003975","note":"眼"},{"id":"medical-2-7807","name":"医療法人社団康野診療所","categoryId":"medical","categoryLabel":"医疗","lat":35.66748,"lng":139.511804,"stationId":"station-003916","note":"内　外　皮　整　胃　泌"},{"id":"medical-2-8597","name":"医療法人社団心身会　調布脳神経外科","categoryId":"medical","categoryLabel":"医疗","lat":35.650858,"lng":139.543116,"stationId":"station-003966","note":"脳外　放"},{"id":"medical-3-7363","name":"医療法人社団恵会　城戸歯科クリニック","categoryId":"medical","categoryLabel":"医疗","lat":35.663626,"lng":139.511555,"stationId":"station-003916","note":"歯"},{"id":"medical-3-6875","name":"医療法人社団愛光会　ムラタデンタルクリニック","categoryId":"medical","categoryLabel":"医疗","lat":35.651863,"lng":139.542861,"stationId":"station-003966","note":"歯"},{"id":"medical-3-8832","name":"医療法人社団成希会　小原歯科医院","categoryId":"medical","categoryLabel":"医疗","lat":35.654499,"lng":139.546628,"stationId":"station-003966","note":"歯"},{"id":"medical-2-9498","name":"医療法人社団斗星堂会　菅間医院","categoryId":"medical","categoryLabel":"医疗","lat":35.655201,"lng":139.539374,"stationId":"station-003966","note":"内　外　消内"},{"id":"medical-2-9556","name":"医療法人社団東林会　小林内科","categoryId":"medical","categoryLabel":"医疗","lat":35.656021,"lng":139.529563,"stationId":"station-003937","note":"内　小"},{"id":"medical-2-10367","name":"医療法人社団林会　林クリニック","categoryId":"medical","categoryLabel":"医疗","lat":35.653536,"lng":139.544378,"stationId":"station-003966","note":"皮"},{"id":"medical-2-7084","name":"医療法人社団榎本内科クリニック","categoryId":"medical","categoryLabel":"医疗","lat":35.659339,"lng":139.521089,"stationId":"station-003916","note":"内　老年　神内"},{"id":"medical-3-10245","name":"医療法人社団洋歯会　千早デンタルクリニック","categoryId":"medical","categoryLabel":"医疗","lat":35.650906,"lng":139.542559,"stationId":"station-003966","note":"歯　矯　小歯　歯外"},{"id":"medical-3-7139","name":"医療法人社団海神会　しじみデンタルクリニック","categoryId":"medical","categoryLabel":"医疗","lat":35.654326,"lng":139.546473,"stationId":"station-003966","note":"歯科　矯正歯科　小児歯科　歯科口腔外科"},{"id":"medical-2-8649","name":"医療法人社団真医会　伊藤内科小児科クリニック","categoryId":"medical","categoryLabel":"医疗","lat":35.664189,"lng":139.512148,"stationId":"station-003916","note":"内　小"},{"id":"medical-2-8307","name":"医療法人社団秀楽会　磯崎整形外科","categoryId":"medical","categoryLabel":"医疗","lat":35.650246,"lng":139.550786,"stationId":"station-003975","note":"整　リハ"},{"id":"medical-2-10349","name":"医療法人社団緑会　水野眼科クリニック","categoryId":"medical","categoryLabel":"医疗","lat":35.652992,"lng":139.545799,"stationId":"station-003966","note":"眼"},{"id":"medical-3-10360","name":"医療法人社団緑友会　ハンズデンタルクリニック","categoryId":"medical","categoryLabel":"医疗","lat":35.657105,"lng":139.547149,"stationId":"station-003966","note":"歯　小歯　矯　歯外"},{"id":"medical-2-8423","name":"医療法人社団緒方会　緒方医院","categoryId":"medical","categoryLabel":"医疗","lat":35.660769,"lng":139.521086,"stationId":"station-003916","note":"内　小"},{"id":"medical-2-10530","name":"医療法人社団翔和仁誠会　調布駅前クリニック耳鼻咽喉科","categoryId":"medical","categoryLabel":"医疗","lat":35.650544,"lng":139.543932,"stationId":"station-003966","note":"アレ　耳鼻咽喉科"},{"id":"medical-3-8991","name":"医療法人社団聖輝会　ローレル歯科医院","categoryId":"medical","categoryLabel":"医疗","lat":35.661397,"lng":139.540601,"stationId":"station-003937","note":"歯　歯外　小歯　矯"},{"id":"medical-2-7081","name":"医療法人社団英翔会　奥田医院","categoryId":"medical","categoryLabel":"医疗","lat":35.666,"lng":139.540556,"stationId":"station-003937","note":"内　循　消　呼　小　呼吸器内科　消化器内科　胃腸内科　循環器内科"},{"id":"medical-2-10534","name":"医療法人社団茗和会　そわ整形外科","categoryId":"medical","categoryLabel":"医疗","lat":35.653536,"lng":139.544378,"stationId":"station-003966","note":"整　リハ　リウ"},{"id":"medical-2-9283","name":"医療法人社団蒼流会　岡本内科クリニック","categoryId":"medical","categoryLabel":"医疗","lat":35.653991,"lng":139.544599,"stationId":"station-003966","note":"内　小　胃　消化器内科　胃腸内科"},{"id":"medical-3-9043","name":"医療法人社団誠勝会　まゆみ歯科医院","categoryId":"medical","categoryLabel":"医疗","lat":35.660373,"lng":139.522642,"stationId":"station-003916","note":"歯　小歯　歯外　矯"},{"id":"medical-2-9430","name":"医療法人社団調布眼科医院","categoryId":"medical","categoryLabel":"医疗","lat":35.650755,"lng":139.547779,"stationId":"station-003966","note":"眼"},{"id":"medical-2-7093","name":"医療法人社団遠信会　白糸台耳鼻咽喉科","categoryId":"medical","categoryLabel":"医疗","lat":35.663196,"lng":139.511724,"stationId":"station-003916","note":"耳"},{"id":"medical-2-9475","name":"医療法人社団鉄鈴会　調布ステーションクリニック","categoryId":"medical","categoryLabel":"医疗","lat":35.65389,"lng":139.542495,"stationId":"station-003966","note":"内　糖内　甲内　内内"},{"id":"medical-2-9078","name":"医療法人社団青山会　青木病院附属青明クリニック","categoryId":"medical","categoryLabel":"医疗","lat":35.650584,"lng":139.524695,"stationId":"station-003937","note":"精　内　心内"},{"id":"medical-3-6159","name":"医療法人社団ＥＶＩＤＥＮＳ　飛田給駅前歯科クリニック","categoryId":"medical","categoryLabel":"医疗","lat":35.660781,"lng":139.523718,"stationId":"station-003916","note":"歯　歯外　矯　小歯"},{"id":"medical-2-6242","name":"医療法人社団ＭＳＯ　中村医院","categoryId":"medical","categoryLabel":"医疗","lat":35.654032,"lng":139.528207,"stationId":"station-003937","note":"内　呼内　循内　小"},{"id":"medical-3-6263","name":"医療法人社団ＰＲＩＤＥ会　三笠こども歯科医院","categoryId":"medical","categoryLabel":"医疗","lat":35.653887,"lng":139.544477,"stationId":"station-003966","note":"歯　小歯"},{"id":"medical-3-6264","name":"医療法人社団ＰＲＩＤＥ会　三笠歯科医院","categoryId":"medical","categoryLabel":"医疗","lat":35.653991,"lng":139.544599,"stationId":"station-003966","note":"歯　小歯　歯外　矯"},{"id":"medical-3-6262","name":"医療法人社団ＰＲＩＤＥ会　吉井矯正歯科クリニック","categoryId":"medical","categoryLabel":"医疗","lat":35.653784,"lng":139.540903,"stationId":"station-003966","note":"歯　矯"},{"id":"medical-2-16349","name":"千葉耳鼻咽喉科クリニック","categoryId":"medical","categoryLabel":"医疗","lat":35.650467,"lng":139.543677,"stationId":"station-003966","note":"耳　気"},{"id":"medical-2-19029","name":"博愛医院","categoryId":"medical","categoryLabel":"医疗","lat":35.652992,"lng":139.545799,"stationId":"station-003966","note":"内　心内　精"},{"id":"medical-3-12459","name":"原歯科医院","categoryId":"medical","categoryLabel":"医疗","lat":35.654901,"lng":139.552086,"stationId":"station-003975","note":"歯　矯"},{"id":"medical-2-19412","name":"品田医院","categoryId":"medical","categoryLabel":"医疗","lat":35.66064,"lng":139.512373,"stationId":"station-003916","note":"内　小"},{"id":"medical-3-17709","name":"天神通り歯科","categoryId":"medical","categoryLabel":"医疗","lat":35.654649,"lng":139.545056,"stationId":"station-003966","note":"歯　矯"},{"id":"medical-2-4718","name":"安賀医院","categoryId":"medical","categoryLabel":"医疗","lat":35.656405,"lng":139.554,"stationId":"station-003975","note":"内　小"},{"id":"medical-3-11923","name":"宮前歯科医院","categoryId":"medical","categoryLabel":"医疗","lat":35.65281,"lng":139.540855,"stationId":"station-003966","note":"歯"},{"id":"medical-3-11943","name":"宮本デンタルクリニック調布","categoryId":"medical","categoryLabel":"医疗","lat":35.653341,"lng":139.546997,"stationId":"station-003966","note":"歯科　矯正歯科　小児歯科　歯科口腔外科"},{"id":"medical-2-14611","name":"小田切医院","categoryId":"medical","categoryLabel":"医疗","lat":35.650856,"lng":139.543042,"stationId":"station-003966","note":"内　小"},{"id":"medical-2-14610","name":"小田耳鼻咽喉科医院","categoryId":"medical","categoryLabel":"医疗","lat":35.656344,"lng":139.532549,"stationId":"station-003937","note":"耳"},{"id":"medical-3-14463","name":"小笠原歯科医院","categoryId":"medical","categoryLabel":"医疗","lat":35.653611,"lng":139.5432,"stationId":"station-003966","note":"歯"},{"id":"medical-2-13635","name":"山口内科クリニック","categoryId":"medical","categoryLabel":"医疗","lat":35.652674,"lng":139.533876,"stationId":"station-003937","note":"内　消　循　小　ア"},{"id":"medical-3-13703","name":"山田歯科医院","categoryId":"medical","categoryLabel":"医疗","lat":35.653321,"lng":139.542451,"stationId":"station-003966","note":"歯"},{"id":"medical-2-16399","name":"川野医院","categoryId":"medical","categoryLabel":"医疗","lat":35.656529,"lng":139.528648,"stationId":"station-003937","note":"内　小　循"},{"id":"medical-3-19512","name":"布田デンタルクリニック","categoryId":"medical","categoryLabel":"医疗","lat":35.650404,"lng":139.550665,"stationId":"station-003975","note":"歯　小歯　歯外　矯"},{"id":"medical-3-19705","name":"平田歯科医院","categoryId":"medical","categoryLabel":"医疗","lat":35.659881,"lng":139.507689,"stationId":"station-003916","note":"歯　小歯"},{"id":"medical-3-12536","name":"戸坂歯科医院","categoryId":"medical","categoryLabel":"医疗","lat":35.668368,"lng":139.537952,"stationId":"station-003937","note":"歯"},{"id":"medical-3-15704","name":"星野歯科","categoryId":"medical","categoryLabel":"医疗","lat":35.656494,"lng":139.526809,"stationId":"station-003937","note":"歯　小歯　矯"},{"id":"medical-3-15601","name":"杉本歯科医院","categoryId":"medical","categoryLabel":"医疗","lat":35.655468,"lng":139.538245,"stationId":"station-003966","note":"歯　小歯　歯外"},{"id":"medical-2-18204","name":"東京心臓協会クリニック","categoryId":"medical","categoryLabel":"医疗","lat":35.655992,"lng":139.547982,"stationId":"station-003966","note":"循内　内"},{"id":"medical-3-15286","name":"森の泉歯科医院","categoryId":"medical","categoryLabel":"医疗","lat":35.652105,"lng":139.544513,"stationId":"station-003966","note":"歯　矯　小歯"},{"id":"medical-3-15342","name":"森末歯科医院","categoryId":"medical","categoryLabel":"医疗","lat":35.660848,"lng":139.522858,"stationId":"station-003916","note":"歯　歯外　矯　小歯"},{"id":"medical-3-15330","name":"森田歯科クリニック","categoryId":"medical","categoryLabel":"医疗","lat":35.660239,"lng":139.543526,"stationId":"station-003966","note":"歯　小歯"},{"id":"medical-2-19556","name":"武蔵野台クリニック　内科・消化器内科","categoryId":"medical","categoryLabel":"医疗","lat":35.662059,"lng":139.513924,"stationId":"station-003916","note":"内科　消化器内科　胃腸内科　内視鏡内科　肝臓内科"},{"id":"medical-2-17262","name":"池田内科医院","categoryId":"medical","categoryLabel":"医疗","lat":35.654888,"lng":139.548835,"stationId":"station-003966","note":"内　小　胃"},{"id":"medical-2-11211","name":"河合クリニック","categoryId":"medical","categoryLabel":"医疗","lat":35.650919,"lng":139.542541,"stationId":"station-003966","note":"精　心内"},{"id":"medical-3-11206","name":"河越歯科医院","categoryId":"medical","categoryLabel":"医疗","lat":35.665171,"lng":139.512433,"stationId":"station-003916","note":"歯　小歯　歯外　矯"},{"id":"medical-2-18553","name":"特別養護老人ホーム　たちばなの園白糸台","categoryId":"medical","categoryLabel":"医疗","lat":35.66492,"lng":139.519575,"stationId":"station-003916","note":"内　外　皮　整　リハ"},{"id":"medical-2-18584","name":"特別養護老人ホーム　調布八雲苑医務室","categoryId":"medical","categoryLabel":"医疗","lat":35.653856,"lng":139.553653,"stationId":"station-003975","note":"内"},{"id":"medical-2-18651","name":"特別養護老人ホーム爽爽荘医務室","categoryId":"medical","categoryLabel":"医疗","lat":35.654294,"lng":139.521592,"stationId":"station-003916","note":"内"},{"id":"medical-3-17557","name":"町田デンタルクリニック","categoryId":"medical","categoryLabel":"医疗","lat":35.653414,"lng":139.542259,"stationId":"station-003966","note":"歯"},{"id":"medical-2-16592","name":"相澤皮フ科クリニック","categoryId":"medical","categoryLabel":"医疗","lat":35.652104,"lng":139.545035,"stationId":"station-003966","note":"皮"},{"id":"medical-3-16591","name":"相良歯科医院","categoryId":"medical","categoryLabel":"医疗","lat":35.656843,"lng":139.539699,"stationId":"station-003966","note":"歯"},{"id":"medical-3-20379","name":"矢野歯科医院","categoryId":"medical","categoryLabel":"医疗","lat":35.651928,"lng":139.549219,"stationId":"station-003975","note":"歯　矯"},{"id":"medical-2-14133","name":"社会福祉法人　多摩同胞会　あさひ苑医務室","categoryId":"medical","categoryLabel":"医疗","lat":35.667928,"lng":139.522674,"stationId":"station-003916","note":"内　精"},{"id":"medical-2-14161","name":"社会福祉法人桐仁会　特別養護老人ホームちょうふ花園　医務室","categoryId":"medical","categoryLabel":"医疗","lat":35.651709,"lng":139.533367,"stationId":"station-003937","note":"内　外"},{"id":"medical-2-14184","name":"社会福祉法人足立邦栄会　身体障害者療護施設みずき医務室","categoryId":"medical","categoryLabel":"医疗","lat":35.667511,"lng":139.522458,"stationId":"station-003916","note":"内"},{"id":"medical-3-14293","name":"秋田歯科医院","categoryId":"medical","categoryLabel":"医疗","lat":35.651634,"lng":139.550475,"stationId":"station-003975","note":"歯　小歯"},{"id":"medical-3-16472","name":"船田歯科医院","categoryId":"medical","categoryLabel":"医疗","lat":35.655172,"lng":139.541742,"stationId":"station-003966","note":"歯"},{"id":"medical-3-15839","name":"西山歯科医院","categoryId":"medical","categoryLabel":"医疗","lat":35.663546,"lng":139.536682,"stationId":"station-003937","note":"歯"},{"id":"medical-3-15924","name":"西調布ハーモニー歯科クリニック","categoryId":"medical","categoryLabel":"医疗","lat":35.654711,"lng":139.529493,"stationId":"station-003937","note":"歯　小歯　歯外　矯"},{"id":"medical-2-15926","name":"西調布整形外科","categoryId":"medical","categoryLabel":"医疗","lat":35.656642,"lng":139.530412,"stationId":"station-003937","note":"整外　リハ"},{"id":"medical-2-15925","name":"西調布眼科医院","categoryId":"medical","categoryLabel":"医疗","lat":35.657903,"lng":139.532704,"stationId":"station-003937","note":"眼"},{"id":"medical-2-17563","name":"調布えきまえ皮フ科","categoryId":"medical","categoryLabel":"医疗","lat":35.651531,"lng":139.54434,"stationId":"station-003966","note":"皮"},{"id":"medical-2-17564","name":"調布おなかと内科のクリニック","categoryId":"medical","categoryLabel":"医疗","lat":35.651773,"lng":139.546478,"stationId":"station-003966","note":"内　消内　鏡内　外"},{"id":"medical-2-17567","name":"調布はしもとクリニック","categoryId":"medical","categoryLabel":"医疗","lat":35.651995,"lng":139.545289,"stationId":"station-003966","note":"心内　精"},{"id":"medical-2-17568","name":"調布パルコ眼科","categoryId":"medical","categoryLabel":"医疗","lat":35.653076,"lng":139.543639,"stationId":"station-003966","note":"眼"},{"id":"medical-3-17569","name":"調布ファミーユ歯科","categoryId":"medical","categoryLabel":"医疗","lat":35.653005,"lng":139.546478,"stationId":"station-003966","note":"歯　小歯　矯　歯外"},{"id":"medical-2-17571","name":"調布レディースクリニック","categoryId":"medical","categoryLabel":"医疗","lat":35.655053,"lng":139.54174,"stationId":"station-003966","note":"産婦　内"},{"id":"medical-3-17565","name":"調布ヶ丘歯科医院","categoryId":"medical","categoryLabel":"医疗","lat":35.653807,"lng":139.551262,"stationId":"station-003975","note":"歯　小歯　矯"},{"id":"medical-2-17566","name":"調布ヶ丘耳鼻咽喉科医院","categoryId":"medical","categoryLabel":"医疗","lat":35.656278,"lng":139.548245,"stationId":"station-003966","note":"耳"},{"id":"medical-3-17579","name":"調布北口歯科医院","categoryId":"medical","categoryLabel":"医疗","lat":35.652104,"lng":139.545035,"stationId":"station-003966","note":"歯"},{"id":"medical-2-17573","name":"調布市保健センター","categoryId":"medical","categoryLabel":"医疗","lat":35.650989,"lng":139.541316,"stationId":"station-003966","note":"内　歯"},{"id":"medical-3-17577","name":"調布東口歯科","categoryId":"medical","categoryLabel":"医疗","lat":35.652222,"lng":139.54561,"stationId":"station-003966","note":"歯　小歯　矯　歯外"},{"id":"medical-2-17578","name":"調布福祉園","categoryId":"medical","categoryLabel":"医疗","lat":35.668886,"lng":139.530215,"stationId":"station-003916","note":"内　外　歯　精"},{"id":"medical-3-17576","name":"調布総合デンタルクリニック","categoryId":"medical","categoryLabel":"医疗","lat":35.65389,"lng":139.542495,"stationId":"station-003966","note":"歯　小歯　歯外"},{"id":"medical-2-17575","name":"調布診療所","categoryId":"medical","categoryLabel":"医疗","lat":35.653343,"lng":139.546328,"stationId":"station-003966","note":"内　整　リハ　リウ"},{"id":"medical-3-17562","name":"調布ＮＯＲＩ歯科クリニック","categoryId":"medical","categoryLabel":"医疗","lat":35.654578,"lng":139.540472,"stationId":"station-003966","note":"歯　小歯　矯　歯外"},{"id":"medical-2-12400","name":"警察共済組合警視庁診療所警察学校分室","categoryId":"medical","categoryLabel":"医疗","lat":35.668443,"lng":139.519533,"stationId":"station-003916","note":"内"},{"id":"medical-3-20273","name":"野原歯科医院","categoryId":"medical","categoryLabel":"医疗","lat":35.657603,"lng":139.535751,"stationId":"station-003937","note":"歯"},{"id":"medical-2-10802","name":"雨宮整形外科","categoryId":"medical","categoryLabel":"医疗","lat":35.65389,"lng":139.542495,"stationId":"station-003966","note":"整　リハ　リウ"},{"id":"medical-2-17887","name":"電気通信大学保健管理センター","categoryId":"medical","categoryLabel":"医疗","lat":35.65565,"lng":139.544207,"stationId":"station-003966","note":"内　精　心療内科"},{"id":"medical-2-19283","name":"飛田給プライマリクリニック","categoryId":"medical","categoryLabel":"医疗","lat":35.662066,"lng":139.521989,"stationId":"station-003916","note":"形成外科　内科　整形外科　皮膚科"},{"id":"medical-2-19284","name":"飛田給内科クリニック","categoryId":"medical","categoryLabel":"医疗","lat":35.661958,"lng":139.523445,"stationId":"station-003916","note":"内"},{"id":"medical-3-12934","name":"高橋歯科医院","categoryId":"medical","categoryLabel":"医疗","lat":35.667544,"lng":139.511881,"stationId":"station-003916","note":"歯"},{"id":"medical-3-12939","name":"高橋歯科医院","categoryId":"medical","categoryLabel":"医疗","lat":35.655232,"lng":139.53053,"stationId":"station-003937","note":"歯"},{"id":"medical-2-20051","name":"麻生こどもクリニック","categoryId":"medical","categoryLabel":"医疗","lat":35.655035,"lng":139.541731,"stationId":"station-003966","note":"小"},{"id":"public-13208-22619","name":"上石原ふれあいの家","categoryId":"public_service","categoryLabel":"公共服务","lat":35.656671,"lng":139.527144,"stationId":"station-003937","note":"調布市上石原2-8-3上石原保育園併設"},{"id":"public-13208-22601","name":"下布田ふれあいの家","categoryId":"public_service","categoryLabel":"公共服务","lat":35.653035,"lng":139.548164,"stationId":"station-003966","note":"調布市布田2-27-4下布田保育園併設"},{"id":"public-13206-22595","name":"地域包括支援センターあさひ苑","categoryId":"public_service","categoryLabel":"公共服务","lat":35.667898,"lng":139.522629,"stationId":"station-003916","note":"府中市朝日町3-17-1"},{"id":"public-13206-22596","name":"地域包括支援センターしみずがおか","categoryId":"public_service","categoryLabel":"公共服务","lat":35.659006,"lng":139.516251,"stationId":"station-003916","note":"府中市押立町2-26-23"},{"id":"public-13204-22579","name":"大沢コミュニティ・センター","categoryId":"public_service","categoryLabel":"公共服务","lat":35.668689,"lng":139.537242,"stationId":"station-003937","note":"三鷹市大沢4-25-30"},{"id":"public-13208-22602","name":"宮の下分館","categoryId":"public_service","categoryLabel":"公共服务","lat":35.651483,"lng":139.524667,"stationId":"station-003937","note":"調布市上石原3-34-10"},{"id":"public-13208-22638","name":"富士見分館","categoryId":"public_service","categoryLabel":"公共服务","lat":35.658454,"lng":139.539412,"stationId":"station-003966","note":"調布市富士見町2-3-26"},{"id":"public-13208-22641","name":"富士見地域福祉センター","categoryId":"public_service","categoryLabel":"公共服务","lat":35.663962,"lng":139.534744,"stationId":"station-003937","note":"調布市富士見町4-15-6"},{"id":"public-13208-22637","name":"富士見町ふれあいの家","categoryId":"public_service","categoryLabel":"公共服务","lat":35.662548,"lng":139.53757,"stationId":"station-003937","note":"調布市富士見町3-3-17"},{"id":"public-13206-22594","name":"押立文化センター","categoryId":"public_service","categoryLabel":"公共服务","lat":35.653694,"lng":139.517823,"stationId":"station-003916","note":"府中市押立町5-4"},{"id":"public-13208-22642","name":"文化会館たづくり","categoryId":"public_service","categoryLabel":"公共服务","lat":35.65098,"lng":139.541312,"stationId":"station-003966","note":"調布市小島町2-33-1"},{"id":"public-13208-22614","name":"総合福祉センター","categoryId":"public_service","categoryLabel":"公共服务","lat":35.651398,"lng":139.542757,"stationId":"station-003966","note":"調布市小島町2-47-1"},{"id":"public-13208-22622","name":"西部ふれあいの家","categoryId":"public_service","categoryLabel":"公共服务","lat":35.655921,"lng":139.521791,"stationId":"station-003916","note":"調布市飛田給3-53-1"},{"id":"public-13208-22617","name":"西部地域福祉センター","categoryId":"public_service","categoryLabel":"公共服务","lat":35.655608,"lng":139.525273,"stationId":"station-003937","note":"調布市上石原2-15-6"},{"id":"public-13208-22633","name":"調布ケ丘地域福祉センター","categoryId":"public_service","categoryLabel":"公共服务","lat":35.659838,"lng":139.550298,"stationId":"station-003966","note":"調布市調布ケ丘3-58-2"},{"id":"public-13208-22613","name":"調布市役所","categoryId":"public_service","categoryLabel":"公共服务","lat":35.650628,"lng":139.540686,"stationId":"station-003966","note":"調布市小島町2-35-1"},{"id":"public-13208-22628","name":"調布市青少年ステーションＣＡＰＳ","categoryId":"public_service","categoryLabel":"公共服务","lat":35.659576,"lng":139.532318,"stationId":"station-003937","note":"調布市上石原1-36-2ハヤシビル3・4Ｆ"},{"id":"public-13208-22623","name":"青少年交流館","categoryId":"public_service","categoryLabel":"公共服务","lat":35.661195,"lng":139.525577,"stationId":"station-003916","note":"調布市飛田給1-52-1"},{"id":"public-13208-22636","name":"飛田給ふれあいの家","categoryId":"public_service","categoryLabel":"公共服务","lat":35.663092,"lng":139.522722,"stationId":"station-003916","note":"調布市飛田給1-3-53"},{"id":"public-13206-22592","name":"押立体育館","categoryId":"sports","categoryLabel":"体育设施","lat":35.659564,"lng":139.511594,"stationId":"station-003916","note":"府中市押立町1-37"},{"id":"public-13208-22618","name":"西調布体育館","categoryId":"sports","categoryLabel":"体育设施","lat":35.657396,"lng":139.527729,"stationId":"station-003937","note":"調布市上石原2-4-1"}]
