[{"id":"medical-2-506","name":"あおぞら皮膚科","categoryId":"medical","categoryLabel":"医疗","lat":35.669774,"lng":139.600077,"stationId":"station-003861","note":"アレルギー科　皮膚科　小児皮膚科"},{"id":"medical-3-642","name":"あたか歯科医院","categoryId":"medical","categoryLabel":"医疗","lat":35.669597,"lng":139.600545,"stationId":"station-003861","note":"歯科"},{"id":"medical-2-692","name":"あべ内科消化器科クリニック","categoryId":"medical","categoryLabel":"医疗","lat":35.6702,"lng":139.615793,"stationId":"station-003836","note":"内科　消化器科　胃腸科"},{"id":"medical-3-797","name":"いいじま歯科医院","categoryId":"medical","categoryLabel":"医疗","lat":35.669188,"lng":139.623813,"stationId":"station-003849","note":"歯科　矯正歯科　小児歯科　歯科口腔外科"},{"id":"medical-2-866","name":"いしばし整形外科給田診療所","categoryId":"medical","categoryLabel":"医疗","lat":35.667707,"lng":139.595145,"stationId":"station-003861","note":"整形外科　リハビリテーション科　内科"},{"id":"medical-3-1014","name":"うえまつ歯科","categoryId":"medical","categoryLabel":"医疗","lat":35.66961,"lng":139.618735,"stationId":"station-003836","note":"歯科　矯正歯科　小児歯科　歯科口腔外科"},{"id":"medical-3-1066","name":"うらの歯科","categoryId":"medical","categoryLabel":"医疗","lat":35.66809,"lng":139.600586,"stationId":"station-003861","note":"歯科　矯正歯科　小児歯科　歯科口腔外科"},{"id":"medical-3-1116","name":"えのき歯科クリニック","categoryId":"medical","categoryLabel":"医疗","lat":35.658093,"lng":139.603141,"stationId":"station-003861","note":"歯科　矯正歯科　小児歯科　歯科口腔外科"},{"id":"medical-2-1298","name":"おくだ皮膚科クリニック","categoryId":"medical","categoryLabel":"医疗","lat":35.665518,"lng":139.601395,"stationId":"station-003861","note":"皮膚科"},{"id":"medical-2-1358","name":"おむすび小児科クリニック","categoryId":"medical","categoryLabel":"医疗","lat":35.656267,"lng":139.620361,"stationId":"station-003988","note":"小児科　心療内科　精神科"},{"id":"medical-2-1501","name":"かねみつ小児クリニック","categoryId":"medical","categoryLabel":"医疗","lat":35.669989,"lng":139.602678,"stationId":"station-003861","note":"小児科"},{"id":"medical-2-1535","name":"からすやま小児科","categoryId":"medical","categoryLabel":"医疗","lat":35.668302,"lng":139.598078,"stationId":"station-003861","note":"小児科"},{"id":"medical-2-1782","name":"けいこクリニック","categoryId":"medical","categoryLabel":"医疗","lat":35.67136,"lng":139.615946,"stationId":"station-003836","note":"小児科　アレルギー科"},{"id":"medical-2-1865","name":"こころのホームクリニック世田谷","categoryId":"medical","categoryLabel":"医疗","lat":35.672526,"lng":139.600306,"stationId":"station-003861","note":"精神科　心療内科　内科"},{"id":"medical-2-2272","name":"しまだクリニック","categoryId":"medical","categoryLabel":"医疗","lat":35.670619,"lng":139.598153,"stationId":"station-003861","note":"内科　小児科　外科"},{"id":"medical-3-2409","name":"すずき歯科クリニック","categoryId":"medical","categoryLabel":"医疗","lat":35.666452,"lng":139.603374,"stationId":"station-003861","note":"歯科"},{"id":"medical-3-2588","name":"たかし矯正歯科クリニック","categoryId":"medical","categoryLabel":"医疗","lat":35.667909,"lng":139.602205,"stationId":"station-003861","note":"矯正歯科"},{"id":"medical-2-2627","name":"たかはし小児科クリニック","categoryId":"medical","categoryLabel":"医疗","lat":35.674866,"lng":139.608412,"stationId":"station-003832","note":"小児科"},{"id":"medical-2-2741","name":"たむらメンタルクリニック","categoryId":"medical","categoryLabel":"医疗","lat":35.667106,"lng":139.602083,"stationId":"station-003861","note":"精神科　心療内科"},{"id":"medical-2-2774","name":"ちとせ台内科クリニック","categoryId":"medical","categoryLabel":"医疗","lat":35.656805,"lng":139.609642,"stationId":"station-003861","note":"内科　胃腸科"},{"id":"medical-2-2792","name":"つかもと整形外科醫院","categoryId":"medical","categoryLabel":"医疗","lat":35.650656,"lng":139.608631,"stationId":"station-004024","note":"整形外科　リウマチ科　リハビリテーション科"},{"id":"medical-2-3057","name":"どんぐり発達クリニック","categoryId":"medical","categoryLabel":"医疗","lat":35.670288,"lng":139.600607,"stationId":"station-003861","note":"小児神経内科　児童精神科　リハビリテーション科"},{"id":"medical-3-3128","name":"なかむら歯科クリニック","categoryId":"medical","categoryLabel":"医疗","lat":35.667418,"lng":139.598744,"stationId":"station-003861","note":"歯科"},{"id":"medical-2-3159","name":"なでしこ耳鼻咽喉科","categoryId":"medical","categoryLabel":"医疗","lat":35.656805,"lng":139.609642,"stationId":"station-003861","note":"耳鼻いんこう科"},{"id":"medical-2-3216","name":"にしやまこどもクリニック","categoryId":"medical","categoryLabel":"医疗","lat":35.652346,"lng":139.596591,"stationId":"station-004036","note":"小児科　アレルギー科"},{"id":"medical-2-3368","name":"はたのクリニック","categoryId":"medical","categoryLabel":"医疗","lat":35.660258,"lng":139.620631,"stationId":"station-003849","note":"耳鼻いんこう科　小児耳鼻いんこう科　外科　内科"},{"id":"medical-3-3373","name":"はちまん山グリーン歯科","categoryId":"medical","categoryLabel":"医疗","lat":35.669508,"lng":139.616233,"stationId":"station-003836","note":"歯科　矯正歯科　小児歯科　歯科口腔外科"},{"id":"medical-2-3432","name":"はらだ眼科","categoryId":"medical","categoryLabel":"医疗","lat":35.670619,"lng":139.598153,"stationId":"station-003861","note":"眼科"},{"id":"medical-3-3505","name":"ひさなが歯科","categoryId":"medical","categoryLabel":"医疗","lat":35.668588,"lng":139.616834,"stationId":"station-003836","note":"歯科　小児歯科　歯科口腔外科　矯正歯科"},{"id":"medical-3-3551","name":"ひまわり歯科クリニック","categoryId":"medical","categoryLabel":"医疗","lat":35.655315,"lng":139.623301,"stationId":"station-003988","note":"矯正歯科　小児歯科"},{"id":"medical-2-3562","name":"ひらくクリニック","categoryId":"medical","categoryLabel":"医疗","lat":35.656494,"lng":139.590325,"stationId":"station-003903","note":"内科　腎臓内科　透析外科　糖尿病内科　人工透析内科"},{"id":"medical-2-3809","name":"ほった小児科クリニック","categoryId":"medical","categoryLabel":"医疗","lat":35.656805,"lng":139.609642,"stationId":"station-003861","note":"小児科　アレルギー科"},{"id":"medical-3-3967","name":"まるかわ歯科医院","categoryId":"medical","categoryLabel":"医疗","lat":35.668468,"lng":139.599725,"stationId":"station-003861","note":"歯科"},{"id":"medical-2-4010","name":"みずき皮膚科","categoryId":"medical","categoryLabel":"医疗","lat":35.668525,"lng":139.600253,"stationId":"station-003861","note":"皮膚科　アレルギー科"},{"id":"medical-3-4059","name":"みなと歯科医院","categoryId":"medical","categoryLabel":"医疗","lat":35.671499,"lng":139.605816,"stationId":"station-003832","note":"歯科　矯正歯科　小児歯科　歯科口腔外科"},{"id":"medical-3-4452","name":"よしの歯科","categoryId":"medical","categoryLabel":"医疗","lat":35.670608,"lng":139.616079,"stationId":"station-003836","note":"歯科　小児歯科"},{"id":"medical-3-4474","name":"よだ歯科医院","categoryId":"medical","categoryLabel":"医疗","lat":35.670619,"lng":139.598153,"stationId":"station-003861","note":"歯科　矯正歯科　小児歯科　歯科口腔外科"},{"id":"medical-3-1653","name":"クスノキ歯科","categoryId":"medical","categoryLabel":"医疗","lat":35.668233,"lng":139.600773,"stationId":"station-003861","note":"歯科"},{"id":"medical-3-1762","name":"クローバー歯科クリニック","categoryId":"medical","categoryLabel":"医疗","lat":35.660573,"lng":139.608393,"stationId":"station-003861","note":"歯科　矯正歯科　小児歯科　歯科口腔外科"},{"id":"medical-3-2580","name":"タカギ歯科","categoryId":"medical","categoryLabel":"医疗","lat":35.658615,"lng":139.623842,"stationId":"station-003849","note":"歯科"},{"id":"medical-3-3171","name":"ナリタデンタルクリニック","categoryId":"medical","categoryLabel":"医疗","lat":35.668967,"lng":139.623747,"stationId":"station-003849","note":"歯科　小児歯科"},{"id":"medical-3-3626","name":"ファミリエデンタルクリニック","categoryId":"medical","categoryLabel":"医疗","lat":35.659054,"lng":139.599692,"stationId":"station-003861","note":"歯科　小児歯科"},{"id":"medical-2-3723","name":"フラテ痛みのクリニック","categoryId":"medical","categoryLabel":"医疗","lat":35.67038,"lng":139.615565,"stationId":"station-003836","note":"内科　麻酔科　ペインクリニック内科"},{"id":"medical-3-3930","name":"マツムラトシオ歯科","categoryId":"medical","categoryLabel":"医疗","lat":35.66801,"lng":139.600352,"stationId":"station-003861","note":"歯科　矯正歯科　小児歯科　歯科口腔外科　外科"},{"id":"medical-2-4448","name":"ヨシダ消化器内科クリニック","categoryId":"medical","categoryLabel":"医疗","lat":35.667849,"lng":139.599814,"stationId":"station-003861","note":"内科　消化器科"},{"id":"medical-2-10732","name":"一般社団法人　循整会　世田谷人工関節・脊椎クリニック","categoryId":"medical","categoryLabel":"医疗","lat":35.671591,"lng":139.59872,"stationId":"station-003861","note":"整形外科　リハビリテーション科　循環器内科　放射線診断科"},{"id":"medical-1-10731","name":"一般社団法人　至誠会　第二病院","categoryId":"medical","categoryLabel":"医疗","lat":35.656336,"lng":139.591656,"stationId":"station-003903","note":"内科　呼吸器内科　循環器内科　消化器内科　神経内科　糖尿病内科　皮膚科　小児科　外科　泌尿器科　脳神経外科　整形外科　耳鼻いんこう科　産婦人科　放射線科　麻酔科　眼科"},{"id":"medical-2-14993","name":"上北沢内科小児科医院","categoryId":"medical","categoryLabel":"医疗","lat":35.669316,"lng":139.622556,"stationId":"station-003849","note":"内科　小児科"},{"id":"medical-2-14992","name":"上北沢耳鼻咽喉科","categoryId":"medical","categoryLabel":"医疗","lat":35.667296,"lng":139.62361,"stationId":"station-003849","note":"アレルギー科　小児科　耳鼻咽喉科"},{"id":"medical-2-14962","name":"上祖師谷かたらいクリニック","categoryId":"medical","categoryLabel":"医疗","lat":35.658253,"lng":139.597257,"stationId":"station-003861","note":"内科　循環器内科"},{"id":"medical-2-14963","name":"上祖師谷クリニック","categoryId":"medical","categoryLabel":"医疗","lat":35.658568,"lng":139.593872,"stationId":"station-003903","note":"小児科"},{"id":"medical-2-14964","name":"上祖師谷眼科","categoryId":"medical","categoryLabel":"医疗","lat":35.659648,"lng":139.592207,"stationId":"station-003903","note":"眼科"},{"id":"medical-2-14941","name":"上高井戸皮フ科","categoryId":"medical","categoryLabel":"医疗","lat":35.670608,"lng":139.616079,"stationId":"station-003836","note":"皮膚科"},{"id":"medical-2-15616","name":"世田谷めぐりさわファミリークリニック","categoryId":"medical","categoryLabel":"医疗","lat":35.651824,"lng":139.613647,"stationId":"station-004024","note":"内科　小児科　耳鼻咽喉科"},{"id":"medical-2-15624","name":"世田谷区医師会付属烏山診療所","categoryId":"medical","categoryLabel":"医疗","lat":35.669778,"lng":139.597965,"stationId":"station-003861","note":"内科　小児科"},{"id":"medical-2-15631","name":"世田谷区立烏山保健福祉センター","categoryId":"medical","categoryLabel":"医疗","lat":35.669778,"lng":139.597965,"stationId":"station-003861","note":"内科　精神科　小児科　放射線科　歯科"},{"id":"medical-2-15636","name":"世田谷区立特別養護老人ホーム芦花ホーム医務室","categoryId":"medical","categoryLabel":"医疗","lat":35.665986,"lng":139.609809,"stationId":"station-003832","note":"内科　外科"},{"id":"medical-3-15637","name":"世田谷区立特別養護老人ホーム芦花ホーム歯科医務室","categoryId":"medical","categoryLabel":"医疗","lat":35.665986,"lng":139.609809,"stationId":"station-003832","note":"歯科"},{"id":"medical-2-15621","name":"世田谷希望丘ホーム　医務室","categoryId":"medical","categoryLabel":"医疗","lat":35.659309,"lng":139.621663,"stationId":"station-003849","note":"内科"},{"id":"medical-3-11877","name":"久保田デンタルクリニック","categoryId":"medical","categoryLabel":"医疗","lat":35.669534,"lng":139.609747,"stationId":"station-003832","note":null},{"id":"medical-3-12635","name":"交番通り歯科","categoryId":"medical","categoryLabel":"医疗","lat":35.670147,"lng":139.600285,"stationId":"station-003861","note":"歯科　矯正歯科　小児歯科　歯科口腔外科　内科　心療内科"},{"id":"medical-3-13141","name":"今井歯科医院","categoryId":"medical","categoryLabel":"医疗","lat":35.657711,"lng":139.620735,"stationId":"station-003988","note":"歯科"},{"id":"medical-3-13229","name":"佐藤歯科クリニック","categoryId":"medical","categoryLabel":"医疗","lat":35.669933,"lng":139.599096,"stationId":"station-003861","note":"歯科　矯正歯科　小児歯科　歯科口腔外科"},{"id":"medical-3-16545","name":"倉本歯科医院","categoryId":"medical","categoryLabel":"医疗","lat":35.665297,"lng":139.60339,"stationId":"station-003861","note":"一般歯科　小児歯科　歯科口腔外科　審美歯科"},{"id":"medical-3-19138","name":"八幡山ステーション歯科","categoryId":"medical","categoryLabel":"医疗","lat":35.669978,"lng":139.616115,"stationId":"station-003836","note":"歯科　小児歯科　矯正歯科　歯科口腔外科"},{"id":"medical-3-19139","name":"八幡山ユリノキクリニック歯科","categoryId":"medical","categoryLabel":"医疗","lat":35.671898,"lng":139.612603,"stationId":"station-003836","note":"歯科　歯科口腔外科"},{"id":"medical-2-19142","name":"八幡山皮ふ科","categoryId":"medical","categoryLabel":"医疗","lat":35.668588,"lng":139.616834,"stationId":"station-003836","note":"皮膚科　漢方皮膚科　美容皮膚科　内科　漢方内科"},{"id":"medical-3-19143","name":"八幡山米山歯科","categoryId":"medical","categoryLabel":"医疗","lat":35.670353,"lng":139.6163,"stationId":"station-003836","note":"歯科　小児歯科　矯正歯科　歯科口腔外科"},{"id":"medical-2-19141","name":"八幡山診療所","categoryId":"medical","categoryLabel":"医疗","lat":35.669534,"lng":139.615787,"stationId":"station-003836","note":"内科　小児科"},{"id":"medical-2-19140","name":"八幡山駅前眼科","categoryId":"medical","categoryLabel":"医疗","lat":35.670216,"lng":139.616214,"stationId":"station-003836","note":"眼科"},{"id":"medical-3-19137","name":"八幡山Ｋデンタルクリニック","categoryId":"medical","categoryLabel":"医疗","lat":35.670431,"lng":139.616278,"stationId":"station-003836","note":"歯科　小児歯科　歯科口腔外科"},{"id":"medical-2-5155","name":"医療法人社団　はなまる会　千歳台はなクリニック","categoryId":"medical","categoryLabel":"医疗","lat":35.657875,"lng":139.611816,"stationId":"station-003836","note":"内科　呼吸器内科　循環器内科　アレルギー科　精神科　眼科"},{"id":"medical-1-6081","name":"医療法人社団　緑眞会　世田谷北部病院","categoryId":"medical","categoryLabel":"医疗","lat":35.666737,"lng":139.606516,"stationId":"station-003832","note":"内科　外科　整形外科　眼科　泌尿器科　リハビリ科　麻酔科　形成外科　皮膚科　消化器内科"},{"id":"medical-3-5087","name":"医療法人社団　ＴＨＡＮＫＳ　ｆｏｒ　ＳＭＩＬＩＮＧ　烏山通り歯科","categoryId":"medical","categoryLabel":"医疗","lat":35.673217,"lng":139.593798,"stationId":"station-003861","note":"歯科　歯科口腔外科"},{"id":"medical-3-6396","name":"医療法人社団うつみ歯科　八幡山うつみ歯科","categoryId":"medical","categoryLabel":"医疗","lat":35.671873,"lng":139.615705,"stationId":"station-003836","note":"歯科"},{"id":"medical-2-6669","name":"医療法人社団はなまる会烏山はなクリニック","categoryId":"medical","categoryLabel":"医疗","lat":35.668302,"lng":139.598078,"stationId":"station-003861","note":"内科　呼吸器内科　アレルギー科　呼吸器外科　泌尿器科　皮膚科"},{"id":"medical-3-6680","name":"医療法人社団ひさの矯正歯科","categoryId":"medical","categoryLabel":"医疗","lat":35.666664,"lng":139.602938,"stationId":"station-003861","note":"矯正歯科"},{"id":"medical-2-6828","name":"医療法人社団ゆうわ会ゆみこクリニック","categoryId":"medical","categoryLabel":"医疗","lat":35.667462,"lng":139.602592,"stationId":"station-003861","note":"産科　婦人科　歯科　歯科口腔外科　小児歯科"},{"id":"medical-2-6659","name":"医療法人社団ハーモニー祖師谷ハーモニー皮膚科","categoryId":"medical","categoryLabel":"医疗","lat":35.650656,"lng":139.608631,"stationId":"station-004024","note":"皮膚科　アレルギー科"},{"id":"medical-2-6850","name":"医療法人社団リバイブ吉野クリニック","categoryId":"medical","categoryLabel":"医疗","lat":35.66635,"lng":139.603748,"stationId":"station-003861","note":"内科　呼吸器科　循環器科　アレルギー科　皮膚科"},{"id":"medical-3-8056","name":"医療法人社団三澤歯科医院","categoryId":"medical","categoryLabel":"医疗","lat":35.666874,"lng":139.602485,"stationId":"station-003861","note":"歯科"},{"id":"medical-2-7110","name":"医療法人社団下田緑眞会　千歳烏山アクアクリニック","categoryId":"medical","categoryLabel":"医疗","lat":35.672269,"lng":139.59513,"stationId":"station-003861","note":"泌尿器科　内科　眼科"},{"id":"medical-2-8828","name":"医療法人社団世田谷おがたブレストクリニック","categoryId":"medical","categoryLabel":"医疗","lat":35.666523,"lng":139.601377,"stationId":"station-003861","note":"内科　外科　乳腺外科"},{"id":"medical-3-8821","name":"医療法人社団世航会アールケー世田谷デンタルオフィス","categoryId":"medical","categoryLabel":"医疗","lat":35.65579,"lng":139.609746,"stationId":"station-004024","note":"歯科　矯正歯科　小児歯科　歯科口腔外科"},{"id":"medical-3-8823","name":"医療法人社団世航会世田谷デンタルオフィス","categoryId":"medical","categoryLabel":"医疗","lat":35.65566,"lng":139.609791,"stationId":"station-004024","note":"歯科　矯正歯科　小児歯科　歯科口腔外科"},{"id":"medical-3-8824","name":"医療法人社団世航会世田谷デンタルオフィス千歳烏山","categoryId":"medical","categoryLabel":"医疗","lat":35.66731,"lng":139.601122,"stationId":"station-003861","note":"歯科　矯正歯科　小児歯科　歯科口腔外科"},{"id":"medical-2-7578","name":"医療法人社団健優会三宅小児科","categoryId":"medical","categoryLabel":"医疗","lat":35.669387,"lng":139.621852,"stationId":"station-003849","note":"小児科　アレルギー科"},{"id":"medical-3-10106","name":"医療法人社団優心会えばた歯科医院","categoryId":"medical","categoryLabel":"医疗","lat":35.664705,"lng":139.603265,"stationId":"station-003861","note":"歯科　矯正歯科　小児歯科　歯科口腔外科"},{"id":"medical-3-10096","name":"医療法人社団優恒会松村歯科医院","categoryId":"medical","categoryLabel":"医疗","lat":35.669274,"lng":139.60091,"stationId":"station-003861","note":"歯科　矯正歯科　小児歯科　歯科口腔外科"},{"id":"medical-2-6939","name":"医療法人社団医真会世田谷ホームケアクリニック","categoryId":"medical","categoryLabel":"医疗","lat":35.667868,"lng":139.609246,"stationId":"station-003832","note":"内科　外科　ひ尿科"},{"id":"medical-2-7348","name":"医療法人社団啓神会　Ｍ再生クリニック","categoryId":"medical","categoryLabel":"医疗","lat":35.672452,"lng":139.623389,"stationId":"station-003849","note":"内科　美容外科　美容皮膚科　腫瘍内科"},{"id":"medical-2-7096","name":"医療法人社団塩島内科医院","categoryId":"medical","categoryLabel":"医疗","lat":35.664484,"lng":139.604001,"stationId":"station-003861","note":"内科　小児科"},{"id":"medical-2-9332","name":"医療法人社団大空会元谷整形外科","categoryId":"medical","categoryLabel":"医疗","lat":35.669398,"lng":139.623918,"stationId":"station-003849","note":"整形外科　理学診療科"},{"id":"medical-2-9326","name":"医療法人社団大賀会　木暮クリニック","categoryId":"medical","categoryLabel":"医疗","lat":35.669926,"lng":139.624973,"stationId":"station-003849","note":"内科　アレルギー科　消化器科　循環器科"},{"id":"medical-2-9482","name":"医療法人社団天晴会八幡山ハートクリニック","categoryId":"medical","categoryLabel":"医疗","lat":35.659903,"lng":139.619229,"stationId":"station-003849","note":"内科　循環器内科"},{"id":"medical-2-8443","name":"医療法人社団小島整形外科医院","categoryId":"medical","categoryLabel":"医疗","lat":35.669597,"lng":139.600545,"stationId":"station-003861","note":"整形外科　内科"},{"id":"medical-2-7779","name":"医療法人社団広田内科クリニック","categoryId":"medical","categoryLabel":"医疗","lat":35.666922,"lng":139.602159,"stationId":"station-003861","note":"内科　心療内科　循環器科"},{"id":"medical-3-7384","name":"医療法人社団恵正会浜岡歯科クリニック","categoryId":"medical","categoryLabel":"医疗","lat":35.670803,"lng":139.597422,"stationId":"station-003861","note":"歯科　予防歯科　審美歯科　小児歯科　矯正歯科"},{"id":"medical-2-8844","name":"医療法人社団成瀬医院","categoryId":"medical","categoryLabel":"医疗","lat":35.674537,"lng":139.604037,"stationId":"station-003832","note":"内科　循環器科　小児科"},{"id":"medical-3-9893","name":"医療法人社団朋純会くりた歯科医院","categoryId":"medical","categoryLabel":"医疗","lat":35.670903,"lng":139.597786,"stationId":"station-003861","note":"歯科　矯正歯科　小児歯科"},{"id":"medical-2-10369","name":"医療法人社団林悟会　りんごクリニック","categoryId":"medical","categoryLabel":"医疗","lat":35.670571,"lng":139.615745,"stationId":"station-003836","note":"内科"},{"id":"medical-2-10463","name":"医療法人社団檜会大槻クリニック","categoryId":"medical","categoryLabel":"医疗","lat":35.657711,"lng":139.620735,"stationId":"station-003988","note":"内科"},{"id":"medical-2-7038","name":"医療法人社団永康会　千歳烏山腎クリニック","categoryId":"medical","categoryLabel":"医疗","lat":35.670619,"lng":139.598153,"stationId":"station-003861","note":"人工透析内科"},{"id":"medical-3-7029","name":"医療法人社団永研会こまい歯科","categoryId":"medical","categoryLabel":"医疗","lat":35.666922,"lng":139.602159,"stationId":"station-003861","note":"歯科　矯正歯科　小児歯科　歯科口腔外科"},{"id":"medical-2-7030","name":"医療法人社団永研会ちとせクリニック","categoryId":"medical","categoryLabel":"医疗","lat":35.669865,"lng":139.602002,"stationId":"station-003861","note":"内科　皮膚科　精神科　外科　整形外科　眼科"},{"id":"medical-3-7031","name":"医療法人社団永研会ちとせデンタルクリニック","categoryId":"medical","categoryLabel":"医疗","lat":35.669865,"lng":139.602002,"stationId":"station-003861","note":"歯科"},{"id":"medical-2-7032","name":"医療法人社団永研会ファミリークリニック千歳烏山","categoryId":"medical","categoryLabel":"医疗","lat":35.666922,"lng":139.602159,"stationId":"station-003861","note":"内科　整形外科　皮膚科"},{"id":"medical-2-8925","name":"医療法人社団清孝会　田村クリニック","categoryId":"medical","categoryLabel":"医疗","lat":35.662933,"lng":139.603913,"stationId":"station-003861","note":"内科　外科　胃腸　消化器内科　肛門内科　皮膚科"},{"id":"medical-3-8648","name":"医療法人社団真なみ会　ゆう歯科医院","categoryId":"medical","categoryLabel":"医疗","lat":35.652762,"lng":139.591451,"stationId":"station-003903","note":"歯　小歯　矯　歯外"},{"id":"medical-2-9111","name":"医療法人社団石戸谷耳鼻咽喉科","categoryId":"medical","categoryLabel":"医疗","lat":35.668525,"lng":139.600253,"stationId":"station-003861","note":"耳鼻咽喉科　小児耳鼻咽喉科　アレルギー科"},{"id":"medical-2-9858","name":"医療法人社団碧仁会　さくら内科クリニック","categoryId":"medical","categoryLabel":"医疗","lat":35.650656,"lng":139.608631,"stationId":"station-004024","note":"内科　循環器内科　呼吸器内科　アレルギー科"},{"id":"medical-2-9836","name":"医療法人社団福地会福地眼科","categoryId":"medical","categoryLabel":"医疗","lat":35.666972,"lng":139.624418,"stationId":"station-003849","note":"眼科"},{"id":"medical-3-7198","name":"医療法人社団紀和会山西歯科医院","categoryId":"medical","categoryLabel":"医疗","lat":35.669989,"lng":139.602678,"stationId":"station-003861","note":"歯科　矯正歯科　小児歯科"},{"id":"medical-3-9776","name":"医療法人社団美博会世田谷今井歯科医院","categoryId":"medical","categoryLabel":"医疗","lat":35.672526,"lng":139.600306,"stationId":"station-003861","note":"歯科　矯正歯科　小児歯科"},{"id":"medical-2-8985","name":"医療法人社団聖ベネディクト会一生堂クリニック","categoryId":"medical","categoryLabel":"医疗","lat":35.656739,"lng":139.590498,"stationId":"station-003903","note":"内科"},{"id":"medical-2-7062","name":"医療法人社団英久会野崎医院","categoryId":"medical","categoryLabel":"医疗","lat":35.65408,"lng":139.612216,"stationId":"station-004024","note":"内科　整形外科　胃腸科　外科"},{"id":"medical-2-9639","name":"医療法人社団虹の会世田谷千歳クリニック","categoryId":"medical","categoryLabel":"医疗","lat":35.658602,"lng":139.60899,"stationId":"station-003861","note":"内科　呼吸器内科　循環器内科　消化器内科　胃腸内科"},{"id":"medical-2-8689","name":"医療法人社団親樹会恵泉クリニック","categoryId":"medical","categoryLabel":"医疗","lat":35.666181,"lng":139.599983,"stationId":"station-003861","note":"内科　循環器科　整形外科　リウマチ科"},{"id":"medical-2-8690","name":"医療法人社団親樹会恵泉第二クリニック","categoryId":"medical","categoryLabel":"医疗","lat":35.669466,"lng":139.600853,"stationId":"station-003861","note":"内科　呼吸器科　耳鼻いんこう科"},{"id":"medical-2-10253","name":"医療法人社団陽真会たかさごクリニック","categoryId":"medical","categoryLabel":"医疗","lat":35.67166,"lng":139.618044,"stationId":"station-003836","note":"内科　整形外科　皮膚科　外科"},{"id":"medical-2-7923","name":"医療法人社団高医会高橋内科医院","categoryId":"medical","categoryLabel":"医疗","lat":35.669558,"lng":139.60876,"stationId":"station-003832","note":"内科　呼吸器内科　循環器内科　消化器内科"},{"id":"medical-3-6234","name":"医療法人社団ＭＩＣ南烏山ＩＳ歯科クリニック","categoryId":"medical","categoryLabel":"医疗","lat":35.667539,"lng":139.6001,"stationId":"station-003861","note":"歯科　矯正歯科　小児歯科　歯科口腔外科"},{"id":"medical-2-16297","name":"千歳台きたのクリニック","categoryId":"medical","categoryLabel":"医疗","lat":35.656231,"lng":139.609593,"stationId":"station-004024","note":"外科　小児外科　形成外科　皮膚科"},{"id":"medical-3-16292","name":"千歳烏山やの歯科","categoryId":"medical","categoryLabel":"医疗","lat":35.66019,"lng":139.602888,"stationId":"station-003861","note":"歯科口腔外科　小児歯科　矯正歯科　歯科"},{"id":"medical-2-16291","name":"千歳烏山メンタルクリニック","categoryId":"medical","categoryLabel":"医疗","lat":35.66881,"lng":139.599947,"stationId":"station-003861","note":"精神科　心療内科"},{"id":"medical-3-16293","name":"千歳烏山歯科医院","categoryId":"medical","categoryLabel":"医疗","lat":35.667303,"lng":139.601941,"stationId":"station-003861","note":"歯科　矯正歯科　小児歯科"},{"id":"medical-2-18751","name":"南烏山クリニック","categoryId":"medical","categoryLabel":"医疗","lat":35.668704,"lng":139.599525,"stationId":"station-003861","note":"内科　外科　胃腸　整形　麻酔科"},{"id":"medical-2-12474","name":"原田クリニック","categoryId":"medical","categoryLabel":"医疗","lat":35.670608,"lng":139.616079,"stationId":"station-003836","note":"内科　小児科　アレルギー科"},{"id":"medical-2-12519","name":"古谷医院","categoryId":"medical","categoryLabel":"医疗","lat":35.669466,"lng":139.600853,"stationId":"station-003861","note":"内科　小児科　皮膚科"},{"id":"medical-2-11832","name":"吉澤内科ハートクリニック","categoryId":"medical","categoryLabel":"医疗","lat":35.650463,"lng":139.615021,"stationId":"station-003988","note":"内科　循環器内科"},{"id":"medical-3-17994","name":"土方歯科医院","categoryId":"medical","categoryLabel":"医疗","lat":35.672989,"lng":139.616182,"stationId":"station-003836","note":"歯科 小児歯科　歯科口腔外科"},{"id":"medical-2-17174","name":"地域密着型特別養護老人ホーム寿満ホームかみきたざわ医務室","categoryId":"medical","categoryLabel":"医疗","lat":35.664041,"lng":139.623275,"stationId":"station-003849","note":"内科"},{"id":"medical-2-16798","name":"大賀内科クリニック","categoryId":"medical","categoryLabel":"医疗","lat":35.656458,"lng":139.597729,"stationId":"station-003861","note":"内科　呼吸器科　小児科　胃腸科"},{"id":"medical-3-17078","name":"大野歯科医院","categoryId":"medical","categoryLabel":"医疗","lat":35.671708,"lng":139.616588,"stationId":"station-003836","note":"歯科"},{"id":"medical-2-17704","name":"天下堂医院","categoryId":"medical","categoryLabel":"医疗","lat":35.669182,"lng":139.609367,"stationId":"station-003832","note":"内科　性病科　精神科　消化器科　皮膚科　肛門科　胃腸科　外科　ひ尿科　耳鼻いんこう科　放射線科　リハビリテーション科　アレルギー科"},{"id":"medical-3-17705","name":"天下堂歯科医院","categoryId":"medical","categoryLabel":"医疗","lat":35.669182,"lng":139.609367,"stationId":"station-003832","note":"歯科"},{"id":"medical-2-13804","name":"子どもと家族のメンタルクリニックやまねこ","categoryId":"medical","categoryLabel":"医疗","lat":35.670816,"lng":139.601689,"stationId":"station-003861","note":"児童精神科　精神科　小児科"},{"id":"medical-2-4737","name":"安藤アイクリニック","categoryId":"medical","categoryLabel":"医疗","lat":35.650656,"lng":139.608631,"stationId":"station-004024","note":"眼科"},{"id":"medical-3-13934","name":"寺西歯科医院","categoryId":"medical","categoryLabel":"医疗","lat":35.672921,"lng":139.624529,"stationId":"station-003849","note":"歯科"},{"id":"medical-2-14669","name":"小林クリニック","categoryId":"medical","categoryLabel":"医疗","lat":35.671645,"lng":139.613177,"stationId":"station-003836","note":"内科　皮膚科　理学診療科"},{"id":"medical-2-13608","name":"山形医院","categoryId":"medical","categoryLabel":"医疗","lat":35.670299,"lng":139.61461,"stationId":"station-003836","note":"内科　外科　整形外科　皮膚科　胃腸科　肛門科"},{"id":"medical-2-13724","name":"山本クリニック","categoryId":"medical","categoryLabel":"医疗","lat":35.672234,"lng":139.607776,"stationId":"station-003832","note":"内科　外科　耳鼻いんこう科　神経内科　形成外科　心療内科　脳神経外科　美容外科"},{"id":"medical-3-13771","name":"山﨑歯科医院","categoryId":"medical","categoryLabel":"医疗","lat":35.66865,"lng":139.623598,"stationId":"station-003849","note":"歯科　小児歯科　歯科口腔外科"},{"id":"medical-3-11042","name":"岡本歯科","categoryId":"medical","categoryLabel":"医疗","lat":35.670317,"lng":139.608751,"stationId":"station-003832","note":"歯科　小児歯科　歯科口腔外科"},{"id":"medical-2-11019","name":"岡田医院","categoryId":"medical","categoryLabel":"医疗","lat":35.650324,"lng":139.590153,"stationId":"station-004036","note":"内　外　皮"},{"id":"medical-3-11598","name":"岩倉歯科医院","categoryId":"medical","categoryLabel":"医疗","lat":35.652531,"lng":139.621902,"stationId":"station-003988","note":null},{"id":"medical-2-16351","name":"川原眼科医院","categoryId":"medical","categoryLabel":"医疗","lat":35.669644,"lng":139.615568,"stationId":"station-003836","note":"眼科"},{"id":"medical-3-16377","name":"川田歯科医院","categoryId":"medical","categoryLabel":"医疗","lat":35.668812,"lng":139.599744,"stationId":"station-003861","note":"歯科　小児歯科"},{"id":"medical-3-16403","name":"川﨑歯科クリニック","categoryId":"medical","categoryLabel":"医疗","lat":35.650463,"lng":139.615021,"stationId":"station-003988","note":"歯科　矯正歯科　小児歯科　歯科口腔外科"},{"id":"medical-2-19671","name":"平井皮フ科医院","categoryId":"medical","categoryLabel":"医疗","lat":35.671643,"lng":139.605699,"stationId":"station-003832","note":"形成外科　皮膚科"},{"id":"medical-2-19697","name":"平泉医院","categoryId":"medical","categoryLabel":"医疗","lat":35.669467,"lng":139.60367,"stationId":"station-003861","note":"内科"},{"id":"medical-3-17539","name":"忠重歯科医院","categoryId":"medical","categoryLabel":"医疗","lat":35.66965,"lng":139.599324,"stationId":"station-003861","note":"歯科　矯正歯科　小児歯科　歯科口腔外科"},{"id":"medical-2-12369","name":"慶仁クリニック","categoryId":"medical","categoryLabel":"医疗","lat":35.672822,"lng":139.601699,"stationId":"station-003861","note":"内科　小児科"},{"id":"medical-2-15671","name":"成城加々美クリニック","categoryId":"medical","categoryLabel":"医疗","lat":35.650792,"lng":139.597197,"stationId":"station-004036","note":"内科　呼吸器科　循環器科　胃腸科"},{"id":"medical-2-16048","name":"斉田皮フ科医院","categoryId":"medical","categoryLabel":"医疗","lat":35.668092,"lng":139.624081,"stationId":"station-003849","note":"皮膚科　ひ尿科"},{"id":"medical-3-13295","name":"斎藤歯科クリニック","categoryId":"medical","categoryLabel":"医疗","lat":35.671703,"lng":139.607124,"stationId":"station-003832","note":"歯科"},{"id":"medical-3-18842","name":"日吉歯科医院","categoryId":"medical","categoryLabel":"医疗","lat":35.656404,"lng":139.619732,"stationId":"station-003988","note":"歯科"},{"id":"medical-3-18951","name":"日本大学スポーツデンタル","categoryId":"medical","categoryLabel":"医疗","lat":35.660558,"lng":139.614965,"stationId":"station-003836","note":"歯科"},{"id":"medical-1-14745","name":"昭和大学附属烏山病院","categoryId":"medical","categoryLabel":"医疗","lat":35.672256,"lng":139.595617,"stationId":"station-003861","note":"内科　精神科　歯科　歯科口腔外科"},{"id":"medical-3-15563","name":"杉原歯科クリニック","categoryId":"medical","categoryLabel":"医疗","lat":35.670511,"lng":139.616305,"stationId":"station-003836","note":"歯科　小児歯科"},{"id":"medical-2-15559","name":"杉浦クリニック","categoryId":"medical","categoryLabel":"医疗","lat":35.667156,"lng":139.60184,"stationId":"station-003861","note":"内科　呼吸器内科"},{"id":"medical-2-18108","name":"東京ハートリズムクリニック","categoryId":"medical","categoryLabel":"医疗","lat":35.660728,"lng":139.607939,"stationId":"station-003861","note":"循環器内科"},{"id":"medical-2-18278","name":"東京都立中部総合精神保健福祉センター","categoryId":"medical","categoryLabel":"医疗","lat":35.669062,"lng":139.617784,"stationId":"station-003836","note":"精神科"},{"id":"medical-1-18274","name":"東京都立松沢病院","categoryId":"medical","categoryLabel":"医疗","lat":35.667848,"lng":139.61857,"stationId":"station-003836","note":"内科　精神科　神経内科　外科　整形外科　脳神経外科　放射線科　麻酔科　歯科"},{"id":"medical-2-14834","name":"松尾医院","categoryId":"medical","categoryLabel":"医疗","lat":35.67233,"lng":139.624582,"stationId":"station-003849","note":"皮膚科"},{"id":"medical-3-14844","name":"松平歯科","categoryId":"medical","categoryLabel":"医疗","lat":35.667603,"lng":139.600766,"stationId":"station-003861","note":"歯科　予防歯科　小児歯科　審美歯科"},{"id":"medical-3-14877","name":"松葉通り歯科クリニック","categoryId":"medical","categoryLabel":"医疗","lat":35.67342,"lng":139.601378,"stationId":"station-003861","note":"歯科　矯正歯科　小児歯科　歯科口腔外科"},{"id":"medical-2-14054","name":"柴本内科","categoryId":"medical","categoryLabel":"医疗","lat":35.668588,"lng":139.616834,"stationId":"station-003836","note":"内科　循環器内科　小児科"},{"id":"medical-3-14046","name":"柴田歯科医院","categoryId":"medical","categoryLabel":"医疗","lat":35.667532,"lng":139.602047,"stationId":"station-003861","note":"一般歯科　口腔外科"},{"id":"medical-2-12378","name":"桂眼科クリニック","categoryId":"medical","categoryLabel":"医疗","lat":35.668617,"lng":139.623832,"stationId":"station-003849","note":"眼科"},{"id":"medical-2-15317","name":"森整形外科","categoryId":"medical","categoryLabel":"医疗","lat":35.65914,"lng":139.61021,"stationId":"station-003836","note":"整形外科　リハビリテーション科"},{"id":"medical-3-10968","name":"横田歯科医院","categoryId":"medical","categoryLabel":"医疗","lat":35.657152,"lng":139.592728,"stationId":"station-003903","note":null},{"id":"medical-2-19517","name":"武井医院","categoryId":"medical","categoryLabel":"医疗","lat":35.655449,"lng":139.617012,"stationId":"station-003988","note":"内科　小児科　アレルギー科"},{"id":"medical-3-13878","name":"歯科ワタナベ医院","categoryId":"medical","categoryLabel":"医疗","lat":35.666139,"lng":139.599792,"stationId":"station-003861","note":"歯科　矯正歯科　小児歯科　歯科口腔外科"},{"id":"medical-3-13897","name":"歯科森田医院","categoryId":"medical","categoryLabel":"医疗","lat":35.670137,"lng":139.623732,"stationId":"station-003849","note":"歯科"},{"id":"medical-2-11221","name":"河西産婦人科皮膚科医院","categoryId":"medical","categoryLabel":"医疗","lat":35.671808,"lng":139.624982,"stationId":"station-003849","note":"産婦人科　皮膚科"},{"id":"medical-3-11250","name":"河野歯科クリニック祖師谷院","categoryId":"medical","categoryLabel":"医疗","lat":35.652722,"lng":139.603008,"stationId":"station-004024","note":"歯科　小児歯科　矯正歯科"},{"id":"medical-2-15738","name":"清水メディカルクリニック","categoryId":"medical","categoryLabel":"医疗","lat":35.666698,"lng":139.623374,"stationId":"station-003849","note":"内科　外科　消化器科　肛門科　リハビリテーション科"},{"id":"medical-3-15750","name":"清水歯科医院","categoryId":"medical","categoryLabel":"医疗","lat":35.657944,"lng":139.591525,"stationId":"station-003903","note":"歯科 小児歯科"},{"id":"medical-2-17943","name":"渡辺内科クリニック","categoryId":"medical","categoryLabel":"医疗","lat":35.668825,"lng":139.622422,"stationId":"station-003849","note":"内科　小児科"},{"id":"medical-2-10783","name":"烏山クリニック","categoryId":"medical","categoryLabel":"医疗","lat":35.670078,"lng":139.60064,"stationId":"station-003861","note":"内科　糖尿病内科　循環器内科　小児科"},{"id":"medical-3-10784","name":"烏山デンタルクリニック","categoryId":"medical","categoryLabel":"医疗","lat":35.670524,"lng":139.60044,"stationId":"station-003861","note":"歯科　小児歯科　歯科口腔外科"},{"id":"medical-2-10788","name":"烏山皮フ科","categoryId":"medical","categoryLabel":"医疗","lat":35.667653,"lng":139.602031,"stationId":"station-003861","note":"皮膚科"},{"id":"medical-2-10786","name":"烏山眼科医院","categoryId":"medical","categoryLabel":"医疗","lat":35.667303,"lng":139.601941,"stationId":"station-003861","note":"眼科"},{"id":"medical-2-10787","name":"烏山耳鼻咽喉科","categoryId":"medical","categoryLabel":"医疗","lat":35.667156,"lng":139.60184,"stationId":"station-003861","note":"耳鼻咽喉科　小児耳鼻咽喉科"},{"id":"medical-3-10785","name":"烏山駅前デンタルクリニック","categoryId":"medical","categoryLabel":"医疗","lat":35.668768,"lng":139.601113,"stationId":"station-003861","note":"歯科　矯正歯科　小児歯科　歯科口腔外科"},{"id":"medical-2-18666","name":"特別養護老人ホーム東京敬寿園医務室","categoryId":"medical","categoryLabel":"医疗","lat":35.658108,"lng":139.594789,"stationId":"station-003903","note":"内科　皮膚科"},{"id":"medical-2-15775","name":"生々堂クリニック","categoryId":"medical","categoryLabel":"医疗","lat":35.669451,"lng":139.605548,"stationId":"station-003832","note":"産科　婦人科"},{"id":"medical-3-17560","name":"町田歯科医院","categoryId":"medical","categoryLabel":"医疗","lat":35.67092,"lng":139.608693,"stationId":"station-003832","note":"一般歯科　審美歯科　小児歯科　訪問歯科　口腔外科"},{"id":"medical-2-19271","name":"皮フ科よしみクリニック","categoryId":"medical","categoryLabel":"医疗","lat":35.667375,"lng":139.602341,"stationId":"station-003861","note":"皮膚科"},{"id":"medical-3-16147","name":"石川歯科医院","categoryId":"medical","categoryLabel":"医疗","lat":35.652657,"lng":139.592956,"stationId":"station-003903","note":"歯　小歯"},{"id":"medical-3-16151","name":"石川歯科医院","categoryId":"medical","categoryLabel":"医疗","lat":35.657806,"lng":139.593929,"stationId":"station-003903","note":"歯科"},{"id":"medical-3-16173","name":"石田歯科クリニック","categoryId":"medical","categoryLabel":"医疗","lat":35.669354,"lng":139.624597,"stationId":"station-003849","note":"歯科"},{"id":"medical-1-14137","name":"社会福祉法人　東京有隣会　有隣病院","categoryId":"medical","categoryLabel":"医疗","lat":35.651076,"lng":139.619129,"stationId":"station-003988","note":"内科　呼吸器科　循環器科　消化器内科　神経内科　代謝糖尿病内科　外科　整形外科　泌尿器科　眼科　リハビリ科　放射線科　歯科口腔外科　形成外科　婦人科"},{"id":"medical-2-14190","name":"社会福祉法人東京有隣会有隣ホーム医務室","categoryId":"medical","categoryLabel":"医疗","lat":35.651611,"lng":139.619149,"stationId":"station-003988","note":"内科"},{"id":"medical-2-14189","name":"社会福祉法人東京有隣会第２有隣ホーム医務室","categoryId":"medical","categoryLabel":"医疗","lat":35.651611,"lng":139.619149,"stationId":"station-003988","note":"内科"},{"id":"medical-2-13960","name":"耳鼻咽喉科　いのうえクリニック","categoryId":"medical","categoryLabel":"医疗","lat":35.6702,"lng":139.615793,"stationId":"station-003836","note":"耳鼻咽喉科"},{"id":"medical-2-13968","name":"耳鼻咽喉科　大橋クリニック","categoryId":"medical","categoryLabel":"医疗","lat":35.669188,"lng":139.623813,"stationId":"station-003849","note":"耳鼻咽喉科"},{"id":"medical-2-15489","name":"腎内科クリニック世田谷","categoryId":"medical","categoryLabel":"医疗","lat":35.670384,"lng":139.603138,"stationId":"station-003861","note":"内科　腎臓内科　糖尿病内科　人工透析内科"},{"id":"medical-3-4691","name":"芦花パーク歯科","categoryId":"medical","categoryLabel":"医疗","lat":35.671568,"lng":139.608461,"stationId":"station-003832","note":"歯科　矯正歯科　小児歯科　歯科口腔外科"},{"id":"medical-3-4694","name":"芦花公園すみぞの歯科","categoryId":"medical","categoryLabel":"医疗","lat":35.671885,"lng":139.60909,"stationId":"station-003832","note":"歯科　矯正歯科　小児歯科　歯科口腔外科"},{"id":"medical-2-4693","name":"芦花公園クリニック","categoryId":"medical","categoryLabel":"医疗","lat":35.664453,"lng":139.609224,"stationId":"station-003832","note":"内科　小児科"},{"id":"medical-2-4695","name":"芦花公園駅前クリニック","categoryId":"medical","categoryLabel":"医疗","lat":35.670302,"lng":139.608428,"stationId":"station-003832","note":"内科　心療内科　リハビリテーション科　ペインクリニック内科　疼痛緩和内科"},{"id":"medical-3-4696","name":"芦花公園駅前歯科","categoryId":"medical","categoryLabel":"医疗","lat":35.671151,"lng":139.609138,"stationId":"station-003832","note":"歯科　矯正歯科　小児歯科　歯科口腔外科"},{"id":"medical-2-4692","name":"芦花眼科","categoryId":"medical","categoryLabel":"医疗","lat":35.671901,"lng":139.605743,"stationId":"station-003832","note":"眼科"},{"id":"medical-2-19326","name":"菱沼メンタルクリニック","categoryId":"medical","categoryLabel":"医疗","lat":35.667686,"lng":139.601668,"stationId":"station-003861","note":"心療内科　精神科　神経科"},{"id":"medical-3-20677","name":"蓮沼歯科医院","categoryId":"medical","categoryLabel":"医疗","lat":35.657846,"lng":139.623858,"stationId":"station-003988","note":"歯科　小児歯科"},{"id":"medical-3-15823","name":"西巻歯科","categoryId":"medical","categoryLabel":"医疗","lat":35.656905,"lng":139.609701,"stationId":"station-003861","note":"歯科"},{"id":"medical-2-10888","name":"遠藤医院","categoryId":"medical","categoryLabel":"医疗","lat":35.674519,"lng":139.599609,"stationId":"station-003861","note":"内科　循環器内科　眼科"},{"id":"medical-2-11503","name":"関根眼科","categoryId":"medical","categoryLabel":"医疗","lat":35.653456,"lng":139.62066,"stationId":"station-003988","note":"眼科"},{"id":"medical-2-12889","name":"香川内科クリニック","categoryId":"medical","categoryLabel":"医疗","lat":35.659407,"lng":139.602867,"stationId":"station-003861","note":"内科　呼吸器科　胃腸科"},{"id":"medical-3-13025","name":"高尾歯科医院","categoryId":"medical","categoryLabel":"医疗","lat":35.662976,"lng":139.604364,"stationId":"station-003861","note":"歯科　小児歯科　歯科口腔外科"},{"id":"medical-3-12970","name":"高山歯科医院","categoryId":"medical","categoryLabel":"医疗","lat":35.667653,"lng":139.602031,"stationId":"station-003861","note":"歯科　小児歯科"},{"id":"medical-3-20828","name":"髙井デンタルオフィス","categoryId":"medical","categoryLabel":"医疗","lat":35.656596,"lng":139.619384,"stationId":"station-003988","note":"歯科　矯正歯科　小児歯科　歯科口腔外科"},{"id":"medical-2-244","name":"Ｋメディカルクリニック","categoryId":"medical","categoryLabel":"医疗","lat":35.668768,"lng":139.601113,"stationId":"station-003861","note":"内科　漢方内科"},{"id":"medical-2-226","name":"Ｋ２こどもクリニック","categoryId":"medical","categoryLabel":"医疗","lat":35.667462,"lng":139.602592,"stationId":"station-003861","note":"小児科"},{"id":"public-13112-21592","name":"上北沢まちづくりセンター","categoryId":"public_service","categoryLabel":"公共服务","lat":35.669966,"lng":139.61798,"stationId":"station-003836","note":"世田谷区上北沢4-32-9"},{"id":"public-13112-21565","name":"上北沢地区会館","categoryId":"public_service","categoryLabel":"公共服务","lat":35.663175,"lng":139.622427,"stationId":"station-003849","note":"世田谷区上北沢2-1-3"},{"id":"public-13112-21583","name":"上祖師谷まちづくりセンター","categoryId":"public_service","categoryLabel":"公共服务","lat":35.657106,"lng":139.599675,"stationId":"station-003861","note":"世田谷区上祖師谷2-7-6"},{"id":"public-13112-21558","name":"上祖師谷一丁目区民集会所","categoryId":"public_service","categoryLabel":"公共服务","lat":35.663537,"lng":139.598993,"stationId":"station-003861","note":"世田谷区上祖師谷1-24-2"},{"id":"public-13112-21560","name":"上祖師谷地区会館","categoryId":"public_service","categoryLabel":"公共服务","lat":35.653586,"lng":139.596649,"stationId":"station-003903","note":"世田谷区上祖師谷4-5-6"},{"id":"public-13115-21847","name":"上高井戸区民集会所","categoryId":"public_service","categoryLabel":"公共服务","lat":35.671245,"lng":139.612409,"stationId":"station-003836","note":"杉並区上高井戸1-15-5"},{"id":"public-13112-21641","name":"八幡山区民集会所","categoryId":"public_service","categoryLabel":"公共服务","lat":35.668291,"lng":139.616754,"stationId":"station-003836","note":"世田谷区八幡山3-32-26"},{"id":"public-13112-21646","name":"北烏山地区会館","categoryId":"public_service","categoryLabel":"公共服务","lat":35.674362,"lng":139.592353,"stationId":"station-003861","note":"世田谷区北烏山9-25-26"},{"id":"public-13112-21590","name":"千歳台地区会館","categoryId":"public_service","categoryLabel":"公共服务","lat":35.653625,"lng":139.611622,"stationId":"station-004024","note":"世田谷区千歳台3-31-9"},{"id":"public-13112-21629","name":"南烏山区民集会所","categoryId":"public_service","categoryLabel":"公共服务","lat":35.671857,"lng":139.60711,"stationId":"station-003832","note":"世田谷区南烏山3-23-7"},{"id":"public-13112-21593","name":"希望丘区民集会所","categoryId":"public_service","categoryLabel":"公共服务","lat":35.658995,"lng":139.620834,"stationId":"station-003849","note":"世田谷区船橋6-25-1"},{"id":"public-13112-21508","name":"烏山まちづくりセンター","categoryId":"public_service","categoryLabel":"公共服务","lat":35.668664,"lng":139.60042,"stationId":"station-003861","note":"世田谷区南烏山6-2-19"},{"id":"public-13112-21634","name":"烏山出張所","categoryId":"public_service","categoryLabel":"公共服务","lat":35.668823,"lng":139.6003,"stationId":"station-003861","note":"世田谷区南烏山6-2-19"},{"id":"public-13112-21512","name":"烏山区民センター","categoryId":"public_service","categoryLabel":"公共服务","lat":35.668824,"lng":139.600742,"stationId":"station-003861","note":"世田谷区南烏山6-2-19"},{"id":"public-13112-21516","name":"烏山区民会館","categoryId":"public_service","categoryLabel":"公共服务","lat":35.668823,"lng":139.600521,"stationId":"station-003861","note":"世田谷区南烏山6-2-19"},{"id":"public-13112-21636","name":"烏山総合支所","categoryId":"public_service","categoryLabel":"公共服务","lat":35.669867,"lng":139.597842,"stationId":"station-003861","note":"世田谷区南烏山6-22-14"},{"id":"public-13112-21639","name":"粕谷区民センター","categoryId":"public_service","categoryLabel":"公共服务","lat":35.663138,"lng":139.605145,"stationId":"station-003861","note":"世田谷区粕谷4-13-6"},{"id":"public-13112-21531","name":"給田地区会館","categoryId":"public_service","categoryLabel":"公共服务","lat":35.664897,"lng":139.590719,"stationId":"station-003903","note":"世田谷区給田3-14-7"},{"id":"public-13112-21615","name":"船橋まちづくりセンター","categoryId":"public_service","categoryLabel":"公共服务","lat":35.655385,"lng":139.62288,"stationId":"station-003988","note":"世田谷区船橋4-3-2"},{"id":"public-13112-21591","name":"船橋地区会館","categoryId":"public_service","categoryLabel":"公共服务","lat":35.652426,"lng":139.623393,"stationId":"station-003988","note":"世田谷区船橋3-11-8"},{"id":"public-13112-21635","name":"鳥山区民センター案内窓口","categoryId":"public_service","categoryLabel":"公共服务","lat":35.668664,"lng":139.60041,"stationId":"station-003861","note":"世田谷区南烏山6-2-19"},{"id":"public-13112-21640","name":"八幡山小学校地域体育館","categoryId":"sports","categoryLabel":"体育设施","lat":35.661864,"lng":139.621888,"stationId":"station-003849","note":"世田谷区八幡山1-14-1"}]
