[{"id":"public-13115-21806","name":"阿佐谷図書館","categoryId":"library","categoryLabel":"图书馆","lat":35.71167,"lng":139.633252,"stationId":"station-003574","note":"杉並区阿佐谷北3-36-14"},{"id":"medical-3-474","name":"あい歯科医院","categoryId":"medical","categoryLabel":"医疗","lat":35.707152,"lng":139.65133,"stationId":"station-003573","note":"歯科　矯正歯科　小児歯科　歯科口腔外科"},{"id":"medical-2-495","name":"あおきウィメンズクリニック","categoryId":"medical","categoryLabel":"医疗","lat":35.704161,"lng":139.636895,"stationId":"station-003574","note":"産婦人科"},{"id":"medical-2-497","name":"あおき眼科","categoryId":"medical","categoryLabel":"医疗","lat":35.707197,"lng":139.649473,"stationId":"station-003573","note":"眼科"},{"id":"medical-3-559","name":"あき歯科医院","categoryId":"medical","categoryLabel":"医疗","lat":35.70651,"lng":139.649673,"stationId":"station-003573","note":"歯科　小児歯科　歯科口腔外科"},{"id":"medical-3-585","name":"あさがや清水歯科医院","categoryId":"medical","categoryLabel":"医疗","lat":35.712072,"lng":139.635197,"stationId":"station-003574","note":"歯科　小児歯科　矯正歯科　歯科口腔外科"},{"id":"medical-2-584","name":"あさがや耳鼻咽喉科","categoryId":"medical","categoryLabel":"医疗","lat":35.705398,"lng":139.63775,"stationId":"station-003574","note":"耳鼻いんこう科　小児耳鼻いんこう科　アレルギー科"},{"id":"medical-3-641","name":"あそう歯科クリニック","categoryId":"medical","categoryLabel":"医疗","lat":35.719654,"lng":139.654007,"stationId":"station-003473","note":"歯科　矯正歯科　小児歯科　歯科口腔外科"},{"id":"medical-2-699","name":"あまぬま関根眼科","categoryId":"medical","categoryLabel":"医疗","lat":35.705657,"lng":139.625487,"stationId":"station-003577","note":"眼科"},{"id":"medical-2-888","name":"いたばしクリニック","categoryId":"medical","categoryLabel":"医疗","lat":35.71058,"lng":139.652465,"stationId":"station-003573","note":"内科　外科　消化器内科　胃腸内科"},{"id":"medical-3-914","name":"いとう歯科","categoryId":"medical","categoryLabel":"医疗","lat":35.706293,"lng":139.650442,"stationId":"station-003573","note":"歯科"},{"id":"medical-3-1329","name":"おだ歯科医院","categoryId":"medical","categoryLabel":"医疗","lat":35.724089,"lng":139.643665,"stationId":"station-003453","note":"歯科口腔外科　小児歯科　矯正歯科　歯科"},{"id":"medical-3-1541","name":"かわい歯科クリニック","categoryId":"medical","categoryLabel":"医疗","lat":35.723158,"lng":139.652892,"stationId":"station-003473","note":"歯科　小児歯科"},{"id":"medical-2-1658","name":"くすもと皮フ科","categoryId":"medical","categoryLabel":"医疗","lat":35.724333,"lng":139.643653,"stationId":"station-003453","note":"皮膚科"},{"id":"medical-2-1735","name":"くり小児科内科","categoryId":"medical","categoryLabel":"医疗","lat":35.721294,"lng":139.654015,"stationId":"station-003473","note":"内科　アレルギー科　小児科"},{"id":"medical-2-1798","name":"けやき内科クリニック","categoryId":"medical","categoryLabel":"医疗","lat":35.701868,"lng":139.637417,"stationId":"station-003619","note":"内科　小児科　アレルギー科　呼吸器内科"},{"id":"medical-3-1832","name":"こうの歯科医院","categoryId":"medical","categoryLabel":"医疗","lat":35.70554,"lng":139.649323,"stationId":"station-003573","note":"歯科　歯科口腔外科　小児歯科"},{"id":"medical-2-1857","name":"こころとからだ・光の花クリニック","categoryId":"medical","categoryLabel":"医疗","lat":35.701749,"lng":139.63626,"stationId":"station-003619","note":"内科　精神科　心療内科　児童精神科"},{"id":"medical-2-1871","name":"こころの杜クリニック","categoryId":"medical","categoryLabel":"医疗","lat":35.723166,"lng":139.644202,"stationId":"station-003453","note":"精神科　心療内科"},{"id":"medical-3-2004","name":"さいとう歯科　高円寺診療所","categoryId":"medical","categoryLabel":"医疗","lat":35.707292,"lng":139.645782,"stationId":"station-003573","note":"歯科　小児歯科　矯正歯科　歯科口腔外科"},{"id":"medical-2-2026","name":"さかい内科クリニック","categoryId":"medical","categoryLabel":"医疗","lat":35.723086,"lng":139.638568,"stationId":"station-003451","note":"内科　呼吸器科　アレルギー科"},{"id":"medical-2-2046","name":"さぎのみや皮膚科クリニック","categoryId":"medical","categoryLabel":"医疗","lat":35.722986,"lng":139.638607,"stationId":"station-003451","note":"皮膚科　小児皮膚科　美容皮膚科　アレルギー科"},{"id":"medical-2-2047","name":"さぎの宮の根岸眼科","categoryId":"medical","categoryLabel":"医疗","lat":35.723691,"lng":139.638324,"stationId":"station-003451","note":"眼科"},{"id":"medical-3-2108","name":"ささき歯科医院","categoryId":"medical","categoryLabel":"医疗","lat":35.708078,"lng":139.636113,"stationId":"station-003574","note":"歯科　小児歯科　矯正歯科　歯科口腔外科"},{"id":"medical-2-2121","name":"さとうヘルスクリニック","categoryId":"medical","categoryLabel":"医疗","lat":35.721179,"lng":139.645925,"stationId":"station-003453","note":"内科"},{"id":"medical-3-2128","name":"さとう歯科","categoryId":"medical","categoryLabel":"医疗","lat":35.704182,"lng":139.6376,"stationId":"station-003574","note":"歯科　小児歯科　矯正歯科"},{"id":"medical-2-2145","name":"さとう耳鼻咽喉科","categoryId":"medical","categoryLabel":"医疗","lat":35.701855,"lng":139.636965,"stationId":"station-003619","note":"耳鼻咽喉科"},{"id":"medical-3-2258","name":"しのやま歯科医院","categoryId":"medical","categoryLabel":"医疗","lat":35.711461,"lng":139.633784,"stationId":"station-003574","note":"歯科　小児歯科　矯正歯科　歯科口腔外科"},{"id":"medical-3-2335","name":"しらさぎ歯科医院","categoryId":"medical","categoryLabel":"医疗","lat":35.718599,"lng":139.634533,"stationId":"station-003451","note":"歯科　小児歯科　歯科口腔外科"},{"id":"medical-2-2323","name":"じょう皮フ科クリニックｉｎ高円寺","categoryId":"medical","categoryLabel":"医疗","lat":35.706321,"lng":139.649481,"stationId":"station-003573","note":"皮膚科　美容皮膚科　小児皮膚科"},{"id":"medical-2-2366","name":"すがい整形外科","categoryId":"medical","categoryLabel":"医疗","lat":35.702177,"lng":139.637689,"stationId":"station-003574","note":"外科　整形外科　リハビリテーション科　リウマチ科"},{"id":"medical-2-2386","name":"すぎやまクリニック","categoryId":"medical","categoryLabel":"医疗","lat":35.722986,"lng":139.644278,"stationId":"station-003453","note":"内科　小児科"},{"id":"medical-3-2430","name":"すだ歯科","categoryId":"medical","categoryLabel":"医疗","lat":35.720473,"lng":139.625937,"stationId":"station-003444","note":"歯科　矯正歯科"},{"id":"medical-3-2556","name":"そよかぜ歯科医院","categoryId":"medical","categoryLabel":"医疗","lat":35.70641,"lng":139.651277,"stationId":"station-003573","note":"歯科　小児歯科　歯科口腔外科"},{"id":"medical-2-2598","name":"たかとり内科","categoryId":"medical","categoryLabel":"医疗","lat":35.709821,"lng":139.651608,"stationId":"station-003573","note":"内科　皮膚科　神経内科　小児科"},{"id":"medical-2-2601","name":"たかねファミリークリニック","categoryId":"medical","categoryLabel":"医疗","lat":35.724581,"lng":139.651923,"stationId":"station-003473","note":"内科　腎臓内科　小児科　皮膚科"},{"id":"medical-3-2617","name":"たかはし歯科","categoryId":"medical","categoryLabel":"医疗","lat":35.708538,"lng":139.635676,"stationId":"station-003574","note":"歯科　小児歯科　矯正歯科　歯科口腔外科"},{"id":"medical-2-2803","name":"つぐ内科","categoryId":"medical","categoryLabel":"医疗","lat":35.701299,"lng":139.635779,"stationId":"station-003619","note":"内科　消化器科　循環器科"},{"id":"medical-3-2818","name":"つつじデンタルクリニック","categoryId":"medical","categoryLabel":"医疗","lat":35.709887,"lng":139.655729,"stationId":"station-003573","note":"歯科　小児歯科"},{"id":"medical-2-2840","name":"つるた鷺ノ宮クリニック","categoryId":"medical","categoryLabel":"医疗","lat":35.71748,"lng":139.637502,"stationId":"station-003451","note":"内科　消化器内科　胃腸内科　糖尿病内科　代謝内科　小児科　皮膚科"},{"id":"medical-3-2930","name":"とうがね歯科・矯正歯科","categoryId":"medical","categoryLabel":"医疗","lat":35.72346,"lng":139.650309,"stationId":"station-003453","note":"歯科　矯正歯科　小児歯科　歯科口腔外科"},{"id":"medical-2-3052","name":"とりつかせいクリニック","categoryId":"medical","categoryLabel":"医疗","lat":35.721161,"lng":139.644682,"stationId":"station-003453","note":"内科　消化器内科　胃腸内科　心療内科"},{"id":"medical-3-3053","name":"とりつかせい歯科医院","categoryId":"medical","categoryLabel":"医疗","lat":35.723418,"lng":139.644135,"stationId":"station-003453","note":"歯科　小児歯科　歯科口腔外科"},{"id":"medical-3-3071","name":"なお歯科医院","categoryId":"medical","categoryLabel":"医疗","lat":35.71861,"lng":139.652929,"stationId":"station-003473","note":"歯科　矯正歯科"},{"id":"medical-3-3126","name":"なかむら歯科","categoryId":"medical","categoryLabel":"医疗","lat":35.713563,"lng":139.646268,"stationId":"station-003473","note":"歯科　小児歯科"},{"id":"medical-3-3142","name":"なぎさデンタルクリニック","categoryId":"medical","categoryLabel":"医疗","lat":35.700351,"lng":139.632488,"stationId":"station-003619","note":"歯科"},{"id":"medical-2-3263","name":"のがた眼科クリニック","categoryId":"medical","categoryLabel":"医疗","lat":35.718753,"lng":139.653096,"stationId":"station-003473","note":"眼科"},{"id":"medical-3-3324","name":"はいばら歯科医院","categoryId":"medical","categoryLabel":"医疗","lat":35.71873,"lng":139.655935,"stationId":"station-003473","note":"歯科　矯正歯科　小児歯科"},{"id":"medical-3-3376","name":"はっとり歯科・矯正歯科","categoryId":"medical","categoryLabel":"医疗","lat":35.706742,"lng":139.649534,"stationId":"station-003573","note":"歯科　歯科口腔外科　矯正歯科　小児歯科"},{"id":"medical-2-3428","name":"はやま消化器内科クリニック","categoryId":"medical","categoryLabel":"医疗","lat":35.700973,"lng":139.637108,"stationId":"station-003619","note":"内科　消化器内科"},{"id":"medical-2-3450","name":"はるの・こころみクリニック","categoryId":"medical","categoryLabel":"医疗","lat":35.704551,"lng":139.635761,"stationId":"station-003574","note":"精神科　心療内科　内科"},{"id":"medical-3-3547","name":"ひまわり歯科","categoryId":"medical","categoryLabel":"医疗","lat":35.703659,"lng":139.650734,"stationId":"station-003573","note":"歯科　小児歯科　歯科口腔外科"},{"id":"medical-3-3550","name":"ひまわり歯科クリニック","categoryId":"medical","categoryLabel":"医疗","lat":35.709802,"lng":139.652807,"stationId":"station-003573","note":"歯科　矯正歯科　小児歯科　歯科口腔外科"},{"id":"medical-2-3573","name":"ひるた皮フ科クリニック","categoryId":"medical","categoryLabel":"医疗","lat":35.722941,"lng":139.62532,"stationId":"station-003444","note":"皮膚科"},{"id":"medical-2-3677","name":"ふじの眼科","categoryId":"medical","categoryLabel":"医疗","lat":35.704262,"lng":139.635692,"stationId":"station-003574","note":"眼科"},{"id":"medical-2-3687","name":"ふじもり耳鼻咽喉科クリニック","categoryId":"medical","categoryLabel":"医疗","lat":35.723348,"lng":139.642578,"stationId":"station-003451","note":"アレルギー科　耳鼻咽喉科"},{"id":"medical-2-3862","name":"まえだ整形外科・手のクリニック","categoryId":"medical","categoryLabel":"医疗","lat":35.714803,"lng":139.63288,"stationId":"station-003451","note":"整形外科　リハビリテーション科"},{"id":"medical-3-4007","name":"みしな歯科クリニック","categoryId":"medical","categoryLabel":"医疗","lat":35.724339,"lng":139.647413,"stationId":"station-003453","note":"歯科　矯正歯科　小児歯科　歯科口腔外科"},{"id":"medical-2-4050","name":"みどり皮膚科クリニック","categoryId":"medical","categoryLabel":"医疗","lat":35.713142,"lng":139.634582,"stationId":"station-003574","note":"形成外科　皮膚科"},{"id":"medical-3-4111","name":"みゆき歯科クリニック","categoryId":"medical","categoryLabel":"医疗","lat":35.70056,"lng":139.659928,"stationId":"station-003628","note":"歯科　小児歯科　矯正歯科"},{"id":"medical-3-4170","name":"むらやま歯科医院","categoryId":"medical","categoryLabel":"医疗","lat":35.719669,"lng":139.6518,"stationId":"station-003473","note":"歯科　矯正歯科　小児歯科　歯科口腔外科"},{"id":"medical-3-4233","name":"もみの木歯科","categoryId":"medical","categoryLabel":"医疗","lat":35.716978,"lng":139.641613,"stationId":"station-003451","note":"歯科　矯正歯科　小児歯科　歯科口腔外科"},{"id":"medical-3-4261","name":"もろ木歯科","categoryId":"medical","categoryLabel":"医疗","lat":35.707647,"lng":139.639745,"stationId":"station-003574","note":"歯科　小児歯科　歯科口腔外科"},{"id":"medical-2-4271","name":"やじまクリニック","categoryId":"medical","categoryLabel":"医疗","lat":35.715404,"lng":139.646314,"stationId":"station-003453","note":"内科　小児科"},{"id":"medical-2-4374","name":"ゆう眼科クリニック","categoryId":"medical","categoryLabel":"医疗","lat":35.706102,"lng":139.649806,"stationId":"station-003573","note":"眼科"},{"id":"medical-2-4449","name":"よしだ内科","categoryId":"medical","categoryLabel":"医疗","lat":35.703045,"lng":139.65217,"stationId":"station-003573","note":"内科　循環器内科　腎臓内科"},{"id":"medical-2-4460","name":"よしひさ内科クリニック","categoryId":"medical","categoryLabel":"医疗","lat":35.708767,"lng":139.649515,"stationId":"station-003573","note":"内科　消化器内科　内視鏡内科"},{"id":"medical-3-4625","name":"わかば歯科クリニック","categoryId":"medical","categoryLabel":"医疗","lat":35.721161,"lng":139.644682,"stationId":"station-003453","note":"歯科　矯正歯科　小児歯科　歯科口腔外科"},{"id":"medical-2-669","name":"アトラスレディースクリニック","categoryId":"medical","categoryLabel":"医疗","lat":35.706102,"lng":139.649806,"stationId":"station-003573","note":"婦人科"},{"id":"medical-3-410","name":"アート歯科クリニック阿佐ヶ谷","categoryId":"medical","categoryLabel":"医疗","lat":35.700771,"lng":139.637101,"stationId":"station-003619","note":"歯科　矯正歯科　小児歯科　歯科口腔外科"},{"id":"medical-3-1105","name":"エトアール歯科医院","categoryId":"medical","categoryLabel":"医疗","lat":35.703878,"lng":139.64634,"stationId":"station-003573","note":"歯科　小児歯科　矯正歯科"},{"id":"medical-3-1740","name":"クレア歯科クリニック","categoryId":"medical","categoryLabel":"医疗","lat":35.710065,"lng":139.636206,"stationId":"station-003574","note":"歯科　小児歯科　歯科口腔外科　矯正歯科"},{"id":"medical-3-2313","name":"ジュンデンタルオフィス高円寺","categoryId":"medical","categoryLabel":"医疗","lat":35.704748,"lng":139.650417,"stationId":"station-003573","note":"歯科　矯正歯科　小児歯科　歯科口腔外科"},{"id":"medical-3-2454","name":"スマイルデンタルクリニック","categoryId":"medical","categoryLabel":"医疗","lat":35.71099,"lng":139.633986,"stationId":"station-003574","note":"歯科　小児歯科　矯正歯科　歯科口腔外科"},{"id":"medical-2-2489","name":"セキこどもクリニック","categoryId":"medical","categoryLabel":"医疗","lat":35.701954,"lng":139.643668,"stationId":"station-003632","note":"内科　小児科　アレルギー科"},{"id":"medical-3-2526","name":"センチュリー歯科医院","categoryId":"medical","categoryLabel":"医疗","lat":35.707582,"lng":139.649506,"stationId":"station-003573","note":"歯科　小児歯科　矯正歯科　歯科口腔外科"},{"id":"medical-3-2908","name":"デンタルクリニック高円寺","categoryId":"medical","categoryLabel":"医疗","lat":35.703819,"lng":139.651219,"stationId":"station-003573","note":"歯科"},{"id":"medical-3-3258","name":"ノースデンタルオフィス","categoryId":"medical","categoryLabel":"医疗","lat":35.706388,"lng":139.650735,"stationId":"station-003573","note":"歯科　小児歯科　矯正歯科　歯科口腔外科"},{"id":"medical-2-3820","name":"ホリスティキュアメディカルクリニック（ＨＯＬＩＳＴＩＣＵＲＥ　ＭＥＤＩＣＡＬ　ＣＬＩＮＩＣ）","categoryId":"medical","categoryLabel":"医疗","lat":35.724765,"lng":139.643688,"stationId":"station-003453","note":"内科　循環器内科　皮膚科"},{"id":"medical-2-4023","name":"ミズメンタルクリニック","categoryId":"medical","categoryLabel":"医疗","lat":35.704406,"lng":139.649856,"stationId":"station-003573","note":"精神科　心療内科"},{"id":"medical-2-4032","name":"ミタニ　ひ尿器科","categoryId":"medical","categoryLabel":"医疗","lat":35.70554,"lng":139.6393,"stationId":"station-003574","note":"内科　泌尿器科"},{"id":"medical-1-10695","name":"一般財団法人　自警会　東京警察病院","categoryId":"medical","categoryLabel":"医疗","lat":35.709142,"lng":139.659362,"stationId":"nakano","note":"内科　呼吸器内科　消化器内科　循環器内科　リウマチ科　小児科　精神科　外科　脳神経外科　整形外科　形成外科　美容外科　産婦人科　眼科　耳鼻いんこう科　皮膚科　泌尿器科　リハビリ科　放射線科　麻酔科　病理診断科　救急科　呼吸器外科　消化器外科　血液内科"},{"id":"medical-2-17398","name":"中村医院","categoryId":"medical","categoryLabel":"医疗","lat":35.719786,"lng":139.653459,"stationId":"station-003473","note":"内科　循環器科　消化器科　理学診療科"},{"id":"medical-2-17400","name":"中村医院","categoryId":"medical","categoryLabel":"医疗","lat":35.705768,"lng":139.652384,"stationId":"station-003573","note":"内科　小児科　産婦人科"},{"id":"medical-3-17425","name":"中村歯科医院","categoryId":"medical","categoryLabel":"医疗","lat":35.702847,"lng":139.653876,"stationId":"station-003573","note":"歯科　小児歯科　矯正歯科"},{"id":"medical-2-17317","name":"中越整形外科","categoryId":"medical","categoryLabel":"医疗","lat":35.723737,"lng":139.638651,"stationId":"station-003451","note":"リウマチ科　外科　整形外科　理学診療科"},{"id":"medical-2-10636","name":"井上医院","categoryId":"medical","categoryLabel":"医疗","lat":35.710645,"lng":139.64274,"stationId":"station-003573","note":"内科　小児内科　外科　整形外科　血管外科　消化器内科　消化器外科"},{"id":"medical-2-13183","name":"佐口脳神経外科・内科クリニック","categoryId":"medical","categoryLabel":"医疗","lat":35.710183,"lng":139.647704,"stationId":"station-003573","note":"内科　脳神経外科"},{"id":"medical-2-13270","name":"佐藤内科クリニック","categoryId":"medical","categoryLabel":"医疗","lat":35.705624,"lng":139.636157,"stationId":"station-003574","note":"内科　アレルギー科　循環器科　呼吸器科"},{"id":"medical-2-13221","name":"佐藤医院","categoryId":"medical","categoryLabel":"医疗","lat":35.715695,"lng":139.644629,"stationId":"station-003453","note":"内科　呼吸器科　循環器科　小児科　胃腸科"},{"id":"medical-3-13281","name":"佐野歯科医院","categoryId":"medical","categoryLabel":"医疗","lat":35.704542,"lng":139.650451,"stationId":"station-003573","note":"歯科　歯科口腔外科"},{"id":"medical-2-13282","name":"佐野皮膚科医院","categoryId":"medical","categoryLabel":"医疗","lat":35.701878,"lng":139.633924,"stationId":"station-003619","note":"皮膚科"},{"id":"medical-2-18711","name":"内科小児科山住医院","categoryId":"medical","categoryLabel":"医疗","lat":35.702307,"lng":139.638374,"stationId":"station-003574","note":"内科　小児科"},{"id":"medical-2-10877","name":"円メンタルクリニック","categoryId":"medical","categoryLabel":"医疗","lat":35.700471,"lng":139.647622,"stationId":"station-003632","note":"心療内科　精神科"},{"id":"medical-3-16497","name":"前田歯科医院","categoryId":"medical","categoryLabel":"医疗","lat":35.700799,"lng":139.658249,"stationId":"station-003628","note":"歯科　小児歯科　矯正歯科　歯科口腔外科"},{"id":"medical-1-5483","name":"医療法人社団　三成会　河北前田病院","categoryId":"medical","categoryLabel":"医疗","lat":35.712683,"lng":139.633218,"stationId":"station-003574","note":"内科　リハビリ科"},{"id":"medical-3-5458","name":"医療法人社団　佐藤歯科クリニック","categoryId":"medical","categoryLabel":"医疗","lat":35.714341,"lng":139.634635,"stationId":"station-003451","note":"歯科　小児歯科　歯科口腔外科"},{"id":"medical-2-5779","name":"医療法人社団　千一心会　杉本医院","categoryId":"medical","categoryLabel":"医疗","lat":35.713655,"lng":139.65872,"stationId":"station-003473","note":"内科　小児科"},{"id":"medical-1-6092","name":"医療法人社団　和光会　藤村病院","categoryId":"medical","categoryLabel":"医疗","lat":35.71259,"lng":139.634752,"stationId":"station-003574","note":"内科　循環器内科　消化器内科　外科　整形外科　皮膚科　リハビリテーション科　放射線科　呼吸器内科　糖尿病内科"},{"id":"medical-2-6027","name":"医療法人社団　明笙会　たけうち内科","categoryId":"medical","categoryLabel":"医疗","lat":35.720975,"lng":139.652577,"stationId":"station-003473","note":"内科"},{"id":"medical-2-5443","name":"医療法人社団　荒牧医院","categoryId":"medical","categoryLabel":"医疗","lat":35.709839,"lng":139.650148,"stationId":"station-003573","note":"耳鼻咽喉科　形成外科"},{"id":"medical-2-5312","name":"医療法人社団　近藤医院","categoryId":"medical","categoryLabel":"医疗","lat":35.722587,"lng":139.627927,"stationId":"station-003444","note":"内科　小児科　循環器内科　アレルギー科"},{"id":"medical-3-5173","name":"医療法人社団　阿佐ヶ谷駅前歯科","categoryId":"medical","categoryLabel":"医疗","lat":35.703983,"lng":139.636832,"stationId":"station-003574","note":"歯科　小児歯科　歯科口腔外科"},{"id":"medical-1-5772","name":"医療法人社団　静山会　清川病院","categoryId":"medical","categoryLabel":"医疗","lat":35.703969,"lng":139.644178,"stationId":"station-003573","note":"内科　呼吸器内科　消化器内科　循環器内科　漢方内科　神経内科　皮膚科　肛門科　リハビリ科　放射線科　脳神経外科　整形外科　糖尿病内科"},{"id":"medical-2-6667","name":"医療法人社団はなぶさ会　しんえい糖健診クリニック","categoryId":"medical","categoryLabel":"医疗","lat":35.703003,"lng":139.649145,"stationId":"station-003573","note":"糖尿病内科　内科"},{"id":"medical-2-6751","name":"医療法人社団ぽぷり　駅前つのだクリニック","categoryId":"medical","categoryLabel":"医疗","lat":35.704303,"lng":139.635868,"stationId":"station-003574","note":"内科　糖尿病内科"},{"id":"medical-2-6730","name":"医療法人社団フレシェア　若宮診療所","categoryId":"medical","categoryLabel":"医疗","lat":35.723256,"lng":139.64177,"stationId":"station-003451","note":"内科　呼吸器内科　アレルギー科"},{"id":"medical-3-6736","name":"医療法人社団プレブ　熊谷歯科医院","categoryId":"medical","categoryLabel":"医疗","lat":35.724243,"lng":139.638386,"stationId":"station-003451","note":"歯科"},{"id":"medical-3-6977","name":"医療法人社団一光会　中村歯科クリニック","categoryId":"medical","categoryLabel":"医疗","lat":35.703045,"lng":139.65217,"stationId":"station-003573","note":"歯科　小児歯科　矯正歯科　歯科口腔外科"},{"id":"medical-2-8050","name":"医療法人社団三友会　高円寺整形外科","categoryId":"medical","categoryLabel":"医疗","lat":35.703659,"lng":139.650734,"stationId":"station-003573","note":"内科　整形外科　リハビリテーション科"},{"id":"medical-3-8024","name":"医療法人社団三恵会　三宅歯科医院","categoryId":"medical","categoryLabel":"医疗","lat":35.707548,"lng":139.635226,"stationId":"station-003574","note":"歯科　小児歯科　矯正歯科　歯科口腔外科"},{"id":"medical-2-7259","name":"医療法人社団京愛会　ケイ・メディカルクリニック","categoryId":"medical","categoryLabel":"医疗","lat":35.709802,"lng":139.652807,"stationId":"station-003573","note":"整形外科　理学診療科"},{"id":"medical-3-8716","name":"医療法人社団仁永会　高円寺デンタルクリニック","categoryId":"medical","categoryLabel":"医疗","lat":35.705937,"lng":139.650592,"stationId":"station-003573","note":"歯科　小児歯科　歯科口腔外科"},{"id":"medical-2-8584","name":"医療法人社団信和会　阿佐ヶ谷眼科","categoryId":"medical","categoryLabel":"医疗","lat":35.700309,"lng":139.635495,"stationId":"station-003619","note":"眼科"},{"id":"medical-2-7516","name":"医療法人社団健光会　松本整形外科","categoryId":"medical","categoryLabel":"医疗","lat":35.706786,"lng":139.646231,"stationId":"station-003573","note":"整形外科　理学診療科"},{"id":"medical-2-7664","name":"医療法人社団光智会　能戸クリニック","categoryId":"medical","categoryLabel":"医疗","lat":35.713088,"lng":139.650577,"stationId":"station-003473","note":"内科　消化器科　神経科　皮膚科　小児科　精神科　心療内科　外科"},{"id":"medical-2-7086","name":"医療法人社団円祐会　塩入医院","categoryId":"medical","categoryLabel":"医疗","lat":35.701299,"lng":139.635779,"stationId":"station-003619","note":"精神科　心療内科"},{"id":"medical-2-9859","name":"医療法人社団別府医院","categoryId":"medical","categoryLabel":"医疗","lat":35.714512,"lng":139.634082,"stationId":"station-003451","note":"内科　小児科　皮膚科"},{"id":"medical-3-10271","name":"医療法人社団利光会　南阿佐谷ファミリー歯科","categoryId":"medical","categoryLabel":"医疗","lat":35.700971,"lng":139.636073,"stationId":"station-003619","note":"歯科　矯正歯科　小児歯科　歯科口腔外科"},{"id":"medical-2-9952","name":"医療法人社団北嶺会　林医院","categoryId":"medical","categoryLabel":"医疗","lat":35.70823,"lng":139.651554,"stationId":"station-003573","note":"内科　外科　産婦人科"},{"id":"medical-2-9170","name":"医療法人社団千年会　やはたクリニック","categoryId":"medical","categoryLabel":"医疗","lat":35.713219,"lng":139.650798,"stationId":"station-003473","note":"内科　小児科　整形外科　理学診療科"},{"id":"medical-3-9693","name":"医療法人社団博成会　川崎歯科クリニック","categoryId":"medical","categoryLabel":"医疗","lat":35.709629,"lng":139.650701,"stationId":"station-003573","note":"歯科　矯正歯科　小児歯科　歯科口腔外科"},{"id":"medical-2-10410","name":"医療法人社団和久慈会　鳥海ペインクリニック","categoryId":"medical","categoryLabel":"医疗","lat":35.720098,"lng":139.652805,"stationId":"station-003473","note":"内科　消化器科　外科　肛門科　整形外科　麻酔科"},{"id":"medical-3-9751","name":"医療法人社団帆奈会　やまむら歯科医院","categoryId":"medical","categoryLabel":"医疗","lat":35.722515,"lng":139.625085,"stationId":"station-003444","note":"歯科　矯正歯科　小児歯科　歯科口腔外科"},{"id":"medical-3-9848","name":"医療法人社団平島会　平島歯科クリニック","categoryId":"medical","categoryLabel":"医疗","lat":35.704452,"lng":139.635857,"stationId":"station-003574","note":"歯科　小児歯科　矯正歯科　歯科口腔外科"},{"id":"medical-3-7800","name":"医療法人社団康仁会　協立歯科","categoryId":"medical","categoryLabel":"医疗","lat":35.723229,"lng":139.63753,"stationId":"station-003451","note":"歯科　小児歯科　歯科口腔外科"},{"id":"medical-2-10158","name":"医療法人社団悠友会　天正堂クリニック","categoryId":"medical","categoryLabel":"医疗","lat":35.723552,"lng":139.655551,"stationId":"station-003473","note":"内科　アレルギー科　小児科"},{"id":"medical-2-6889","name":"医療法人社団愛誠会　のがたクリニック","categoryId":"medical","categoryLabel":"医疗","lat":35.709895,"lng":139.65477,"stationId":"station-003573","note":"内科　外科　小児科"},{"id":"medical-3-7417","name":"医療法人社団慶劫会　レジデンス歯科医院","categoryId":"medical","categoryLabel":"医疗","lat":35.708231,"lng":139.644503,"stationId":"station-003573","note":"歯科"},{"id":"medical-2-8460","name":"医療法人社団昇陽会　高円寺すずきクリニック","categoryId":"medical","categoryLabel":"医疗","lat":35.706978,"lng":139.650433,"stationId":"station-003573","note":"内科　循環器内科　泌尿器科　人工透析内科"},{"id":"medical-3-8461","name":"医療法人社団昌応会　おもての歯科医院","categoryId":"medical","categoryLabel":"医疗","lat":35.70697,"lng":139.651291,"stationId":"station-003573","note":"歯科　矯正歯科"},{"id":"medical-3-10035","name":"医療法人社団明亮会　ひらの歯科医院","categoryId":"medical","categoryLabel":"医疗","lat":35.703558,"lng":139.650285,"stationId":"station-003573","note":"歯科　小児歯科　歯科口腔外科"},{"id":"medical-3-9981","name":"医療法人社団明啓会　ヤマモトデンタルクリニック高円寺","categoryId":"medical","categoryLabel":"医疗","lat":35.702408,"lng":139.649461,"stationId":"station-003573","note":"歯科　小児歯科"},{"id":"medical-2-10015","name":"医療法人社団明篤会　沖津医院","categoryId":"medical","categoryLabel":"医疗","lat":35.723769,"lng":139.638327,"stationId":"station-003451","note":"内科　循環器科　消化器科　神経内科　皮膚科　理学診療科"},{"id":"medical-3-8872","name":"医療法人社団晴恵会　川本歯科クリニック","categoryId":"medical","categoryLabel":"医疗","lat":35.706557,"lng":139.63932,"stationId":"station-003574","note":"歯科　小児歯科　歯科口腔外科"},{"id":"medical-2-10174","name":"医療法人社団有香会　稲葉クリニック","categoryId":"medical","categoryLabel":"医疗","lat":35.702278,"lng":139.635952,"stationId":"station-003574","note":"形成外科　皮膚科"},{"id":"medical-3-9894","name":"医療法人社団朋優会　阿佐谷北歯科クリニック","categoryId":"medical","categoryLabel":"医疗","lat":35.705598,"lng":139.636938,"stationId":"station-003574","note":"歯科　小児歯科　矯正歯科"},{"id":"medical-2-9533","name":"医療法人社団東京白報会　すぎなみ在宅診療所","categoryId":"medical","categoryLabel":"医疗","lat":35.70697,"lng":139.650446,"stationId":"station-003573","note":"内科　皮膚科　精神科　眼科　耳鼻いんこう科"},{"id":"medical-2-8499","name":"医療法人社団松野会　松野医院","categoryId":"medical","categoryLabel":"医疗","lat":35.72259,"lng":139.637274,"stationId":"station-003451","note":"小児科"},{"id":"medical-3-7018","name":"医療法人社団栄相会　深田クリニック","categoryId":"medical","categoryLabel":"医疗","lat":35.706102,"lng":139.650312,"stationId":"station-003573","note":"歯科"},{"id":"medical-3-8007","name":"医療法人社団桜翔会　阿佐ヶ谷おとの歯クリニック","categoryId":"medical","categoryLabel":"医疗","lat":35.714803,"lng":139.63288,"stationId":"station-003451","note":"歯科　矯正歯科　小児歯科　歯科口腔外科"},{"id":"medical-2-7151","name":"医療法人社団楽育会　小池小児科医院","categoryId":"medical","categoryLabel":"医疗","lat":35.719377,"lng":139.646714,"stationId":"station-003453","note":"アレルギー科　小児科"},{"id":"medical-3-7055","name":"医療法人社団永眞会　いとなが歯科","categoryId":"medical","categoryLabel":"医疗","lat":35.718967,"lng":139.652656,"stationId":"station-003473","note":"歯科"},{"id":"medical-2-9183","name":"医療法人社団泉樹会ホームクリニックなかの","categoryId":"medical","categoryLabel":"医疗","lat":35.723011,"lng":139.642631,"stationId":"station-003451","note":"内科　腎臓内科"},{"id":"medical-3-8558","name":"医療法人社団浄生会　下井草歯科医院","categoryId":"medical","categoryLabel":"医疗","lat":35.72352,"lng":139.625025,"stationId":"station-003444","note":"歯科　小児歯科　矯正歯科　歯科口腔外科"},{"id":"medical-3-9501","name":"医療法人社団渡辺会　大場歯科クリニック","categoryId":"medical","categoryLabel":"医疗","lat":35.711453,"lng":139.643259,"stationId":"station-003573","note":"歯科　小児歯科"},{"id":"medical-2-9502","name":"医療法人社団渡辺会　大場診療所","categoryId":"medical","categoryLabel":"医疗","lat":35.711703,"lng":139.644213,"stationId":"station-003573","note":"内科　循環器科　小児科　放射線科　胃腸科"},{"id":"medical-3-10483","name":"医療法人社団滉和会　高円寺おやなぎ歯科","categoryId":"medical","categoryLabel":"医疗","lat":35.70046,"lng":139.647303,"stationId":"station-003632","note":"歯科　矯正歯科　小児歯科　歯科口腔外科"},{"id":"medical-3-8389","name":"医療法人社団潤真会　カクデンタルクリニック","categoryId":"medical","categoryLabel":"医疗","lat":35.703698,"lng":139.649873,"stationId":"station-003573","note":"歯科　矯正歯科　小児歯科"},{"id":"medical-2-8258","name":"医療法人社団珠光会　ＢＳＬ−４８珠光会Ｃｌｉｎｉｃ","categoryId":"medical","categoryLabel":"医疗","lat":35.709564,"lng":139.634673,"stationId":"station-003574","note":"内科　外科"},{"id":"medical-3-8675","name":"医療法人社団真由会　三宅歯科医院","categoryId":"medical","categoryLabel":"医疗","lat":35.71919,"lng":139.652441,"stationId":"station-003473","note":"歯科　矯正歯科　小児歯科　歯科口腔外科"},{"id":"medical-3-8684","name":"医療法人社団神作デンタルオフィス　神作歯科医院","categoryId":"medical","categoryLabel":"医疗","lat":35.705286,"lng":139.638521,"stationId":"station-003574","note":"歯科"},{"id":"medical-2-7326","name":"医療法人社団窪田クリニック","categoryId":"medical","categoryLabel":"医疗","lat":35.707676,"lng":139.64915,"stationId":"station-003573","note":"外科　内科　婦人科　消化器内科　腎臓内科　肛門外科"},{"id":"medical-3-8010","name":"医療法人社団笹乃会　石川歯科クリニック","categoryId":"medical","categoryLabel":"医疗","lat":35.707263,"lng":139.650244,"stationId":"station-003573","note":"歯科　小児歯科　矯正歯科"},{"id":"medical-2-9901","name":"医療法人社団芳雅会　高円寺駅前皮膚科","categoryId":"medical","categoryLabel":"医疗","lat":35.704676,"lng":139.649808,"stationId":"station-003573","note":"皮膚科"},{"id":"medical-2-7075","name":"医療法人社団英佑会　矢部医院","categoryId":"medical","categoryLabel":"医疗","lat":35.716544,"lng":139.636475,"stationId":"station-003451","note":"内科　小児科　循環器内科"},{"id":"medical-3-9031","name":"医療法人社団誠右会　アスナデンタルクリニック","categoryId":"medical","categoryLabel":"医疗","lat":35.703373,"lng":139.626394,"stationId":"station-003577","note":"歯科　矯正歯科　小児歯科　歯科口腔外科"},{"id":"medical-2-9910","name":"医療法人社団豊医会　ちひろこどもクリニック","categoryId":"medical","categoryLabel":"医疗","lat":35.718737,"lng":139.652239,"stationId":"station-003473","note":"内科　小児科"},{"id":"medical-2-10284","name":"医療法人社団里翠会　井上耳鼻咽喉科","categoryId":"medical","categoryLabel":"医疗","lat":35.701973,"lng":139.649425,"stationId":"station-003573","note":"耳鼻咽喉科"},{"id":"medical-2-10044","name":"医療法人社団野﨑クリニック","categoryId":"medical","categoryLabel":"医疗","lat":35.704551,"lng":139.635761,"stationId":"station-003574","note":"内科　精神科　神経科　神経内科　心療内科"},{"id":"medical-2-6869","name":"医療法人社団阿佐谷クリニック","categoryId":"medical","categoryLabel":"医疗","lat":35.709338,"lng":139.636513,"stationId":"station-003574","note":"内科　整形外科　消化器内科　循環器内科　呼吸器内科　リハビリテーション科　放射線科　糖尿病内科"},{"id":"medical-2-9453","name":"医療法人社団鶴翔会　つるい整形外科","categoryId":"medical","categoryLabel":"医疗","lat":35.720261,"lng":139.653437,"stationId":"station-003473","note":"整形外科　理学診療科"},{"id":"medical-3-6141","name":"医療法人社団ＣＯＭＥ　三浦矯正歯科","categoryId":"medical","categoryLabel":"医疗","lat":35.70294,"lng":139.649459,"stationId":"station-003573","note":"矯正歯科"},{"id":"medical-3-6161","name":"医療法人社団ＦＤＯ　こみやま歯科","categoryId":"medical","categoryLabel":"医疗","lat":35.723087,"lng":139.639515,"stationId":"station-003451","note":"歯科　矯正歯科　小児歯科　歯科口腔外科"},{"id":"medical-3-6309","name":"医療法人社団ＷＤＣ　若宮歯科医院","categoryId":"medical","categoryLabel":"医疗","lat":35.719702,"lng":139.645862,"stationId":"station-003453","note":"歯科　小児歯科　矯正歯科　歯科口腔外科"},{"id":"medical-3-18765","name":"南歯科医院","categoryId":"medical","categoryLabel":"医疗","lat":35.701233,"lng":139.647705,"stationId":"station-003632","note":"歯科　小児歯科"},{"id":"medical-2-12485","name":"原内科・放射線科","categoryId":"medical","categoryLabel":"医疗","lat":35.70387,"lng":139.638274,"stationId":"station-003574","note":"内科　消化器科　放射線科"},{"id":"medical-3-20419","name":"友内歯科医院","categoryId":"medical","categoryLabel":"医疗","lat":35.718753,"lng":139.653096,"stationId":"station-003473","note":"歯科　小児歯科"},{"id":"medical-2-16528","name":"双泉会クリニックすぎなみ","categoryId":"medical","categoryLabel":"医疗","lat":35.700474,"lng":139.635281,"stationId":"station-003619","note":"内科"},{"id":"medical-2-13780","name":"司馬内科医院","categoryId":"medical","categoryLabel":"医疗","lat":35.709629,"lng":139.650701,"stationId":"station-003573","note":"内科"},{"id":"medical-3-11710","name":"吉岡歯科","categoryId":"medical","categoryLabel":"医疗","lat":35.710311,"lng":139.648281,"stationId":"station-003573","note":"歯科　矯正歯科"},{"id":"medical-3-11711","name":"吉岡歯科","categoryId":"medical","categoryLabel":"医疗","lat":35.702879,"lng":139.651249,"stationId":"station-003573","note":"歯科　小児歯科"},{"id":"medical-2-11778","name":"吉田医院小児科皮フ科","categoryId":"medical","categoryLabel":"医疗","lat":35.708081,"lng":139.634771,"stationId":"station-003574","note":"小児科　皮膚科　内科"},{"id":"medical-3-20089","name":"味村歯科医院","categoryId":"medical","categoryLabel":"医疗","lat":35.701382,"lng":139.631339,"stationId":"station-003619","note":"歯科"},{"id":"medical-3-20723","name":"和光歯科医院","categoryId":"medical","categoryLabel":"医疗","lat":35.723611,"lng":139.625777,"stationId":"station-003444","note":"歯科"},{"id":"medical-2-19979","name":"堀田眼科医院","categoryId":"medical","categoryLabel":"医疗","lat":35.720036,"lng":139.652994,"stationId":"station-003473","note":"眼科"},{"id":"medical-3-19988","name":"堀部歯科医院","categoryId":"medical","categoryLabel":"医疗","lat":35.705274,"lng":139.633718,"stationId":"station-003574","note":"歯科　小児歯科　歯科口腔外科"},{"id":"medical-2-10903","name":"塩崎クリニック","categoryId":"medical","categoryLabel":"医疗","lat":35.72482,"lng":139.645247,"stationId":"station-003453","note":"内科　外科　肛門科　胃腸科"},{"id":"medical-3-11202","name":"夏目歯科医院","categoryId":"medical","categoryLabel":"医疗","lat":35.701266,"lng":139.636844,"stationId":"station-003619","note":"歯科"},{"id":"medical-3-16804","name":"大久保歯科クリニック","categoryId":"medical","categoryLabel":"医疗","lat":35.720284,"lng":139.652727,"stationId":"station-003473","note":"歯科"},{"id":"medical-2-17707","name":"天沼きたがわ内科","categoryId":"medical","categoryLabel":"医疗","lat":35.716687,"lng":139.627276,"stationId":"station-003444","note":"内科　神経内科　糖尿病内科"},{"id":"medical-2-16705","name":"太田整形外科","categoryId":"medical","categoryLabel":"医疗","lat":35.722696,"lng":139.629878,"stationId":"station-003444","note":"リウマチ科　整形外科　理学診療科　皮膚科"},{"id":"medical-3-10933","name":"奥田歯科医院","categoryId":"medical","categoryLabel":"医疗","lat":35.723734,"lng":139.650391,"stationId":"station-003453","note":"歯科"},{"id":"medical-2-11933","name":"宮嶋メディカルクリニック","categoryId":"medical","categoryLabel":"医疗","lat":35.71829,"lng":139.649972,"stationId":"station-003473","note":"内科　呼吸器内科　アレルギー科　皮膚科"},{"id":"medical-2-11921","name":"宮川整形外科内科","categoryId":"medical","categoryLabel":"医疗","lat":35.718361,"lng":139.625741,"stationId":"station-003444","note":"内科　整形外科　リハビリテーション科"},{"id":"medical-2-11204","name":"家田医院","categoryId":"medical","categoryLabel":"医疗","lat":35.700474,"lng":139.638348,"stationId":"station-003619","note":"内科　外科　泌尿器科"},{"id":"medical-2-14541","name":"小川クリニック","categoryId":"medical","categoryLabel":"医疗","lat":35.71474,"lng":139.648509,"stationId":"station-003473","note":"内科　リウマチ科　歯科"},{"id":"medical-3-14645","name":"小木曽歯科医院","categoryId":"medical","categoryLabel":"医疗","lat":35.719106,"lng":139.636916,"stationId":"station-003451","note":"歯科"},{"id":"medical-2-14680","name":"小林眼科医院","categoryId":"medical","categoryLabel":"医疗","lat":35.720409,"lng":139.65411,"stationId":"station-003473","note":"眼科"},{"id":"medical-3-13678","name":"山中歯科医院","categoryId":"medical","categoryLabel":"医疗","lat":35.718561,"lng":139.626513,"stationId":"station-003444","note":"歯科　小児歯科"},{"id":"medical-2-13685","name":"山田医院","categoryId":"medical","categoryLabel":"医疗","lat":35.704465,"lng":139.639891,"stationId":"station-003574","note":"内科　神経科"},{"id":"medical-2-13823","name":"市川クリニック","categoryId":"medical","categoryLabel":"医疗","lat":35.706145,"lng":139.650955,"stationId":"station-003573","note":"産婦人科"},{"id":"medical-3-15107","name":"新海歯科医院","categoryId":"medical","categoryLabel":"医疗","lat":35.71999,"lng":139.648322,"stationId":"station-003453","note":"歯科"},{"id":"medical-3-18960","name":"日野浦歯科医院","categoryId":"medical","categoryLabel":"医疗","lat":35.724844,"lng":139.637635,"stationId":"station-003451","note":"歯科"},{"id":"medical-2-20113","name":"明治大学中野診療所","categoryId":"medical","categoryLabel":"医疗","lat":35.707183,"lng":139.659539,"stationId":"nakano","note":"内科"},{"id":"medical-2-20129","name":"明野眼科","categoryId":"medical","categoryLabel":"医疗","lat":35.722259,"lng":139.63734,"stationId":"station-003451","note":"眼科"},{"id":"medical-2-16519","name":"曽根クリニック","categoryId":"medical","categoryLabel":"医疗","lat":35.724586,"lng":139.635762,"stationId":"station-003451","note":"精神科　心療内科"},{"id":"medical-3-19851","name":"望月歯科","categoryId":"medical","categoryLabel":"医疗","lat":35.706389,"lng":139.649037,"stationId":"station-003573","note":"歯科　小児歯科　矯正歯科　歯科口腔外科"},{"id":"medical-3-20143","name":"木下歯科医院","categoryId":"medical","categoryLabel":"医疗","lat":35.709884,"lng":139.626473,"stationId":"station-003577","note":"歯科"},{"id":"medical-2-20161","name":"木村医院","categoryId":"medical","categoryLabel":"医疗","lat":35.708321,"lng":139.634967,"stationId":"station-003574","note":"内科　外科　胃腸科"},{"id":"medical-3-20171","name":"木村歯科医院","categoryId":"medical","categoryLabel":"医疗","lat":35.711681,"lng":139.628915,"stationId":"station-003574","note":"歯科"},{"id":"medical-2-15592","name":"杉並区立高円寺保健センター","categoryId":"medical","categoryLabel":"医疗","lat":35.701419,"lng":139.645823,"stationId":"station-003632","note":"内科　小児科　歯科"},{"id":"medical-2-15595","name":"杉並国際クリニック","categoryId":"medical","categoryLabel":"医疗","lat":35.703531,"lng":139.648227,"stationId":"station-003573","note":"内科　精神科　神経科　心療内科　アレルギー科　皮膚科　リハビリテーション科　リウマチ科"},{"id":"medical-3-15604","name":"杉野歯科医院","categoryId":"medical","categoryLabel":"医疗","lat":35.700609,"lng":139.641755,"stationId":"station-003619","note":"歯科　小児歯科　歯科口腔外科"},{"id":"medical-2-16683","name":"村島医院","categoryId":"medical","categoryLabel":"医疗","lat":35.700066,"lng":139.649122,"stationId":"station-003632","note":"内科　消化器内科　循環器内科　呼吸器内科　神経内科　性感染症内科"},{"id":"medical-2-16684","name":"村島医院在宅診療","categoryId":"medical","categoryLabel":"医疗","lat":35.700066,"lng":139.649122,"stationId":"station-003632","note":"内科　脳神経内科"},{"id":"medical-3-16680","name":"村田歯科医院","categoryId":"medical","categoryLabel":"医疗","lat":35.703789,"lng":139.648507,"stationId":"station-003573","note":"歯科　小児歯科"},{"id":"medical-2-18114","name":"東京ビジョンアイクリニック阿佐ヶ谷","categoryId":"medical","categoryLabel":"医疗","lat":35.704792,"lng":139.636118,"stationId":"station-003574","note":"眼科"},{"id":"medical-3-14758","name":"松井矯正歯科クリニック","categoryId":"medical","categoryLabel":"医疗","lat":35.710307,"lng":139.638362,"stationId":"station-003574","note":"矯正歯科　小児歯科"},{"id":"medical-2-14805","name":"松崎皮フ科","categoryId":"medical","categoryLabel":"医疗","lat":35.720284,"lng":139.652727,"stationId":"station-003473","note":"皮膚科"},{"id":"medical-3-14771","name":"松浦歯科医院","categoryId":"medical","categoryLabel":"医疗","lat":35.704048,"lng":139.649383,"stationId":"station-003573","note":"歯科　小児歯科　歯科口腔外科"},{"id":"medical-2-14875","name":"松野医院","categoryId":"medical","categoryLabel":"医疗","lat":35.712063,"lng":139.631888,"stationId":"station-003574","note":"小児科"},{"id":"medical-2-20557","name":"林医院","categoryId":"medical","categoryLabel":"医疗","lat":35.700217,"lng":139.647974,"stationId":"station-003632","note":"内科　小児科　循環器科"},{"id":"medical-2-20577","name":"林整形外科","categoryId":"medical","categoryLabel":"医疗","lat":35.711055,"lng":139.659539,"stationId":"nakano","note":"整形外科　理学診療科"},{"id":"medical-3-19033","name":"柏井歯科医院","categoryId":"medical","categoryLabel":"医疗","lat":35.712819,"lng":139.632706,"stationId":"station-003574","note":"歯科"},{"id":"medical-3-20399","name":"柳沢歯科クリニック","categoryId":"medical","categoryLabel":"医疗","lat":35.702573,"lng":139.656477,"stationId":"station-003628","note":"歯科　小児歯科"},{"id":"medical-3-14047","name":"柴田歯科医院","categoryId":"medical","categoryLabel":"医疗","lat":35.700063,"lng":139.634473,"stationId":"station-003619","note":"歯科"},{"id":"medical-2-11329","name":"柿田医院","categoryId":"medical","categoryLabel":"医疗","lat":35.719523,"lng":139.626401,"stationId":"station-003444","note":"内科　小児科　小児外科"},{"id":"medical-3-15313","name":"森歯科医院","categoryId":"medical","categoryLabel":"医疗","lat":35.703271,"lng":139.644355,"stationId":"station-003573","note":"歯科"},{"id":"medical-3-15071","name":"植田歯科","categoryId":"medical","categoryLabel":"医疗","lat":35.709927,"lng":139.649542,"stationId":"station-003573","note":"歯科　矯正歯科　小児歯科　歯科口腔外科"},{"id":"medical-2-10952","name":"横山高円寺南医院","categoryId":"medical","categoryLabel":"医疗","lat":35.704198,"lng":139.651054,"stationId":"station-003573","note":"内科　消化器内科　循環器内科"},{"id":"medical-3-10961","name":"横川歯科医院","categoryId":"medical","categoryLabel":"医疗","lat":35.712402,"lng":139.639936,"stationId":"station-003574","note":"歯科　小児歯科　矯正歯科"},{"id":"medical-2-12013","name":"橋本医院","categoryId":"medical","categoryLabel":"医疗","lat":35.71811,"lng":139.655839,"stationId":"station-003473","note":"内科　消化器科"},{"id":"medical-3-12019","name":"橋本歯科医院","categoryId":"medical","categoryLabel":"医疗","lat":35.717309,"lng":139.655955,"stationId":"station-003473","note":"歯科"},{"id":"medical-3-13889","name":"歯科三枝","categoryId":"medical","categoryLabel":"医疗","lat":35.706055,"lng":139.636297,"stationId":"station-003574","note":"歯科"},{"id":"medical-3-13881","name":"歯科奥村医院","categoryId":"medical","categoryLabel":"医疗","lat":35.722045,"lng":139.652532,"stationId":"station-003473","note":"歯科"},{"id":"medical-2-11238","name":"河北サテライトクリニック","categoryId":"medical","categoryLabel":"医疗","lat":35.705286,"lng":139.638521,"stationId":"station-003574","note":"皮膚科　眼科　内科　小児科"},{"id":"medical-2-11239","name":"河北ファミリークリニック南阿佐谷","categoryId":"medical","categoryLabel":"医疗","lat":35.700711,"lng":139.636008,"stationId":"station-003619","note":"内科　小児科"},{"id":"medical-2-11241","name":"河北健診クリニック","categoryId":"medical","categoryLabel":"医疗","lat":35.704581,"lng":139.650127,"stationId":"station-003573","note":"内科"},{"id":"medical-1-11242","name":"河北総合病院","categoryId":"medical","categoryLabel":"医疗","lat":35.706821,"lng":139.638866,"stationId":"station-003574","note":"内科　呼吸器内科　消化器内科　循環器内科　糖尿病　内分泌　代謝内科　腎臓内科　精神科　神経内科　リウマチ科　外科　消化器外科　整形外科　脳神経外科　呼吸器外科　心臓血管外科　眼科　耳鼻いんこう科　皮膚科　泌尿器科　リハビリ科　放射線科　麻酔科　救急科"},{"id":"medical-1-11243","name":"河北総合病院分院","categoryId":"medical","categoryLabel":"医疗","lat":35.706675,"lng":139.637919,"stationId":"station-003574","note":"内科　精神科　皮膚科　リハビリ科　放射線科　循環器内科　呼吸器内科　消化器内科　神経内科　糖尿病　内分泌　代謝内科　腎臓内科　感染症内科　血液内科　リウマチ科　アレルギー科"},{"id":"medical-2-11244","name":"河北透析クリニック","categoryId":"medical","categoryLabel":"医疗","lat":35.708559,"lng":139.637654,"stationId":"station-003574","note":"内科"},{"id":"medical-2-11214","name":"河合耳鼻咽喉科医院","categoryId":"medical","categoryLabel":"医疗","lat":35.704596,"lng":139.654302,"stationId":"station-003573","note":"耳鼻咽喉科　気管食道科"},{"id":"medical-3-11225","name":"河村歯科","categoryId":"medical","categoryLabel":"医疗","lat":35.702754,"lng":139.650229,"stationId":"station-003573","note":"歯科"},{"id":"medical-2-11224","name":"河村眼科","categoryId":"medical","categoryLabel":"医疗","lat":35.702754,"lng":139.650229,"stationId":"station-003573","note":"眼科　小児眼科"},{"id":"medical-2-14893","name":"沼袋藤浪内科医院","categoryId":"medical","categoryLabel":"医疗","lat":35.718142,"lng":139.659413,"stationId":"station-003475","note":"糖尿病内科　循環器内科　内分泌内科　アレルギー科　内科小児科"},{"id":"medical-3-16422","name":"浅香歯科医院","categoryId":"medical","categoryLabel":"医疗","lat":35.719453,"lng":139.652819,"stationId":"station-003473","note":"歯科　小児歯科"},{"id":"medical-2-19456","name":"浜野眼科医院","categoryId":"medical","categoryLabel":"医疗","lat":35.719667,"lng":139.64539,"stationId":"station-003453","note":"眼科"},{"id":"medical-2-15735","name":"清水クリニック","categoryId":"medical","categoryLabel":"医疗","lat":35.703659,"lng":139.650734,"stationId":"station-003573","note":"精神科　心療内科　漢方内科"},{"id":"medical-2-15727","name":"清見内科クリニック","categoryId":"medical","categoryLabel":"医疗","lat":35.707467,"lng":139.650165,"stationId":"station-003573","note":"内科　小児科　胃腸科　放射線科"},{"id":"medical-3-17114","name":"滝川歯科医院","categoryId":"medical","categoryLabel":"医疗","lat":35.713188,"lng":139.638718,"stationId":"station-003574","note":"歯科"},{"id":"medical-2-12291","name":"熊谷医院","categoryId":"medical","categoryLabel":"医疗","lat":35.724243,"lng":139.638386,"stationId":"station-003451","note":"内科　放射線科"},{"id":"medical-2-18552","name":"特別養護老人ホーム　しらさぎホーム","categoryId":"medical","categoryLabel":"医疗","lat":35.720169,"lng":139.632081,"stationId":"station-003451","note":"内科　神経科"},{"id":"medical-2-18561","name":"特別養護老人ホーム　マイルドハート高円寺医務室","categoryId":"medical","categoryLabel":"医疗","lat":35.709061,"lng":139.657767,"stationId":"nakano","note":"内科　精神科　整形外科"},{"id":"medical-3-17763","name":"田上歯科医院","categoryId":"medical","categoryLabel":"医疗","lat":35.714611,"lng":139.652843,"stationId":"station-003473","note":"歯科"},{"id":"medical-3-17833","name":"田中歯科医院","categoryId":"medical","categoryLabel":"医疗","lat":35.705979,"lng":139.63138,"stationId":"station-003574","note":"歯科　小児歯科　矯正歯科　歯科口腔外科"},{"id":"medical-2-17861","name":"田島眼科クリニック","categoryId":"medical","categoryLabel":"医疗","lat":35.703303,"lng":139.650394,"stationId":"station-003573","note":"眼科"},{"id":"medical-2-19089","name":"白浜医院","categoryId":"medical","categoryLabel":"医疗","lat":35.716373,"lng":139.653492,"stationId":"station-003473","note":"内科　精神科　心療内科"},{"id":"medical-2-20786","name":"盧内科","categoryId":"medical","categoryLabel":"医疗","lat":35.701488,"lng":139.639122,"stationId":"station-003619","note":"内科　小児科　消化器科　循環器科"},{"id":"medical-2-11570","name":"眼科　篠原医院","categoryId":"medical","categoryLabel":"医疗","lat":35.72469,"lng":139.625385,"stationId":"station-003444","note":"眼科"},{"id":"medical-3-20361","name":"矢島歯科医院","categoryId":"medical","categoryLabel":"医疗","lat":35.702676,"lng":139.636017,"stationId":"station-003574","note":"歯科"},{"id":"medical-3-20380","name":"矢野歯科口腔外科クリニック","categoryId":"medical","categoryLabel":"医疗","lat":35.718864,"lng":139.652252,"stationId":"station-003473","note":"歯科口腔外科　小児歯科　矯正歯科　歯科"},{"id":"medical-3-20383","name":"矢﨑歯科医院","categoryId":"medical","categoryLabel":"医疗","lat":35.712872,"lng":139.653585,"stationId":"station-003473","note":"歯科"},{"id":"medical-2-16156","name":"石川小児科医院","categoryId":"medical","categoryLabel":"医疗","lat":35.720331,"lng":139.63105,"stationId":"station-003444","note":"内科　小児科　精神科　皮膚科"},{"id":"medical-2-16114","name":"石森脳神経外科","categoryId":"medical","categoryLabel":"医疗","lat":35.717221,"lng":139.651187,"stationId":"station-003473","note":"内科　脳神経外科"},{"id":"medical-2-14091","name":"社会医療法人社団健友会　やまと診療所","categoryId":"medical","categoryLabel":"医疗","lat":35.710886,"lng":139.64965,"stationId":"station-003573","note":"内科　循環器科　消化器科　整形外科　呼吸器内科"},{"id":"medical-2-14175","name":"社会福祉法人杉樹会　さんじゅ阿佐谷診療所","categoryId":"medical","categoryLabel":"医疗","lat":35.705223,"lng":139.640529,"stationId":"station-003574","note":"内科"},{"id":"medical-3-10766","name":"稲葉歯科医院","categoryId":"medical","categoryLabel":"医疗","lat":35.702006,"lng":139.636929,"stationId":"station-003619","note":"歯科"},{"id":"medical-2-14022","name":"篠宮クリニック","categoryId":"medical","categoryLabel":"医疗","lat":35.701599,"lng":139.649374,"stationId":"station-003573","note":"内科　外科　整形外科　リハビリテーション科　脳神経外科"},{"id":"medical-3-19747","name":"米澤歯科医院","categoryId":"medical","categoryLabel":"医疗","lat":35.700433,"lng":139.643344,"stationId":"station-003632","note":"歯科　小児歯科　矯正歯科　歯科口腔外科"},{"id":"medical-2-13859","name":"糸田川クリニック","categoryId":"medical","categoryLabel":"医疗","lat":35.705783,"lng":139.651138,"stationId":"station-003573","note":"内科　精神科　神経科　心療内科"},{"id":"medical-3-18981","name":"納村歯科矯正クリニック","categoryId":"medical","categoryLabel":"医疗","lat":35.70615,"lng":139.635709,"stationId":"station-003574","note":"矯正歯科"},{"id":"medical-2-13964","name":"耳鼻咽喉科　奥平医院","categoryId":"medical","categoryLabel":"医疗","lat":35.719104,"lng":139.651537,"stationId":"station-003473","note":"アレルギー科　小児科　耳鼻咽喉科　小児耳鼻咽喉科"},{"id":"medical-2-19102","name":"肌のクリニック　高円寺院","categoryId":"medical","categoryLabel":"医疗","lat":35.703003,"lng":139.649145,"stationId":"station-003573","note":"皮膚科　美容皮膚科"},{"id":"medical-3-16470","name":"船坂歯科医院","categoryId":"medical","categoryLabel":"医疗","lat":35.718459,"lng":139.654274,"stationId":"station-003473","note":"歯科"},{"id":"medical-3-14210","name":"若井歯科医院","categoryId":"medical","categoryLabel":"医疗","lat":35.704676,"lng":139.649808,"stationId":"station-003573","note":"歯科"},{"id":"medical-3-12872","name":"荒牧歯科医院","categoryId":"medical","categoryLabel":"医疗","lat":35.709839,"lng":139.650148,"stationId":"station-003573","note":"歯科　歯科口腔外科　小児歯科　矯正歯科"},{"id":"medical-2-12873","name":"荒牧皮膚科","categoryId":"medical","categoryLabel":"医疗","lat":35.708767,"lng":139.649515,"stationId":"station-003573","note":"皮膚科　小児皮膚科　美容皮膚科"},{"id":"medical-2-11077","name":"荻窪三丁目クリニック","categoryId":"medical","categoryLabel":"医疗","lat":35.703195,"lng":139.626317,"stationId":"station-003577","note":"内科　精神科"},{"id":"medical-2-11079","name":"荻窪上田クリニック","categoryId":"medical","categoryLabel":"医疗","lat":35.702972,"lng":139.625934,"stationId":"station-003577","note":"内科　小児科　形成外科　皮膚科"},{"id":"medical-3-20483","name":"葉山歯科クリニック","categoryId":"medical","categoryLabel":"医疗","lat":35.72296,"lng":139.657653,"stationId":"station-003473","note":"歯科　矯正歯科　小児歯科　歯科口腔外科"},{"id":"medical-2-18454","name":"藤巻クリニック","categoryId":"medical","categoryLabel":"医疗","lat":35.706302,"lng":139.650905,"stationId":"station-003573","note":"内科　循環器内科"},{"id":"medical-3-18484","name":"藤田歯科医院","categoryId":"medical","categoryLabel":"医疗","lat":35.723516,"lng":139.637419,"stationId":"station-003451","note":"歯科口腔外科　小児歯科　歯科"},{"id":"medical-2-15833","name":"西公園前クリニック","categoryId":"medical","categoryLabel":"医疗","lat":35.707858,"lng":139.63326,"stationId":"station-003574","note":"内科　循環器科"},{"id":"medical-2-15841","name":"西山耳鼻咽喉科医院","categoryId":"medical","categoryLabel":"医疗","lat":35.720359,"lng":139.636492,"stationId":"station-003451","note":"耳鼻咽喉科　気管食道内科"},{"id":"medical-2-15884","name":"西川耳鼻咽喉科","categoryId":"medical","categoryLabel":"医疗","lat":35.722965,"lng":139.62508,"stationId":"station-003444","note":"耳鼻咽喉科"},{"id":"medical-2-11338","name":"角田外科医院","categoryId":"medical","categoryLabel":"医疗","lat":35.723885,"lng":139.62607,"stationId":"station-003444","note":"外科　整形外科　形成外科　泌尿器科　胃腸科"},{"id":"medical-3-16231","name":"赤坂歯科医院","categoryId":"medical","categoryLabel":"医疗","lat":35.707253,"lng":139.657979,"stationId":"nakano","note":"歯科　小児歯科"},{"id":"medical-2-12075","name":"近藤クリニック","categoryId":"medical","categoryLabel":"医疗","lat":35.702979,"lng":139.647157,"stationId":"station-003573","note":"内科　産婦人科"},{"id":"medical-3-17955","name":"都立家政南口歯科","categoryId":"medical","categoryLabel":"医疗","lat":35.721973,"lng":139.644561,"stationId":"station-003453","note":"歯科　小児歯科　歯科口腔外科　矯正歯科"},{"id":"medical-3-14255","name":"酒井歯科医院","categoryId":"medical","categoryLabel":"医疗","lat":35.72243,"lng":139.645009,"stationId":"station-003453","note":"歯科"},{"id":"medical-2-14391","name":"重福医院","categoryId":"medical","categoryLabel":"医疗","lat":35.71909,"lng":139.652661,"stationId":"station-003473","note":"内科　呼吸器科　アレルギー科"},{"id":"medical-3-20285","name":"野口歯科医院","categoryId":"medical","categoryLabel":"医疗","lat":35.706321,"lng":139.649481,"stationId":"station-003573","note":"歯科　矯正歯科"},{"id":"medical-2-20326","name":"野方こどもクリニック","categoryId":"medical","categoryLabel":"医疗","lat":35.723645,"lng":139.650893,"stationId":"station-003473","note":"アレルギー科　小児科"},{"id":"medical-3-20327","name":"野方じゅん歯科クリニック","categoryId":"medical","categoryLabel":"医疗","lat":35.721505,"lng":139.653447,"stationId":"station-003473","note":"歯科口腔外科　歯科　矯正歯科　小児歯科"},{"id":"medical-3-20329","name":"野方歯科","categoryId":"medical","categoryLabel":"医疗","lat":35.713192,"lng":139.659858,"stationId":"station-003475","note":"歯科"},{"id":"medical-2-20328","name":"野方駅内科","categoryId":"medical","categoryLabel":"医疗","lat":35.718333,"lng":139.653358,"stationId":"station-003473","note":"内科　循環器内科"},{"id":"medical-3-20270","name":"野間歯科医院","categoryId":"medical","categoryLabel":"医疗","lat":35.700842,"lng":139.636739,"stationId":"station-003619","note":"歯科"},{"id":"medical-2-20338","name":"野﨑医院","categoryId":"medical","categoryLabel":"医疗","lat":35.70607,"lng":139.640057,"stationId":"station-003574","note":"内科　精神科"},{"id":"medical-2-17606","name":"長谷川医院","categoryId":"medical","categoryLabel":"医疗","lat":35.719463,"lng":139.652752,"stationId":"station-003473","note":"内科　皮膚科　アレルギー科　小児科　外科　形成外科　麻酔科"},{"id":"medical-3-11508","name":"関根歯科診療所","categoryId":"medical","categoryLabel":"医疗","lat":35.721256,"lng":139.651126,"stationId":"station-003473","note":"歯科　矯正歯科　小児歯科　歯科口腔外科"},{"id":"medical-3-11520","name":"関谷歯科医院","categoryId":"medical","categoryLabel":"医疗","lat":35.724695,"lng":139.644038,"stationId":"station-003453","note":"歯科　矯正歯科　小児歯科"},{"id":"medical-3-4657","name":"阿佐ヶ谷つるが歯科・こども歯科","categoryId":"medical","categoryLabel":"医疗","lat":35.70032,"lng":139.637303,"stationId":"station-003619","note":"歯科　矯正歯科　小児歯科　歯科口腔外科"},{"id":"medical-3-4656","name":"阿佐ヶ谷シオン歯科・矯正歯科","categoryId":"medical","categoryLabel":"医疗","lat":35.705181,"lng":139.637492,"stationId":"station-003574","note":"歯科　矯正歯科　小児歯科　歯科口腔外科"},{"id":"medical-3-4658","name":"阿佐ヶ谷山口歯科","categoryId":"medical","categoryLabel":"医疗","lat":35.704946,"lng":139.638231,"stationId":"station-003574","note":"歯科　小児歯科　矯正歯科　歯科口腔外科"},{"id":"medical-2-4659","name":"阿佐ヶ谷純クリニック","categoryId":"medical","categoryLabel":"医疗","lat":35.700842,"lng":139.636048,"stationId":"station-003619","note":"精神科　神経科　神経内科"},{"id":"medical-3-4662","name":"阿佐谷北　松平歯科クリニック","categoryId":"medical","categoryLabel":"医疗","lat":35.705832,"lng":139.635397,"stationId":"station-003574","note":"歯科　小児歯科　歯科口腔外科"},{"id":"medical-3-4660","name":"阿佐谷歯科医院","categoryId":"medical","categoryLabel":"医疗","lat":35.701115,"lng":139.635731,"stationId":"station-003619","note":"歯科　矯正歯科"},{"id":"medical-2-14930","name":"障害者支援施設　マイルドハート高円寺医務室","categoryId":"medical","categoryLabel":"医疗","lat":35.709061,"lng":139.657767,"stationId":"nakano","note":"内科　精神科　整形外科"},{"id":"medical-2-16604","name":"霜山医院","categoryId":"medical","categoryLabel":"医疗","lat":35.721432,"lng":139.648388,"stationId":"station-003453","note":"内科　小児科"},{"id":"medical-2-16021","name":"青木医院","categoryId":"medical","categoryLabel":"医疗","lat":35.708476,"lng":139.654909,"stationId":"station-003573","note":"内科"},{"id":"medical-2-12885","name":"香取内科クリニック","categoryId":"medical","categoryLabel":"医疗","lat":35.703884,"lng":139.634707,"stationId":"station-003574","note":"内科　消化器科"},{"id":"medical-2-12899","name":"高円寺きたさんクリニック","categoryId":"medical","categoryLabel":"医疗","lat":35.706755,"lng":139.649758,"stationId":"station-003573","note":"内科　外科　泌尿器科"},{"id":"medical-2-12901","name":"高円寺ふじたクリニック","categoryId":"medical","categoryLabel":"医疗","lat":35.70651,"lng":139.649673,"stationId":"station-003573","note":"精神科　神経科　心療内科"},{"id":"medical-3-12902","name":"高円寺もうり歯科","categoryId":"medical","categoryLabel":"医疗","lat":35.705691,"lng":139.649352,"stationId":"station-003573","note":"歯科　小児歯科　歯科口腔外科"},{"id":"medical-3-12898","name":"高円寺オズ歯科室","categoryId":"medical","categoryLabel":"医疗","lat":35.708143,"lng":139.649579,"stationId":"station-003573","note":"歯科　小児歯科　矯正歯科　歯科口腔外科"},{"id":"medical-2-12900","name":"高円寺クリニック","categoryId":"medical","categoryLabel":"医疗","lat":35.704774,"lng":139.65065,"stationId":"station-003573","note":"精神科　神経科　神経内科"},{"id":"medical-3-12906","name":"高円寺北口歯科小児矯正歯科クリニック","categoryId":"medical","categoryLabel":"医疗","lat":35.707107,"lng":139.651788,"stationId":"station-003573","note":"歯科　小児歯科　矯正歯科　歯科口腔外科"},{"id":"medical-2-12905","name":"高円寺北眼科クリニック","categoryId":"medical","categoryLabel":"医疗","lat":35.705682,"lng":139.652963,"stationId":"station-003573","note":"眼科　小児眼科"},{"id":"medical-2-12904","name":"高円寺同愛診療所","categoryId":"medical","categoryLabel":"医疗","lat":35.707013,"lng":139.645484,"stationId":"station-003573","note":"内科　消化器科　放射線科"},{"id":"medical-2-12903","name":"高円寺駅前クリニック","categoryId":"medical","categoryLabel":"医疗","lat":35.705827,"lng":139.650575,"stationId":"station-003573","note":"内科　アレルギー科"},{"id":"medical-2-12962","name":"高崎医院","categoryId":"medical","categoryLabel":"医疗","lat":35.718182,"lng":139.652431,"stationId":"station-003473","note":"内科　消化器科　整形外科　理学診療科"},{"id":"medical-2-13044","name":"高梨医院","categoryId":"medical","categoryLabel":"医疗","lat":35.714512,"lng":139.647863,"stationId":"station-003473","note":"内科　小児科　循環器内科"},{"id":"medical-2-12999","name":"高田耳鼻咽喉科医院","categoryId":"medical","categoryLabel":"医疗","lat":35.719987,"lng":139.654064,"stationId":"station-003473","note":"小児科　耳鼻咽喉科"},{"id":"medical-3-13346","name":"鷺ノ宮あぜ歯科クリニック","categoryId":"medical","categoryLabel":"医疗","lat":35.723213,"lng":139.638306,"stationId":"station-003451","note":"歯科　小児歯科　歯科口腔外科　矯正歯科"},{"id":"medical-2-13348","name":"鷺ノ宮耳鼻咽喉科","categoryId":"medical","categoryLabel":"医疗","lat":35.723651,"lng":139.638578,"stationId":"station-003451","note":"耳鼻咽喉科"},{"id":"medical-3-13347","name":"鷺ノ宮駅南口歯科","categoryId":"medical","categoryLabel":"医疗","lat":35.721518,"lng":139.637398,"stationId":"station-003451","note":"歯科　矯正歯科　小児歯科"},{"id":"medical-2-13349","name":"鷺宮すこやか福祉センター","categoryId":"medical","categoryLabel":"医疗","lat":35.722042,"lng":139.640086,"stationId":"station-003451","note":"内科　小児科　歯科"},{"id":"medical-3-324","name":"ｓａｒａ歯科クリニック　野方","categoryId":"medical","categoryLabel":"医疗","lat":35.719339,"lng":139.651672,"stationId":"station-003473","note":"歯科　矯正歯科　小児歯科　歯科口腔外科"},{"id":"public-13115-21811","name":"コミュニティふらっと東原","categoryId":"public_service","categoryLabel":"公共服务","lat":35.715789,"lng":139.631499,"stationId":"station-003451","note":"杉並区下井草1-23-23"},{"id":"public-13115-21805","name":"コミュニティふらっと阿佐谷","categoryId":"public_service","categoryLabel":"公共服务","lat":35.706141,"lng":139.633752,"stationId":"station-003574","note":"杉並区阿佐谷北2-18-17"},{"id":"public-13115-21815","name":"コミュニティふらっと馬橋","categoryId":"public_service","categoryLabel":"公共服务","lat":35.701965,"lng":139.643895,"stationId":"station-003632","note":"杉並区高円寺南3-29-5"},{"id":"public-13114-21764","name":"大和区民活動センター","categoryId":"public_service","categoryLabel":"公共服务","lat":35.713551,"lng":139.648791,"stationId":"station-003473","note":"中野区大和町2-44-6"},{"id":"public-13115-21844","name":"杉並芸術会館","categoryId":"public_service","categoryLabel":"公共服务","lat":35.705914,"lng":139.654005,"stationId":"station-003573","note":"杉並区高円寺北2-1-2"},{"id":"public-13114-21792","name":"東山高齢者会館","categoryId":"public_service","categoryLabel":"公共服务","lat":35.721554,"lng":139.656635,"stationId":"station-003473","note":"中野区野方4-41-7"},{"id":"public-13115-21801","name":"産業商工会館","categoryId":"public_service","categoryLabel":"公共服务","lat":35.701754,"lng":139.635208,"stationId":"station-003619","note":"杉並区阿佐谷南3-2-19"},{"id":"public-13114-21785","name":"白鷺高齢者会館","categoryId":"public_service","categoryLabel":"公共服务","lat":35.718769,"lng":139.63576,"stationId":"station-003451","note":"中野区白鷺2-8-5"},{"id":"public-13114-21742","name":"若宮いこいの家","categoryId":"public_service","categoryLabel":"公共服务","lat":35.719952,"lng":139.648029,"stationId":"station-003453","note":"中野区若宮1-49-1"},{"id":"public-13114-21758","name":"若宮高齢者会館","categoryId":"public_service","categoryLabel":"公共服务","lat":35.715973,"lng":139.6431,"stationId":"station-003453","note":"中野区大和町4-51-11"},{"id":"public-13114-21796","name":"野方区民ホール","categoryId":"public_service","categoryLabel":"公共服务","lat":35.718098,"lng":139.653573,"stationId":"station-003473","note":"中野区野方5-3-1"},{"id":"public-13114-21797","name":"野方区民活動センター","categoryId":"public_service","categoryLabel":"公共服务","lat":35.718098,"lng":139.653553,"stationId":"station-003473","note":"中野区野方5-3-1"},{"id":"public-13114-21798","name":"野方区民活動センター分室","categoryId":"public_service","categoryLabel":"公共服务","lat":35.723656,"lng":139.65044,"stationId":"station-003453","note":"中野区丸山2-24-1-109"},{"id":"public-13114-21791","name":"野方高齢者会館","categoryId":"public_service","categoryLabel":"公共服务","lat":35.714527,"lng":139.656558,"stationId":"station-003473","note":"中野区野方2-29-12"},{"id":"public-13115-21804","name":"阿佐谷会議室","categoryId":"public_service","categoryLabel":"公共服务","lat":35.706134,"lng":139.633816,"stationId":"station-003574","note":"杉並区阿佐谷北2-18-17"},{"id":"public-13115-21803","name":"阿佐谷区民事務所","categoryId":"public_service","categoryLabel":"公共服务","lat":35.706134,"lng":139.633836,"stationId":"station-003574","note":"杉並区阿佐谷北2-18-17"},{"id":"public-13115-21802","name":"阿佐谷地域区民センター","categoryId":"public_service","categoryLabel":"公共服务","lat":35.705404,"lng":139.641216,"stationId":"station-003574","note":"杉並区阿佐谷北1-1-1"},{"id":"public-13115-21834","name":"馬橋会議室","categoryId":"public_service","categoryLabel":"公共服务","lat":35.701894,"lng":139.645328,"stationId":"station-003632","note":"杉並区高円寺南3-31-3"},{"id":"public-13115-21837","name":"高円寺北区民集会所","categoryId":"public_service","categoryLabel":"公共服务","lat":35.707687,"lng":139.6483,"stationId":"station-003573","note":"杉並区高円寺北3-25-9"},{"id":"public-13115-21828","name":"高円寺子どもセンター","categoryId":"public_service","categoryLabel":"公共服务","lat":35.701825,"lng":139.645254,"stationId":"station-003632","note":"杉並区高円寺南3-31-3"},{"id":"public-13114-21740","name":"鷺宮すこやか福祉センター","categoryId":"public_service","categoryLabel":"公共服务","lat":35.72179,"lng":139.640612,"stationId":"station-003451","note":"中野区若宮3-58-10"},{"id":"public-13114-21744","name":"鷺宮区民活動センター","categoryId":"public_service","categoryLabel":"公共服务","lat":35.723549,"lng":139.639636,"stationId":"station-003451","note":"中野区鷺宮3-22-5"},{"id":"public-13114-21745","name":"鷺宮区民活動センター分室","categoryId":"public_service","categoryLabel":"公共服务","lat":35.716839,"lng":139.63898,"stationId":"station-003451","note":"中野区白鷺1-4-27"},{"id":"public-13114-21748","name":"鷺宮地域包括支援センター","categoryId":"public_service","categoryLabel":"公共服务","lat":35.72176,"lng":139.640582,"stationId":"station-003451","note":"中野区若宮3-58-10"},{"id":"public-13114-21746","name":"鷺宮高齢者会館","categoryId":"public_service","categoryLabel":"公共服务","lat":35.72176,"lng":139.640602,"stationId":"station-003451","note":"中野区若宮3-58-10"},{"id":"public-13115-21814","name":"荻窪体育館","categoryId":"sports","categoryLabel":"体育设施","lat":35.702659,"lng":139.62695,"stationId":"station-003577","note":"杉並区荻窪3-47-2"},{"id":"public-13114-21743","name":"鷺宮スポーツ・コミュニティプラザ","categoryId":"sports","categoryLabel":"体育设施","lat":35.722069,"lng":139.636035,"stationId":"station-003451","note":"中野区白鷺3-1-13"}]
