[{"id":"public-13119-22111","name":"前野ホール集会室","categoryId":"community","categoryLabel":"社区设施","lat":35.769231,"lng":139.688745,"stationId":"station-003158","note":"板橋区前野町4-6-1"},{"id":"public-13120-22224","name":"北町地区区民館","categoryId":"community","categoryLabel":"社区设施","lat":35.767469,"lng":139.660257,"stationId":"station-003194","note":"練馬区北町2-26-1"},{"id":"public-13120-22216","name":"氷川台地区区民館","categoryId":"community","categoryLabel":"社区设施","lat":35.757011,"lng":139.667293,"stationId":"station-003261","note":"練馬区氷川台2-16-14"},{"id":"medical-2-419","name":"あいおいクリニック　イオンスタイル板橋前野町","categoryId":"medical","categoryLabel":"医疗","lat":35.771121,"lng":139.691762,"stationId":"station-003165","note":"内科　小歯　歯外　歯科　皮膚　矯正"},{"id":"medical-2-857","name":"いしかわ耳鼻咽喉科クリニック","categoryId":"medical","categoryLabel":"医疗","lat":35.756911,"lng":139.677231,"stationId":"station-003212","note":"耳鼻"},{"id":"medical-2-862","name":"いしだ内科ハートクリニック","categoryId":"medical","categoryLabel":"医疗","lat":35.750078,"lng":139.664196,"stationId":"station-003261","note":"内　循環器内"},{"id":"medical-2-966","name":"いわい耳鼻咽喉科クリニック","categoryId":"medical","categoryLabel":"医疗","lat":35.760893,"lng":139.673897,"stationId":"station-003212","note":"耳鼻"},{"id":"medical-2-1053","name":"うつみ医院","categoryId":"medical","categoryLabel":"医疗","lat":35.754014,"lng":139.687927,"stationId":"station-003223","note":"内科　小児　産婦"},{"id":"medical-3-1069","name":"うるしばら歯科クリニック","categoryId":"medical","categoryLabel":"医疗","lat":35.758687,"lng":139.661005,"stationId":"station-003228","note":"歯科　小児歯科　矯正歯科　歯科口腔外科"},{"id":"medical-3-1208","name":"おおたき歯科クリニック","categoryId":"medical","categoryLabel":"医疗","lat":35.766901,"lng":139.664776,"stationId":"station-003194","note":"歯科　歯科口腔外科　小児歯科　矯正歯科"},{"id":"medical-3-1213","name":"おおたけ歯科クリニック","categoryId":"medical","categoryLabel":"医疗","lat":35.767218,"lng":139.677182,"stationId":"station-003212","note":"小歯　歯外　歯科　矯正"},{"id":"medical-2-1237","name":"おおはし医院","categoryId":"medical","categoryLabel":"医疗","lat":35.755031,"lng":139.694231,"stationId":"station-003233","note":"こう　内科　外科　皮膚　胃腸"},{"id":"medical-3-1337","name":"おのざわ歯科クリニック","categoryId":"medical","categoryLabel":"医疗","lat":35.763542,"lng":139.679128,"stationId":"station-003212","note":"小歯　歯外　歯科　矯正"},{"id":"medical-3-1518","name":"かみいた歯科クリニック","categoryId":"medical","categoryLabel":"医疗","lat":35.761588,"lng":139.674403,"stationId":"station-003212","note":"小歯　歯外　歯科"},{"id":"medical-2-1523","name":"かみじょう整形外科","categoryId":"medical","categoryLabel":"医疗","lat":35.757854,"lng":139.661078,"stationId":"station-003228","note":"整形　リハビリ　リウマチ　皮"},{"id":"medical-3-1596","name":"きたまち歯科医院","categoryId":"medical","categoryLabel":"医疗","lat":35.768345,"lng":139.661296,"stationId":"station-003194","note":"歯科"},{"id":"medical-2-1623","name":"きむら整形外科・手のクリニック","categoryId":"medical","categoryLabel":"医疗","lat":35.751431,"lng":139.669868,"stationId":"station-003261","note":"整形　リハビリ"},{"id":"medical-3-1796","name":"けやき歯科クリニック","categoryId":"medical","categoryLabel":"医疗","lat":35.763362,"lng":139.678564,"stationId":"station-003212","note":"小歯　歯外　歯科"},{"id":"medical-3-1824","name":"こうじ歯科クリニック","categoryId":"medical","categoryLabel":"医疗","lat":35.772698,"lng":139.669024,"stationId":"station-003194","note":"小歯　歯科"},{"id":"medical-2-1848","name":"こくぶん医院","categoryId":"medical","categoryLabel":"医疗","lat":35.766798,"lng":139.666598,"stationId":"station-003194","note":"内　小児　神経内"},{"id":"medical-3-1939","name":"ごはんがたべたい歯科クリニック","categoryId":"medical","categoryLabel":"医疗","lat":35.756871,"lng":139.680461,"stationId":"station-003223","note":"歯科"},{"id":"medical-2-1998","name":"さいしょ小児科","categoryId":"medical","categoryLabel":"医疗","lat":35.753476,"lng":139.683224,"stationId":"station-003223","note":"内科　小児"},{"id":"medical-3-2093","name":"さくら歯科医院","categoryId":"medical","categoryLabel":"医疗","lat":35.759748,"lng":139.689676,"stationId":"station-003223","note":"小歯　歯科"},{"id":"medical-3-2107","name":"ささき歯科クリニック","categoryId":"medical","categoryLabel":"医疗","lat":35.755271,"lng":139.688603,"stationId":"station-003223","note":"小歯　歯外　歯科"},{"id":"medical-2-2163","name":"さめしま皮フ科","categoryId":"medical","categoryLabel":"医疗","lat":35.762464,"lng":139.690408,"stationId":"station-003223","note":"皮膚"},{"id":"medical-3-2173","name":"さわやか歯科","categoryId":"medical","categoryLabel":"医疗","lat":35.758061,"lng":139.6834,"stationId":"station-003223","note":"小歯　歯外　歯科　矯正"},{"id":"medical-3-2228","name":"しげまつ歯科医院","categoryId":"medical","categoryLabel":"医疗","lat":35.768138,"lng":139.693306,"stationId":"station-003193","note":"小歯　歯外　歯科　矯正"},{"id":"medical-3-2592","name":"たかだ歯科クリニック","categoryId":"medical","categoryLabel":"医疗","lat":35.759724,"lng":139.678817,"stationId":"station-003212","note":"小歯　歯外　歯科"},{"id":"medical-3-2619","name":"たかはし歯科クリニック","categoryId":"medical","categoryLabel":"医疗","lat":35.769547,"lng":139.660334,"stationId":"station-003194","note":"小歯　歯科"},{"id":"medical-2-2811","name":"つづきクリニック","categoryId":"medical","categoryLabel":"医疗","lat":35.771529,"lng":139.688599,"stationId":"station-003158","note":"乳外　内科　外科　消内　肛外"},{"id":"medical-2-2954","name":"ときわ台はしもと小児科アレルギー科","categoryId":"medical","categoryLabel":"医疗","lat":35.759341,"lng":139.689938,"stationId":"station-003223","note":"アレ　小児"},{"id":"medical-2-2953","name":"ときわ台クリニック","categoryId":"medical","categoryLabel":"医疗","lat":35.758463,"lng":139.688922,"stationId":"station-003223","note":"内科　胃腸"},{"id":"medical-2-2955","name":"ときわ台メディカルクリニック","categoryId":"medical","categoryLabel":"医疗","lat":35.764851,"lng":139.679591,"stationId":"station-003212","note":"内科"},{"id":"medical-2-2956","name":"ときわ台メンタルクリニック","categoryId":"medical","categoryLabel":"医疗","lat":35.759339,"lng":139.689631,"stationId":"station-003223","note":"内科　心内　精神"},{"id":"medical-3-2958","name":"ときわ台徳岡歯科医院","categoryId":"medical","categoryLabel":"医疗","lat":35.758449,"lng":139.690593,"stationId":"station-003223","note":"小歯　歯外　歯科　矯正"},{"id":"medical-3-2957","name":"ときわ台真帆歯科","categoryId":"medical","categoryLabel":"医疗","lat":35.75824,"lng":139.690035,"stationId":"station-003223","note":"小歯　歯外　歯科　矯正"},{"id":"medical-2-3372","name":"はちすクリニック","categoryId":"medical","categoryLabel":"医疗","lat":35.762982,"lng":139.676321,"stationId":"station-003212","note":"アレ　内科　小児"},{"id":"medical-2-3585","name":"ひろせ眼科クリニック","categoryId":"medical","categoryLabel":"医疗","lat":35.768381,"lng":139.689233,"stationId":"station-003165","note":"眼科"},{"id":"medical-3-3606","name":"ひろ歯科医院","categoryId":"medical","categoryLabel":"医疗","lat":35.765827,"lng":139.667496,"stationId":"station-003194","note":"歯科　小児歯科　矯正歯科　歯科口腔外科"},{"id":"medical-3-3686","name":"ふじもり歯科","categoryId":"medical","categoryLabel":"医疗","lat":35.751436,"lng":139.665758,"stationId":"station-003261","note":"歯科　小児歯科　矯正歯科"},{"id":"medical-2-3740","name":"ふるた小児クリニック","categoryId":"medical","categoryLabel":"医疗","lat":35.773463,"lng":139.660914,"stationId":"station-003194","note":"アレ　小児"},{"id":"medical-3-3798","name":"ほしの歯科クリニック","categoryId":"medical","categoryLabel":"医疗","lat":35.760936,"lng":139.674248,"stationId":"station-003212","note":"小歯　歯外　歯科"},{"id":"medical-3-3946","name":"まの歯科クリニック","categoryId":"medical","categoryLabel":"医疗","lat":35.754776,"lng":139.693451,"stationId":"station-003233","note":"小歯　歯外　歯科　矯正"},{"id":"medical-3-3977","name":"まるやま歯科クリニック","categoryId":"medical","categoryLabel":"医疗","lat":35.752108,"lng":139.694452,"stationId":"station-003233","note":"小歯　歯外　歯科"},{"id":"medical-3-4288","name":"やなぎさわ歯科イオン板橋ＳＣクリニック","categoryId":"medical","categoryLabel":"医疗","lat":35.770351,"lng":139.660853,"stationId":"station-003194","note":"小歯　歯外　歯科　矯正"},{"id":"medical-3-4294","name":"やの歯科クリニック","categoryId":"medical","categoryLabel":"医疗","lat":35.760727,"lng":139.674867,"stationId":"station-003212","note":"小歯　歯外　歯科　矯正"},{"id":"medical-2-4332","name":"やまと診療所","categoryId":"medical","categoryLabel":"医疗","lat":35.757082,"lng":139.680205,"stationId":"station-003223","note":"内科　外科　循内　皮膚　精神"},{"id":"medical-3-4402","name":"ゆたか歯科クリニック上板橋分院","categoryId":"medical","categoryLabel":"医疗","lat":35.761482,"lng":139.674093,"stationId":"station-003212","note":"小歯　歯外　歯科　矯正"},{"id":"medical-2-4475","name":"よつくら医院","categoryId":"medical","categoryLabel":"医疗","lat":35.763417,"lng":139.69092,"stationId":"station-003223","note":"内科　泌尿"},{"id":"medical-3-762","name":"アルテ歯科医院","categoryId":"medical","categoryLabel":"医疗","lat":35.763112,"lng":139.690427,"stationId":"station-003223","note":"小歯　歯科"},{"id":"medical-3-902","name":"イチロー歯科","categoryId":"medical","categoryLabel":"医疗","lat":35.763688,"lng":139.683849,"stationId":"station-003212","note":"小歯　歯科　矯正"},{"id":"medical-2-1086","name":"エキアときわ台眼科","categoryId":"medical","categoryLabel":"医疗","lat":35.758763,"lng":139.689437,"stationId":"station-003223","note":"眼科"},{"id":"medical-3-1305","name":"オグマ矯正歯科医院","categoryId":"medical","categoryLabel":"医疗","lat":35.759307,"lng":139.688901,"stationId":"station-003223","note":"矯正"},{"id":"medical-3-2276","name":"シマデンタルクリニック","categoryId":"medical","categoryLabel":"医疗","lat":35.754197,"lng":139.693535,"stationId":"station-003233","note":"小歯　歯外　歯科　矯正"},{"id":"medical-3-2606","name":"タカノ歯科医院","categoryId":"medical","categoryLabel":"医疗","lat":35.758346,"lng":139.683011,"stationId":"station-003223","note":"小歯　歯科　矯正"},{"id":"medical-3-2691","name":"タップルこども歯科・矯正歯科","categoryId":"medical","categoryLabel":"医疗","lat":35.766064,"lng":139.661453,"stationId":"station-003194","note":"小児歯科　矯正歯科　歯科"},{"id":"medical-3-3472","name":"ビーンズ歯科　ハイジ","categoryId":"medical","categoryLabel":"医疗","lat":35.768195,"lng":139.661198,"stationId":"station-003194","note":"歯科　小児歯科　矯正歯科　歯科口腔外科"},{"id":"medical-3-4128","name":"ミント歯科上板橋","categoryId":"medical","categoryLabel":"医疗","lat":35.762375,"lng":139.675376,"stationId":"station-003212","note":"小歯　歯外　歯科　矯正"},{"id":"medical-3-4546","name":"リッツ歯科・口腔クリニック","categoryId":"medical","categoryLabel":"医疗","lat":35.769009,"lng":139.660217,"stationId":"station-003194","note":"小歯　歯外　歯科　矯正"},{"id":"medical-2-13490","name":"三上整形外科医院","categoryId":"medical","categoryLabel":"医疗","lat":35.762223,"lng":139.674497,"stationId":"station-003212","note":"リウ　リハ　整形"},{"id":"medical-3-13552","name":"三木歯科クリニック","categoryId":"medical","categoryLabel":"医疗","lat":35.765049,"lng":139.677883,"stationId":"station-003212","note":"小歯　歯外　歯科"},{"id":"medical-2-13436","name":"三浦内科医院","categoryId":"medical","categoryLabel":"医疗","lat":35.766902,"lng":139.68596,"stationId":"station-003223","note":"内科　神内"},{"id":"medical-3-13564","name":"三澤歯科医院","categoryId":"medical","categoryLabel":"医疗","lat":35.762625,"lng":139.690365,"stationId":"station-003223","note":"歯科"},{"id":"medical-2-14986","name":"上板橋こころの診療所","categoryId":"medical","categoryLabel":"医疗","lat":35.764433,"lng":139.676445,"stationId":"station-003212","note":"内科　心内　思春　精神"},{"id":"medical-3-14987","name":"上板橋つつい歯科医院","categoryId":"medical","categoryLabel":"医疗","lat":35.765086,"lng":139.673777,"stationId":"station-003212","note":"小歯　歯外　歯科　矯正"},{"id":"medical-2-14985","name":"上板橋クリニック","categoryId":"medical","categoryLabel":"医疗","lat":35.761172,"lng":139.676125,"stationId":"station-003212","note":"皮膚"},{"id":"medical-2-14989","name":"上板橋松山内科クリニック","categoryId":"medical","categoryLabel":"医疗","lat":35.764992,"lng":139.677009,"stationId":"station-003212","note":"内科"},{"id":"medical-3-14988","name":"上板橋歯科クリニック","categoryId":"medical","categoryLabel":"医疗","lat":35.765171,"lng":139.676849,"stationId":"station-003212","note":"小歯　歯外　歯科"},{"id":"medical-2-14990","name":"上板橋診療所","categoryId":"medical","categoryLabel":"医疗","lat":35.761588,"lng":139.674403,"stationId":"station-003212","note":"内科　小児"},{"id":"medical-2-11123","name":"下島メディカルクリニック","categoryId":"medical","categoryLabel":"医疗","lat":35.768419,"lng":139.660135,"stationId":"station-003194","note":"内　呼吸器　小児　皮"},{"id":"medical-3-17431","name":"中台歯科医院","categoryId":"medical","categoryLabel":"医疗","lat":35.770402,"lng":139.681149,"stationId":"station-003212","note":"小歯　歯外　歯科　矯正"},{"id":"medical-3-17443","name":"中田歯科医院","categoryId":"medical","categoryLabel":"医疗","lat":35.766873,"lng":139.664301,"stationId":"station-003194","note":"歯科　小児歯科"},{"id":"medical-3-11549","name":"丸山歯科医院","categoryId":"medical","categoryLabel":"医疗","lat":35.758868,"lng":139.680426,"stationId":"station-003212","note":"歯科"},{"id":"medical-2-11853","name":"久志本皮フ科","categoryId":"medical","categoryLabel":"医疗","lat":35.75762,"lng":139.688325,"stationId":"station-003223","note":"皮膚"},{"id":"medical-2-11671","name":"亀田整形外科","categoryId":"medical","categoryLabel":"医疗","lat":35.769102,"lng":139.661728,"stationId":"station-003194","note":"リウ　リハ　整形"},{"id":"medical-2-13155","name":"今本クリニック","categoryId":"medical","categoryLabel":"医疗","lat":35.759512,"lng":139.69452,"stationId":"station-003233","note":"内科　小児　循内"},{"id":"medical-2-17536","name":"仲町メディカルクリニック","categoryId":"medical","categoryLabel":"医疗","lat":35.757227,"lng":139.663027,"stationId":"station-003228","note":"内　胃腸　外"},{"id":"medical-3-4786","name":"伊藤歯科医院","categoryId":"medical","categoryLabel":"医疗","lat":35.754569,"lng":139.663067,"stationId":"station-003261","note":"歯科　小児歯科　歯科口腔外科"},{"id":"medical-2-13208","name":"佐川クリニック","categoryId":"medical","categoryLabel":"医疗","lat":35.760176,"lng":139.662559,"stationId":"station-003228","note":"内　循環器内　消化器内　老年内　緩和ケア内科"},{"id":"medical-3-13243","name":"佐藤歯科医院","categoryId":"medical","categoryLabel":"医疗","lat":35.762827,"lng":139.675103,"stationId":"station-003212","note":"歯科"},{"id":"medical-3-16541","name":"倉田歯科医院","categoryId":"medical","categoryLabel":"医疗","lat":35.750325,"lng":139.683372,"stationId":"station-003296","note":"歯科"},{"id":"medical-2-16536","name":"倉科内科クリニック","categoryId":"medical","categoryLabel":"医疗","lat":35.769547,"lng":139.660334,"stationId":"station-003194","note":"アレ　内科　呼内"},{"id":"medical-2-12448","name":"元内科・胃腸科クリニック","categoryId":"medical","categoryLabel":"医疗","lat":35.759748,"lng":139.689676,"stationId":"station-003223","note":"内科　小児　胃腸"},{"id":"medical-2-18728","name":"内村医院","categoryId":"medical","categoryLabel":"医疗","lat":35.765265,"lng":139.693309,"stationId":"station-003223","note":"内科　呼吸　小児"},{"id":"medical-3-16506","name":"前野町歯科クリニック","categoryId":"medical","categoryLabel":"医疗","lat":35.773095,"lng":139.687015,"stationId":"station-003158","note":"小歯　歯科"},{"id":"medical-3-19930","name":"北町デンタルクリニック","categoryId":"medical","categoryLabel":"医疗","lat":35.765072,"lng":139.66906,"stationId":"station-003212","note":"歯科　矯正歯科　小児歯科　歯科口腔外科"},{"id":"medical-3-4857","name":"医療法人フェネスト　歯科タケダクリニック　上板橋","categoryId":"medical","categoryLabel":"医疗","lat":35.763596,"lng":139.678032,"stationId":"station-003212","note":"小歯　歯外　歯科　矯正"},{"id":"medical-2-10583","name":"医療法人知真会　小茂根内科クリニック","categoryId":"medical","categoryLabel":"医疗","lat":35.751607,"lng":139.681767,"stationId":"station-003296","note":"内科　呼内　循内　消内"},{"id":"medical-1-5365","name":"医療法人社団　健育会　竹川病院","categoryId":"medical","categoryLabel":"医疗","lat":35.758733,"lng":139.679408,"stationId":"station-003212","note":"内科　皮膚科　リハビリ科"},{"id":"medical-1-6093","name":"医療法人社団　和好会　金子病院","categoryId":"medical","categoryLabel":"医疗","lat":35.755926,"lng":139.687455,"stationId":"station-003223","note":"内科　胃腸科　外科　整形外科　脳神経外科　小児外科　肛門科　麻酔科"},{"id":"medical-1-5528","name":"医療法人社団　慈誠会　上板橋病院","categoryId":"medical","categoryLabel":"医疗","lat":35.765343,"lng":139.676408,"stationId":"station-003212","note":"内科　外科　整形外科　リウマチ科　心療内科　耳鼻いんこう科　皮膚科　泌尿器科　リハビリ科　脳神経外科　糖尿病内科　眼科　肝臓内科"},{"id":"medical-1-5526","name":"医療法人社団　慈誠会　慈誠会前野病院","categoryId":"medical","categoryLabel":"医疗","lat":35.768628,"lng":139.68869,"stationId":"station-003158","note":"内科　呼吸器内科　消化器内科　循環器内科　神経内科　心療内科　リウマチ科　外科　整形外科　眼科　皮膚科　泌尿器科　肛門外科　リハビリ科"},{"id":"medical-1-5527","name":"医療法人社団　慈誠会　慈誠会徳丸リハビリテーション病院","categoryId":"medical","categoryLabel":"医疗","lat":35.771696,"lng":139.662459,"stationId":"station-003194","note":"内科　リハビリ科"},{"id":"medical-1-5524","name":"医療法人社団　慈誠会　慈誠会若木原病院","categoryId":"medical","categoryLabel":"医疗","lat":35.767597,"lng":139.670896,"stationId":"station-003212","note":"内科　循環器科　リハビリ科"},{"id":"medical-1-5523","name":"医療法人社団　慈誠会　慈誠会記念病院","categoryId":"medical","categoryLabel":"医疗","lat":35.774354,"lng":139.667417,"stationId":"station-003194","note":"内科　消化器内科　循環器内科　リウマチ科　リハビリ科　人工透析内科　呼吸器内科"},{"id":"medical-1-6019","name":"医療法人社団　明芳会　イムス記念病院","categoryId":"medical","categoryLabel":"医疗","lat":35.763405,"lng":139.677592,"stationId":"station-003212","note":"内科　小児科　整形外科　眼科　皮膚科　泌尿器科　糖尿病内科"},{"id":"medical-1-5747","name":"医療法人社団　清和昌綾会　飯沼病院","categoryId":"medical","categoryLabel":"医疗","lat":35.763127,"lng":139.687357,"stationId":"station-003223","note":"内科　老年内科　精神科　老年精神科　思春期精神科　心療内科　老年心療内科　女性心療内科"},{"id":"medical-2-5907","name":"医療法人社団　藤香会　ときわ台レディースクリニック","categoryId":"medical","categoryLabel":"医疗","lat":35.759425,"lng":139.6887,"stationId":"station-003223","note":"婦人"},{"id":"medical-1-5266","name":"医療法人社団　開星会　常盤台病院","categoryId":"medical","categoryLabel":"医疗","lat":35.768519,"lng":139.683034,"stationId":"station-003212","note":"内科"},{"id":"medical-2-6534","name":"医療法人社団じんの内科医院","categoryId":"medical","categoryLabel":"医疗","lat":35.752338,"lng":139.667962,"stationId":"station-003261","note":"内　呼吸器内　循環器内　老年内科"},{"id":"medical-3-6692","name":"医療法人社団ひまわり会　伴歯科診療所","categoryId":"medical","categoryLabel":"医疗","lat":35.757423,"lng":139.679339,"stationId":"station-003212","note":"小歯　歯科　矯正"},{"id":"medical-2-6452","name":"医療法人社団キンダーリング　えがおこどもクリニック","categoryId":"medical","categoryLabel":"医疗","lat":35.768477,"lng":139.692823,"stationId":"station-003193","note":"アレ　小児"},{"id":"medical-2-6844","name":"医療法人社団ライブスペースもりや皮フ科形成外科クリニック","categoryId":"medical","categoryLabel":"医疗","lat":35.766065,"lng":139.663699,"stationId":"station-003194","note":"皮　形成"},{"id":"medical-2-7645","name":"医療法人社団交友会氷川台内科クリニック","categoryId":"medical","categoryLabel":"医疗","lat":35.75048,"lng":139.665106,"stationId":"station-003261","note":"内　呼吸器　循環器　胃腸　アレルギー　リウマチ　リハビリ　放射線　心療内科"},{"id":"medical-2-10073","name":"医療法人社団優　やごうクリニック","categoryId":"medical","categoryLabel":"医疗","lat":35.763688,"lng":139.683849,"stationId":"station-003212","note":"内科　内視　泌尿　消内"},{"id":"medical-3-10122","name":"医療法人社団優善会　うえだ歯科クリニック","categoryId":"medical","categoryLabel":"医疗","lat":35.764564,"lng":139.675747,"stationId":"station-003212","note":"小歯　歯外　歯科　矯正"},{"id":"medical-3-7651","name":"医療法人社団光慧会　東新町ファミリア歯科","categoryId":"medical","categoryLabel":"医疗","lat":35.754163,"lng":139.683743,"stationId":"station-003223","note":"小歯　歯科"},{"id":"medical-2-9476","name":"医療法人社団典雅会おおやまクリニック","categoryId":"medical","categoryLabel":"医疗","lat":35.771658,"lng":139.668296,"stationId":"station-003194","note":"内科　小児　循環"},{"id":"medical-2-10128","name":"医療法人社団勇仁会　北角診療所","categoryId":"medical","categoryLabel":"医疗","lat":35.760268,"lng":139.686193,"stationId":"station-003223","note":"内科　小児"},{"id":"medical-2-9623","name":"医療法人社団南ときわ台耳鼻咽喉科","categoryId":"medical","categoryLabel":"医疗","lat":35.758925,"lng":139.685238,"stationId":"station-003223","note":"内科　耳鼻"},{"id":"medical-3-9692","name":"医療法人社団博澄会上板橋駅ビル歯科","categoryId":"medical","categoryLabel":"医疗","lat":35.763304,"lng":139.676442,"stationId":"station-003212","note":"歯科"},{"id":"medical-2-10416","name":"医療法人社団和好会クリニックみずき","categoryId":"medical","categoryLabel":"医疗","lat":35.756058,"lng":139.688252,"stationId":"station-003223","note":"内科"},{"id":"medical-2-9204","name":"医療法人社団善和会小船内科医院","categoryId":"medical","categoryLabel":"医疗","lat":35.756402,"lng":139.661077,"stationId":"station-003228","note":"内　循環器内"},{"id":"medical-2-7176","name":"医療法人社団喜桜会　五本けやき整形外科","categoryId":"medical","categoryLabel":"医疗","lat":35.760895,"lng":139.674092,"stationId":"station-003212","note":"整形"},{"id":"medical-2-7715","name":"医療法人社団孝慈会　中台医院","categoryId":"medical","categoryLabel":"医疗","lat":35.765306,"lng":139.682241,"stationId":"station-003212","note":"内科　循環"},{"id":"medical-2-7252","name":"医療法人社団宮本外科　宮本外科内科","categoryId":"medical","categoryLabel":"医疗","lat":35.761873,"lng":139.66671,"stationId":"station-003194","note":"外　内　循環器内"},{"id":"medical-3-8076","name":"医療法人社団山冨会　タカシデンタルクリニック","categoryId":"medical","categoryLabel":"医疗","lat":35.76995,"lng":139.691158,"stationId":"station-003165","note":"小歯　歯外　歯科"},{"id":"medical-2-8060","name":"医療法人社団山愛会山倉医院","categoryId":"medical","categoryLabel":"医疗","lat":35.751722,"lng":139.688329,"stationId":"station-003233","note":"内科　外科　小児　胃腸"},{"id":"medical-2-7188","name":"医療法人社団希光会　西尾医院","categoryId":"medical","categoryLabel":"医疗","lat":35.762406,"lng":139.683171,"stationId":"station-003223","note":"リハ　内科　外科　小児　循内　整形　泌尿　消内　消外　糖内　肛外"},{"id":"medical-2-7383","name":"医療法人社団恵星会花岡耳鼻咽喉科医院","categoryId":"medical","categoryLabel":"医疗","lat":35.766891,"lng":139.684025,"stationId":"station-003212","note":"耳鼻"},{"id":"medical-3-6890","name":"医療法人社団愛泉会　氷川台たんぽぽ歯科クリニック","categoryId":"medical","categoryLabel":"医疗","lat":35.750291,"lng":139.663714,"stationId":"station-003261","note":"歯科　歯科口腔外科　小児歯科　矯正歯科"},{"id":"medical-2-6873","name":"医療法人社団愛雅会つつみ眼科クリニック","categoryId":"medical","categoryLabel":"医疗","lat":35.767698,"lng":139.661507,"stationId":"station-003194","note":"眼"},{"id":"medical-2-8192","name":"医療法人社団慈誠会　人間ドック会館クリニック","categoryId":"medical","categoryLabel":"医疗","lat":35.765007,"lng":139.676631,"stationId":"station-003212","note":"内科　婦人"},{"id":"medical-3-7493","name":"医療法人社団敬和会南ときわ台歯科","categoryId":"medical","categoryLabel":"医疗","lat":35.757226,"lng":139.688384,"stationId":"station-003223","note":"小歯　歯外　歯科　矯正"},{"id":"medical-3-8609","name":"医療法人社団新医研　松本歯科医院","categoryId":"medical","categoryLabel":"医疗","lat":35.762265,"lng":139.682269,"stationId":"station-003212","note":"小歯　歯外　歯科　矯正"},{"id":"medical-2-10457","name":"医療法人社団昊庸会有賀小児クリニック","categoryId":"medical","categoryLabel":"医疗","lat":35.758861,"lng":139.686933,"stationId":"station-003223","note":"アレ　内科　小児"},{"id":"medical-2-9990","name":"医療法人社団明幸会　ときわ台村中眼科","categoryId":"medical","categoryLabel":"医疗","lat":35.759341,"lng":139.689938,"stationId":"station-003223","note":"眼科"},{"id":"medical-2-9995","name":"医療法人社団明珠会　中川医院","categoryId":"medical","categoryLabel":"医疗","lat":35.760238,"lng":139.691039,"stationId":"station-003223","note":"眼科"},{"id":"medical-2-9996","name":"医療法人社団明珠会　中川医院耳鼻咽喉科","categoryId":"medical","categoryLabel":"医疗","lat":35.760238,"lng":139.691039,"stationId":"station-003223","note":"耳鼻"},{"id":"medical-2-8878","name":"医療法人社団晴朗会かみいた南クリニック","categoryId":"medical","categoryLabel":"医疗","lat":35.762041,"lng":139.675127,"stationId":"station-003212","note":"皮膚"},{"id":"medical-2-10475","name":"医療法人社団櫻美会　石川医院","categoryId":"medical","categoryLabel":"医疗","lat":35.757974,"lng":139.694829,"stationId":"station-003233","note":"内科　小児"},{"id":"medical-2-8765","name":"医療法人社団水樹会　つつみクリニック","categoryId":"medical","categoryLabel":"医疗","lat":35.76102,"lng":139.692119,"stationId":"station-003223","note":"アレ　形成　皮膚　麻酔"},{"id":"medical-2-10250","name":"医療法人社団洋優会　辰尾整形外科クリニック","categoryId":"medical","categoryLabel":"医疗","lat":35.767935,"lng":139.661374,"stationId":"station-003194","note":"整形　リハビリ　リウマチ"},{"id":"medical-2-8941","name":"医療法人社団清真会麦島内科クリニック","categoryId":"medical","categoryLabel":"医疗","lat":35.758906,"lng":139.67034,"stationId":"station-003212","note":"内　神経内　放射線　リハビリ　皮　循環器内　呼吸器内　糖尿病内　消化器内"},{"id":"medical-2-9500","name":"医療法人社団渡辺医院","categoryId":"medical","categoryLabel":"医疗","lat":35.756689,"lng":139.694706,"stationId":"station-003233","note":"内科　形成　整形　皮膚"},{"id":"medical-3-9371","name":"医療法人社団瀧の会シエル歯科クリニック","categoryId":"medical","categoryLabel":"医疗","lat":35.763923,"lng":139.677956,"stationId":"station-003212","note":"小歯　歯外　歯科　矯正"},{"id":"medical-3-10190","name":"医療法人社団由倫会　いとう歯科矯正歯科クリニック","categoryId":"medical","categoryLabel":"医疗","lat":35.768927,"lng":139.661547,"stationId":"station-003194","note":"小歯　歯外　歯科　矯正"},{"id":"medical-2-10497","name":"医療法人社団眞正会　大國医院","categoryId":"medical","categoryLabel":"医疗","lat":35.762496,"lng":139.673379,"stationId":"station-003212","note":"内科　小児"},{"id":"medical-2-8313","name":"医療法人社団秀光会黒川内科医院","categoryId":"medical","categoryLabel":"医疗","lat":35.768065,"lng":139.664256,"stationId":"station-003194","note":"内　循環器　消化器　小児"},{"id":"medical-2-8398","name":"医療法人社団純友会町田産婦人科","categoryId":"medical","categoryLabel":"医疗","lat":35.766758,"lng":139.661465,"stationId":"station-003194","note":"産婦"},{"id":"medical-3-9042","name":"医療法人社団誠秀会　神林歯科","categoryId":"medical","categoryLabel":"医疗","lat":35.759339,"lng":139.689631,"stationId":"station-003223","note":"小歯　歯科　矯正"},{"id":"medical-2-7912","name":"医療法人社団貢栄会しろた内科・胃腸科クリニック","categoryId":"medical","categoryLabel":"医疗","lat":35.767903,"lng":139.661599,"stationId":"station-003194","note":"内　消化器　胃腸　肛門"},{"id":"medical-2-10541","name":"医療法人社団醫征会　渡邉医院","categoryId":"medical","categoryLabel":"医疗","lat":35.762196,"lng":139.690528,"stationId":"station-003223","note":"内科　小児　産婦"},{"id":"medical-2-7311","name":"医療法人社団錦祥会錦クリニック","categoryId":"medical","categoryLabel":"医疗","lat":35.758435,"lng":139.671119,"stationId":"station-003212","note":"内　泌尿器"},{"id":"medical-2-10232","name":"医療法人社団雄寧会　太田眼科医院","categoryId":"medical","categoryLabel":"医疗","lat":35.76356,"lng":139.677281,"stationId":"station-003212","note":"眼科"},{"id":"medical-1-4914","name":"医療法人財団　朔望会　常盤台外科病院","categoryId":"medical","categoryLabel":"医疗","lat":35.762776,"lng":139.690079,"stationId":"station-003223","note":"内科　消化器科　循環器科　外科　整形外科　形成外科　脳神経外科　心臓血管外科　眼科　皮膚科　泌尿器科　肛門科　リハビリ科　放射線科　麻酔科"},{"id":"medical-2-12473","name":"原田　陽一郎(往診医師）","categoryId":"medical","categoryLabel":"医疗","lat":35.750114,"lng":139.692799,"stationId":"station-003233","note":"麻酔"},{"id":"medical-3-12478","name":"原田歯科クリニック","categoryId":"medical","categoryLabel":"医疗","lat":35.763115,"lng":139.694406,"stationId":"station-003223","note":"小歯　歯科"},{"id":"medical-3-12509","name":"古市歯科医院","categoryId":"medical","categoryLabel":"医疗","lat":35.772743,"lng":139.683217,"stationId":"station-003158","note":"小歯　歯外　歯科　矯正"},{"id":"medical-3-11820","name":"吉野歯科診療所","categoryId":"medical","categoryLabel":"医疗","lat":35.757476,"lng":139.689168,"stationId":"station-003223","note":"小歯　歯科"},{"id":"medical-2-20729","name":"和田クリニック","categoryId":"medical","categoryLabel":"医疗","lat":35.763014,"lng":139.692325,"stationId":"station-003223","note":"こう　内科　外科　放射　整形　胃腸"},{"id":"medical-3-17972","name":"土屋歯科医院","categoryId":"medical","categoryLabel":"医疗","lat":35.767474,"lng":139.687262,"stationId":"station-003223","note":"歯科"},{"id":"medical-2-15060","name":"城北公園クリニック","categoryId":"medical","categoryLabel":"医疗","lat":35.753238,"lng":139.667843,"stationId":"station-003261","note":"内　外　消化器内　肛門外　呼吸器内　循環器内　小児　整形"},{"id":"medical-3-19980","name":"堀田歯科医院","categoryId":"medical","categoryLabel":"医疗","lat":35.759936,"lng":139.690815,"stationId":"station-003223","note":"歯科"},{"id":"medical-2-16802","name":"大久保医院","categoryId":"medical","categoryLabel":"医疗","lat":35.763065,"lng":139.680166,"stationId":"station-003212","note":"内科"},{"id":"medical-3-17090","name":"大和歯科医院","categoryId":"medical","categoryLabel":"医疗","lat":35.760716,"lng":139.680456,"stationId":"station-003212","note":"小歯　歯外　歯科　矯正"},{"id":"medical-3-16876","name":"大場歯科医院","categoryId":"medical","categoryLabel":"医疗","lat":35.761172,"lng":139.676125,"stationId":"station-003212","note":"歯科"},{"id":"medical-3-17059","name":"大木歯科医院","categoryId":"medical","categoryLabel":"医疗","lat":35.768258,"lng":139.660007,"stationId":"station-003194","note":"歯科　小児歯科"},{"id":"medical-2-16883","name":"大森メディカルクリニック","categoryId":"medical","categoryLabel":"医疗","lat":35.768715,"lng":139.673443,"stationId":"station-003212","note":"アレ　内科　呼吸"},{"id":"medical-2-10926","name":"奥村整形外科","categoryId":"medical","categoryLabel":"医疗","lat":35.761667,"lng":139.674086,"stationId":"station-003212","note":"リウ　リハ　整形"},{"id":"medical-3-10930","name":"奥津歯科医院","categoryId":"medical","categoryLabel":"医疗","lat":35.763,"lng":139.671436,"stationId":"station-003212","note":"歯科"},{"id":"medical-3-10773","name":"宇佐美歯科医院","categoryId":"medical","categoryLabel":"医疗","lat":35.774593,"lng":139.663125,"stationId":"station-003194","note":"歯科"},{"id":"medical-3-11955","name":"宮澤歯科医院","categoryId":"medical","categoryLabel":"医疗","lat":35.768498,"lng":139.664078,"stationId":"station-003194","note":"小歯　歯科"},{"id":"medical-3-14488","name":"小向歯科医院","categoryId":"medical","categoryLabel":"医疗","lat":35.762457,"lng":139.693095,"stationId":"station-003223","note":"小歯　歯外　歯科　矯正"},{"id":"medical-3-14624","name":"小嶋歯科医院","categoryId":"medical","categoryLabel":"医疗","lat":35.758377,"lng":139.68691,"stationId":"station-003223","note":"歯科"},{"id":"medical-3-14694","name":"小林歯科医院","categoryId":"medical","categoryLabel":"医疗","lat":35.76752,"lng":139.667687,"stationId":"station-003194","note":"歯科"},{"id":"medical-3-14586","name":"小池歯科医院","categoryId":"medical","categoryLabel":"医疗","lat":35.76792,"lng":139.663023,"stationId":"station-003194","note":"歯科　小児歯科　歯科口腔外科"},{"id":"medical-2-14612","name":"小田島こどもクリニック","categoryId":"medical","categoryLabel":"医疗","lat":35.76065,"lng":139.680959,"stationId":"station-003212","note":"アレ　小児"},{"id":"medical-3-14653","name":"小野歯科クリニック","categoryId":"medical","categoryLabel":"医疗","lat":35.768629,"lng":139.667512,"stationId":"station-003194","note":"小歯　歯外　歯科"},{"id":"medical-2-13669","name":"山倉眼科","categoryId":"medical","categoryLabel":"医疗","lat":35.751656,"lng":139.688323,"stationId":"station-003233","note":"眼科"},{"id":"medical-3-13622","name":"山口歯科医院","categoryId":"medical","categoryLabel":"医疗","lat":35.763971,"lng":139.690425,"stationId":"station-003223","note":"歯科"},{"id":"medical-3-13726","name":"山本ぶん歯科","categoryId":"medical","categoryLabel":"医疗","lat":35.752762,"lng":139.660761,"stationId":"station-003261","note":"歯科　小児歯科"},{"id":"medical-3-13736","name":"山本歯科医院","categoryId":"medical","categoryLabel":"医疗","lat":35.764031,"lng":139.669297,"stationId":"station-003212","note":"歯科"},{"id":"medical-2-13764","name":"山櫻診療所","categoryId":"medical","categoryLabel":"医疗","lat":35.765976,"lng":139.67343,"stationId":"station-003212","note":"内科　小児"},{"id":"medical-3-13694","name":"山田歯科医院","categoryId":"medical","categoryLabel":"医疗","lat":35.767698,"lng":139.663639,"stationId":"station-003194","note":"歯科　小児歯科"},{"id":"medical-2-16396","name":"川名眼科医院","categoryId":"medical","categoryLabel":"医疗","lat":35.774724,"lng":139.680386,"stationId":"station-003158","note":"眼科"},{"id":"medical-3-16379","name":"川島歯科クリニック","categoryId":"medical","categoryLabel":"医疗","lat":35.750702,"lng":139.686989,"stationId":"station-003233","note":"小歯　歯科"},{"id":"medical-3-16374","name":"川端デンタルクリニック","categoryId":"medical","categoryLabel":"医疗","lat":35.76332,"lng":139.68904,"stationId":"station-003223","note":"歯科"},{"id":"medical-3-13827","name":"市川歯科医院","categoryId":"medical","categoryLabel":"医疗","lat":35.75717,"lng":139.663332,"stationId":"station-003228","note":"歯科　小児歯科"},{"id":"medical-3-13829","name":"市川歯科医院","categoryId":"medical","categoryLabel":"医疗","lat":35.76209,"lng":139.675399,"stationId":"station-003212","note":"小歯　歯外　歯科　矯正"},{"id":"medical-2-15067","name":"常盤台らいおん整形外科","categoryId":"medical","categoryLabel":"医疗","lat":35.758449,"lng":139.690593,"stationId":"station-003223","note":"リウ　リハ　整形"},{"id":"medical-2-19680","name":"平山医院","categoryId":"medical","categoryLabel":"医疗","lat":35.768091,"lng":139.677468,"stationId":"station-003212","note":"内科　小児"},{"id":"medical-2-19681","name":"平山医院","categoryId":"medical","categoryLabel":"医疗","lat":35.76338,"lng":139.670922,"stationId":"station-003212","note":"内科　小児"},{"id":"medical-2-11960","name":"弓倉医院","categoryId":"medical","categoryLabel":"医疗","lat":35.755215,"lng":139.69038,"stationId":"station-003233","note":"内科　小児　循環"},{"id":"medical-2-13293","name":"斎藤医院","categoryId":"medical","categoryLabel":"医疗","lat":35.758208,"lng":139.678922,"stationId":"station-003212","note":"内科　小児"},{"id":"medical-3-14404","name":"春日歯科医院","categoryId":"medical","categoryLabel":"医疗","lat":35.760117,"lng":139.677534,"stationId":"station-003212","note":"小歯　歯科"},{"id":"medical-2-19598","name":"服部医院","categoryId":"medical","categoryLabel":"医疗","lat":35.759786,"lng":139.69067,"stationId":"station-003223","note":"内科　消内　皮膚"},{"id":"medical-2-19846","name":"望月クリニック","categoryId":"medical","categoryLabel":"医疗","lat":35.751544,"lng":139.663401,"stationId":"station-003261","note":"皮"},{"id":"medical-2-19848","name":"望月外科医院","categoryId":"medical","categoryLabel":"医疗","lat":35.764157,"lng":139.680049,"stationId":"station-003212","note":"内科　外科　整形　泌尿　皮膚"},{"id":"medical-3-20084","name":"末高歯科医院","categoryId":"medical","categoryLabel":"医疗","lat":35.762264,"lng":139.683482,"stationId":"station-003223","note":"歯科"},{"id":"medical-3-16665","name":"村上歯科医院","categoryId":"medical","categoryLabel":"医疗","lat":35.774976,"lng":139.664367,"stationId":"station-003194","note":"小歯　歯科　矯正"},{"id":"medical-2-18199","name":"東京少年鑑別所医務課診療所","categoryId":"medical","categoryLabel":"医疗","lat":35.755581,"lng":139.668926,"stationId":"station-003261","note":"内　精神"},{"id":"medical-2-18266","name":"東京都板橋区立特別養護老人ﾎｰﾑみどりの苑内診療所","categoryId":"medical","categoryLabel":"医疗","lat":35.771017,"lng":139.685122,"stationId":"station-003158","note":"アレ　内科　呼内　循内　腎内"},{"id":"medical-2-18386","name":"東武練馬メンタルクリニック","categoryId":"medical","categoryLabel":"医疗","lat":35.769547,"lng":139.660334,"stationId":"station-003194","note":"心内　精神"},{"id":"medical-3-18384","name":"東武練馬ＴＳデンタルクリニック","categoryId":"medical","categoryLabel":"医疗","lat":35.77049,"lng":139.662798,"stationId":"station-003194","note":"小児　歯外　歯科　矯正"},{"id":"medical-2-14791","name":"松下皮膚科クリニック","categoryId":"medical","categoryLabel":"医疗","lat":35.765034,"lng":139.67685,"stationId":"station-003212","note":"アレ　形成　皮膚"},{"id":"medical-3-19184","name":"板橋区歯科衛生センター","categoryId":"medical","categoryLabel":"医疗","lat":35.76033,"lng":139.686002,"stationId":"station-003223","note":"歯科"},{"id":"medical-2-19194","name":"板橋区立上板橋健康福祉センター","categoryId":"medical","categoryLabel":"医疗","lat":35.760055,"lng":139.675524,"stationId":"station-003212","note":"内科　小児　歯科"},{"id":"medical-2-19198","name":"板橋徳丸泌尿器科","categoryId":"medical","categoryLabel":"医疗","lat":35.772749,"lng":139.662967,"stationId":"station-003194","note":"内科　泌尿"},{"id":"medical-2-20582","name":"林内科医院","categoryId":"medical","categoryLabel":"医疗","lat":35.770813,"lng":139.674321,"stationId":"station-003212","note":"内科　小児　循環　放射"},{"id":"medical-3-20568","name":"林歯科医院","categoryId":"medical","categoryLabel":"医疗","lat":35.767721,"lng":139.67355,"stationId":"station-003212","note":"小歯　歯外　歯科"},{"id":"medical-2-13376","name":"桜川ファミリークリニック","categoryId":"medical","categoryLabel":"医疗","lat":35.760895,"lng":139.674092,"stationId":"station-003212","note":"アレ　内科　小児"},{"id":"medical-2-15280","name":"森　憲二(往診医師）","categoryId":"medical","categoryLabel":"医疗","lat":35.770514,"lng":139.679661,"stationId":"station-003212","note":"内科　放射"},{"id":"medical-3-13915","name":"歯科鈴木医院","categoryId":"medical","categoryLabel":"医疗","lat":35.759611,"lng":139.673737,"stationId":"station-003212","note":"小歯　歯外　歯科　矯正"},{"id":"medical-3-19334","name":"氷川台デンタルクリニック","categoryId":"medical","categoryLabel":"医疗","lat":35.751019,"lng":139.665821,"stationId":"station-003261","note":"歯科　小児歯科"},{"id":"medical-2-19336","name":"氷川台整形外科","categoryId":"medical","categoryLabel":"医疗","lat":35.754271,"lng":139.667907,"stationId":"station-003261","note":"整形　リウマチ　リハビリ"},{"id":"medical-2-12791","name":"江口眼科","categoryId":"medical","categoryLabel":"医疗","lat":35.770351,"lng":139.660853,"stationId":"station-003194","note":"眼科"},{"id":"medical-3-16421","name":"浅見歯科医院","categoryId":"medical","categoryLabel":"医疗","lat":35.754735,"lng":139.669175,"stationId":"station-003261","note":"歯科　小児歯科"},{"id":"medical-2-15740","name":"清水医院","categoryId":"medical","categoryLabel":"医疗","lat":35.75781,"lng":139.690087,"stationId":"station-003223","note":"内科　婦人　小児　産科"},{"id":"medical-3-17921","name":"渡辺歯科クリニック","categoryId":"medical","categoryLabel":"医疗","lat":35.765307,"lng":139.675937,"stationId":"station-003212","note":"歯科"},{"id":"medical-3-20772","name":"濤岡歯科医院","categoryId":"medical","categoryLabel":"医疗","lat":35.76078,"lng":139.693807,"stationId":"station-003223","note":"歯科"},{"id":"medical-2-18578","name":"特別養護老人ホーム　若葉ゆめの園医務室","categoryId":"medical","categoryLabel":"医疗","lat":35.772258,"lng":139.674242,"stationId":"station-003212","note":"内科"},{"id":"medical-2-18671","name":"特別養護老人ホーム板橋の里　英智園","categoryId":"medical","categoryLabel":"医疗","lat":35.771428,"lng":139.693884,"stationId":"station-003165","note":"内科"},{"id":"medical-2-18636","name":"特別養護老人ホーム若木ライフ","categoryId":"medical","categoryLabel":"医疗","lat":35.767818,"lng":139.671964,"stationId":"station-003212","note":"内科"},{"id":"medical-2-17792","name":"田中　孝司(往診医師)","categoryId":"medical","categoryLabel":"医疗","lat":35.77397,"lng":139.679631,"stationId":"station-003158","note":"アレ　内科　婦人　皮膚　糖内"},{"id":"medical-3-20343","name":"矢ヶ﨑歯科医院","categoryId":"medical","categoryLabel":"医疗","lat":35.770245,"lng":139.690559,"stationId":"station-003165","note":"歯科"},{"id":"medical-3-20369","name":"矢部歯科医院","categoryId":"medical","categoryLabel":"医疗","lat":35.756996,"lng":139.694745,"stationId":"station-003233","note":"歯科"},{"id":"medical-3-16187","name":"石島歯科医院","categoryId":"medical","categoryLabel":"医疗","lat":35.766119,"lng":139.672727,"stationId":"station-003212","note":"小歯　歯外　歯科"},{"id":"medical-3-10674","name":"磯部歯科クリニック","categoryId":"medical","categoryLabel":"医疗","lat":35.759987,"lng":139.68696,"stationId":"station-003223","note":"小歯　歯外　歯科　矯正"},{"id":"medical-3-19643","name":"福本歯科医院","categoryId":"medical","categoryLabel":"医疗","lat":35.760769,"lng":139.6914,"stationId":"station-003223","note":"歯科"},{"id":"medical-3-4713","name":"粟津歯科医院","categoryId":"medical","categoryLabel":"医疗","lat":35.76796,"lng":139.678616,"stationId":"station-003212","note":"小歯　歯外　歯科"},{"id":"medical-3-20803","name":"翔歯科医院","categoryId":"medical","categoryLabel":"医疗","lat":35.750274,"lng":139.668007,"stationId":"station-003261","note":"歯科　歯科口腔外科　小児歯科"},{"id":"medical-2-13963","name":"耳鼻咽喉科　まちの医院","categoryId":"medical","categoryLabel":"医疗","lat":35.765973,"lng":139.664139,"stationId":"station-003194","note":"耳鼻科　小児"},{"id":"medical-2-13969","name":"耳鼻咽喉科　萩原医院","categoryId":"medical","categoryLabel":"医疗","lat":35.769329,"lng":139.66019,"stationId":"station-003194","note":"アレ　耳鼻"},{"id":"medical-2-11267","name":"花岡医院","categoryId":"medical","categoryLabel":"医疗","lat":35.761743,"lng":139.676264,"stationId":"station-003212","note":"内科"},{"id":"medical-3-19803","name":"芳賀歯科医院","categoryId":"medical","categoryLabel":"医疗","lat":35.767945,"lng":139.664522,"stationId":"station-003194","note":"歯科"},{"id":"medical-3-14223","name":"若木通りすこやか歯科","categoryId":"medical","categoryLabel":"医疗","lat":35.767226,"lng":139.677459,"stationId":"station-003212","note":"小歯　歯外　歯科　矯正"},{"id":"medical-2-18469","name":"藤川医院","categoryId":"medical","categoryLabel":"医疗","lat":35.763813,"lng":139.677329,"stationId":"station-003212","note":"アレ　内科　呼吸　小児　皮泌"},{"id":"medical-3-15946","name":"西尾歯科","categoryId":"medical","categoryLabel":"医疗","lat":35.76371,"lng":139.680154,"stationId":"station-003212","note":"小歯　歯科　矯正"},{"id":"medical-3-12116","name":"金子歯科医院","categoryId":"medical","categoryLabel":"医疗","lat":35.759269,"lng":139.689994,"stationId":"station-003223","note":"歯科"},{"id":"medical-2-12105","name":"金岡胃腸科外科医院","categoryId":"medical","categoryLabel":"医疗","lat":35.766654,"lng":139.662758,"stationId":"station-003194","note":"内　小児　外　皮　放射線　リハビリ"},{"id":"medical-2-20588","name":"鈴木クリニック","categoryId":"medical","categoryLabel":"医疗","lat":35.758304,"lng":139.6895,"stationId":"station-003223","note":"内科"},{"id":"medical-3-20611","name":"鈴木歯科","categoryId":"medical","categoryLabel":"医疗","lat":35.750138,"lng":139.664174,"stationId":"station-003261","note":"歯科　小児歯科　矯正歯科"},{"id":"medical-2-20608","name":"鈴木眼科医院","categoryId":"medical","categoryLabel":"医疗","lat":35.762757,"lng":139.675559,"stationId":"station-003212","note":"眼科"},{"id":"medical-3-17590","name":"長坂歯科医院","categoryId":"medical","categoryLabel":"医疗","lat":35.768783,"lng":139.666826,"stationId":"station-003194","note":"小歯　歯科"},{"id":"medical-2-17601","name":"長瀬クリニック","categoryId":"medical","categoryLabel":"医疗","lat":35.774498,"lng":139.662138,"stationId":"station-003194","note":"リウ　リハ　内科　整形　神経"},{"id":"medical-2-15493","name":"須賀医院","categoryId":"medical","categoryLabel":"医疗","lat":35.760608,"lng":139.679861,"stationId":"station-003212","note":"内科　小児"},{"id":"medical-2-19595","name":"風見医院","categoryId":"medical","categoryLabel":"医疗","lat":35.76119,"lng":139.690805,"stationId":"station-003223","note":"内科　小児　胃腸"},{"id":"medical-2-13031","name":"高木内科クリニック","categoryId":"medical","categoryLabel":"医疗","lat":35.761639,"lng":139.693798,"stationId":"station-003223","note":"内科"},{"id":"medical-3-12936","name":"高橋歯科医院","categoryId":"medical","categoryLabel":"医疗","lat":35.756159,"lng":139.686849,"stationId":"station-003223","note":"小歯　歯科"},{"id":"medical-3-11968","name":"魚島歯科医院","categoryId":"medical","categoryLabel":"医疗","lat":35.761341,"lng":139.685415,"stationId":"station-003223","note":"歯科"},{"id":"public-13119-22047","name":"おとしより保健福祉センター","categoryId":"public_service","categoryLabel":"公共服务","lat":35.771594,"lng":139.689873,"stationId":"station-003165","note":"板橋区前野町4-16-1"},{"id":"public-13119-22083","name":"七軒家集会所","categoryId":"public_service","categoryLabel":"公共服务","lat":35.763362,"lng":139.674156,"stationId":"station-003212","note":"板橋区上板橋2-38-3"},{"id":"public-13119-22080","name":"上板橋健康福祉センター","categoryId":"public_service","categoryLabel":"公共服务","lat":35.760056,"lng":139.675536,"stationId":"station-003212","note":"板橋区桜川3-18-6"},{"id":"public-13119-22069","name":"上板橋健康福祉センター内集会所","categoryId":"public_service","categoryLabel":"公共服务","lat":35.760106,"lng":139.675544,"stationId":"station-003212","note":"板橋区桜川3-18-6"},{"id":"public-13119-22127","name":"中台ふれあい館","categoryId":"public_service","categoryLabel":"公共服务","lat":35.769901,"lng":139.680228,"stationId":"station-003212","note":"板橋区中台2-14-1"},{"id":"public-13119-22129","name":"中台三丁目集会所","categoryId":"public_service","categoryLabel":"公共服务","lat":35.774364,"lng":139.677919,"stationId":"station-003158","note":"板橋区中台3-27-4"},{"id":"public-13119-22128","name":"中台二丁目集会所","categoryId":"public_service","categoryLabel":"公共服务","lat":35.773528,"lng":139.682644,"stationId":"station-003158","note":"板橋区中台2-43-20"},{"id":"public-13119-22126","name":"中台地域センター","categoryId":"public_service","categoryLabel":"公共服务","lat":35.767706,"lng":139.676747,"stationId":"station-003212","note":"板橋区中台1-44-8"},{"id":"public-13119-22112","name":"前野いこいの家","categoryId":"public_service","categoryLabel":"公共服务","lat":35.769231,"lng":139.688735,"stationId":"station-003158","note":"板橋区前野町4-6-1"},{"id":"public-13119-22110","name":"前野地域センター","categoryId":"public_service","categoryLabel":"公共服务","lat":35.769241,"lng":139.688735,"stationId":"station-003158","note":"板橋区前野町4-6-1"},{"id":"public-13119-22113","name":"前野町六丁目集会所","categoryId":"public_service","categoryLabel":"公共服务","lat":35.765329,"lng":139.683352,"stationId":"station-003212","note":"板橋区前野町6-10-7"},{"id":"public-13119-22142","name":"南常盤台一丁目集会所","categoryId":"public_service","categoryLabel":"公共服务","lat":35.75628,"lng":139.687549,"stationId":"station-003223","note":"板橋区南常盤台1-16-8"},{"id":"public-13119-22123","name":"大谷口北町集会所","categoryId":"public_service","categoryLabel":"公共服务","lat":35.750933,"lng":139.685741,"stationId":"station-003223","note":"板橋区大谷口北町87-1"},{"id":"public-13119-22086","name":"常盤台区民事務所","categoryId":"public_service","categoryLabel":"公共服务","lat":35.76126,"lng":139.682436,"stationId":"station-003212","note":"板橋区常盤台3-27-1"},{"id":"public-13119-22087","name":"常盤台地域センター","categoryId":"public_service","categoryLabel":"公共服务","lat":35.763359,"lng":139.679551,"stationId":"station-003212","note":"板橋区常盤台4-14-1"},{"id":"public-13119-22084","name":"常盤台集会所","categoryId":"public_service","categoryLabel":"公共服务","lat":35.760224,"lng":139.694563,"stationId":"station-003233","note":"板橋区常盤台1-21-20"},{"id":"public-13119-22137","name":"徳丸ふれあい館","categoryId":"public_service","categoryLabel":"公共服务","lat":35.772003,"lng":139.66031,"stationId":"station-003194","note":"板橋区徳丸2-12-12"},{"id":"public-13119-22134","name":"東山公園内集会所","categoryId":"public_service","categoryLabel":"公共服务","lat":35.755938,"lng":139.685564,"stationId":"station-003223","note":"板橋区東山町52-8"},{"id":"public-13119-22135","name":"桜川地域センター","categoryId":"public_service","categoryLabel":"公共服务","lat":35.752469,"lng":139.681745,"stationId":"station-003223","note":"板橋区東新町2-45-6"},{"id":"public-13119-22085","name":"水久保公園内集会所","categoryId":"public_service","categoryLabel":"公共服务","lat":35.761082,"lng":139.684505,"stationId":"station-003223","note":"板橋区常盤台3-15-4"},{"id":"public-13119-22068","name":"緑ヶ丘第二公園内集会所","categoryId":"public_service","categoryLabel":"公共服务","lat":35.758833,"lng":139.678251,"stationId":"station-003212","note":"板橋区桜川2-18-1"},{"id":"public-13119-22096","name":"西台集会所","categoryId":"public_service","categoryLabel":"公共服务","lat":35.770228,"lng":139.668056,"stationId":"station-003194","note":"板橋区西台4-4-37"},{"id":"public-13119-22136","name":"西徳第一公園内集会所","categoryId":"public_service","categoryLabel":"公共服务","lat":35.772289,"lng":139.667912,"stationId":"station-003194","note":"板橋区徳丸1-42-1"},{"id":"public-13119-22109","name":"見次公園内集会所","categoryId":"public_service","categoryLabel":"公共服务","lat":35.773406,"lng":139.693546,"stationId":"station-003165","note":"板橋区前野町4-59-1"},{"id":"public-13119-22067","name":"上板橋体育館","categoryId":"sports","categoryLabel":"体育设施","lat":35.757069,"lng":139.675592,"stationId":"station-003212","note":"板橋区桜川1-3-1"},{"id":"public-13120-22218","name":"平和台体育館","categoryId":"sports","categoryLabel":"体育设施","lat":35.759427,"lng":139.661427,"stationId":"station-003228","note":"練馬区平和台2-12-5"}]
