[{"id":"medical-3-422","name":"あいがせ矯正歯科","categoryId":"medical","categoryLabel":"医疗","lat":35.585828,"lng":139.705528,"stationId":"station-004270","note":"歯科　小児歯科　矯正歯科　歯科口腔外科"},{"id":"medical-2-605","name":"あさひろ眼科","categoryId":"medical","categoryLabel":"医疗","lat":35.576761,"lng":139.698583,"stationId":"station-004309","note":"内科　呼吸器科　アレルギー科"},{"id":"medical-2-693","name":"あべ内科皮フ科クリニック","categoryId":"medical","categoryLabel":"医疗","lat":35.595019,"lng":139.70081,"stationId":"station-004232","note":"耳鼻いんこう科"},{"id":"medical-2-790","name":"いあい整形外科","categoryId":"medical","categoryLabel":"医疗","lat":35.592698,"lng":139.718645,"stationId":"station-004248","note":"内科　小児科"},{"id":"medical-2-846","name":"いしい医院","categoryId":"medical","categoryLabel":"医疗","lat":35.597235,"lng":139.722835,"stationId":"station-004235","note":"内科　消化器科　小児科"},{"id":"medical-2-868","name":"いしはら医院","categoryId":"medical","categoryLabel":"医疗","lat":35.596803,"lng":139.715216,"stationId":"station-004248","note":"内科　リウマチ科　外科　整形外科　リハビリテーション科"},{"id":"medical-2-1097","name":"えすはこどもクリニック","categoryId":"medical","categoryLabel":"医疗","lat":35.578346,"lng":139.719246,"stationId":"station-004307","note":"眼科"},{"id":"medical-3-1180","name":"おおいで歯科医院","categoryId":"medical","categoryLabel":"医疗","lat":35.592657,"lng":139.697234,"stationId":"station-004239","note":"歯科"},{"id":"medical-3-1224","name":"おおつか歯科医院","categoryId":"medical","categoryLabel":"医疗","lat":35.578205,"lng":139.714948,"stationId":"station-004270","note":"歯科"},{"id":"medical-2-1240","name":"おおはら消化器内科クリニック","categoryId":"medical","categoryLabel":"医疗","lat":35.579245,"lng":139.718799,"stationId":"station-004264","note":"外科　泌尿器科　眼科"},{"id":"medical-3-1251","name":"おおもり北口歯科","categoryId":"medical","categoryLabel":"医疗","lat":35.590609,"lng":139.727779,"stationId":"station-004264","note":"歯科"},{"id":"medical-2-1250","name":"おおもり訪問クリニック","categoryId":"medical","categoryLabel":"医疗","lat":35.584146,"lng":139.724056,"stationId":"station-004264","note":"内科　消化器内科　老年内科"},{"id":"medical-2-1328","name":"おだやか診療所","categoryId":"medical","categoryLabel":"医疗","lat":35.592129,"lng":139.701466,"stationId":"station-004270","note":"内科　小児科　皮膚科"},{"id":"medical-3-1347","name":"おばら矯正歯科","categoryId":"medical","categoryLabel":"医疗","lat":35.580815,"lng":139.697805,"stationId":"station-004305","note":"歯科"},{"id":"medical-2-1492","name":"かねこ眼科医院","categoryId":"medical","categoryLabel":"医疗","lat":35.597933,"lng":139.726618,"stationId":"station-004235","note":"眼科"},{"id":"medical-2-1643","name":"くがはらウィメンズクリニック","categoryId":"medical","categoryLabel":"医疗","lat":35.577534,"lng":139.698444,"stationId":"station-004309","note":"耳鼻咽喉科"},{"id":"medical-3-1664","name":"くに歯科医院","categoryId":"medical","categoryLabel":"医疗","lat":35.589147,"lng":139.729933,"stationId":"station-004264","note":"歯科　小児歯科　矯正歯科　歯科口腔外科"},{"id":"medical-2-1776","name":"くわはら耳鼻咽喉科クリニック","categoryId":"medical","categoryLabel":"医疗","lat":35.591535,"lng":139.697918,"stationId":"station-004270","note":"内科"},{"id":"medical-2-2027","name":"さかい皮フ科形成外科","categoryId":"medical","categoryLabel":"医疗","lat":35.587971,"lng":139.729734,"stationId":"station-004264","note":"形成外科　皮膚科　美容皮膚科"},{"id":"medical-2-2064","name":"さくらクリニック","categoryId":"medical","categoryLabel":"医疗","lat":35.595605,"lng":139.72054,"stationId":"station-004235","note":"耳鼻咽喉科　内科　泌尿器科"},{"id":"medical-2-2159","name":"さぽーとぴあ診療所","categoryId":"medical","categoryLabel":"医疗","lat":35.579444,"lng":139.718296,"stationId":"station-004264","note":"小児科　神経小児科　精神科"},{"id":"medical-3-2186","name":"さんの歯科医院","categoryId":"medical","categoryLabel":"医疗","lat":35.598451,"lng":139.706294,"stationId":"station-004248","note":"歯科　小児歯科　矯正歯科　歯科口腔外科"},{"id":"medical-2-2239","name":"しながわ在宅クリニック","categoryId":"medical","categoryLabel":"医疗","lat":35.599108,"lng":139.708697,"stationId":"station-004248","note":"内科　循環器科"},{"id":"medical-3-2418","name":"すずき歯科診療所","categoryId":"medical","categoryLabel":"医疗","lat":35.587305,"lng":139.707011,"stationId":"station-004270","note":"歯科　矯正歯科　小児歯科　歯科口腔外科"},{"id":"medical-2-2497","name":"せき山王クリニック","categoryId":"medical","categoryLabel":"医疗","lat":35.591023,"lng":139.727482,"stationId":"station-004264","note":"内科　胃腸科　外科　放射線科"},{"id":"medical-3-2863","name":"てらだ歯科医院","categoryId":"medical","categoryLabel":"医疗","lat":35.580346,"lng":139.698163,"stationId":"station-004305","note":"歯科　矯正歯科　小児歯科　歯科口腔外科"},{"id":"medical-2-2980","name":"とちぎクリニック","categoryId":"medical","categoryLabel":"医疗","lat":35.591114,"lng":139.723374,"stationId":"station-004264","note":"眼科"},{"id":"medical-3-3007","name":"とみた歯科クリニック","categoryId":"medical","categoryLabel":"医疗","lat":35.594289,"lng":139.708878,"stationId":"station-004248","note":"歯科"},{"id":"medical-3-3062","name":"なおい歯科クリニック","categoryId":"medical","categoryLabel":"医疗","lat":35.583067,"lng":139.700283,"stationId":"station-004270","note":"歯科"},{"id":"medical-3-3297","name":"のり歯科クリニック","categoryId":"medical","categoryLabel":"医疗","lat":35.587503,"lng":139.703262,"stationId":"station-004270","note":"歯科　歯科口腔外科　小児歯科　矯正歯科"},{"id":"medical-3-3326","name":"はぎさわ歯科","categoryId":"medical","categoryLabel":"医疗","lat":35.599804,"lng":139.717967,"stationId":"station-004235","note":"歯科"},{"id":"medical-2-3518","name":"ひなた在宅クリニック山王","categoryId":"medical","categoryLabel":"医疗","lat":35.585757,"lng":139.725102,"stationId":"station-004264","note":"小児科"},{"id":"medical-2-3661","name":"ふじいクリニック","categoryId":"medical","categoryLabel":"医疗","lat":35.595052,"lng":139.718051,"stationId":"station-004248","note":"内科　小児科　リハビリテーション科"},{"id":"medical-3-3668","name":"ふじさわ歯科医院","categoryId":"medical","categoryLabel":"医疗","lat":35.577732,"lng":139.716731,"stationId":"station-004309","note":"歯科"},{"id":"medical-3-3867","name":"まきた歯科クリニック","categoryId":"medical","categoryLabel":"医疗","lat":35.590554,"lng":139.727922,"stationId":"station-004264","note":"歯科　小児歯科　歯科口腔外科"},{"id":"medical-2-3886","name":"まごめクリニック","categoryId":"medical","categoryLabel":"医疗","lat":35.586679,"lng":139.705417,"stationId":"station-004270","note":"脳神経外科　眼科"},{"id":"medical-2-3887","name":"まごめ内科・腎クリニック","categoryId":"medical","categoryLabel":"医疗","lat":35.587261,"lng":139.707583,"stationId":"station-004270","note":"眼科"},{"id":"medical-3-3907","name":"まち子デンタルクリニック","categoryId":"medical","categoryLabel":"医疗","lat":35.58323,"lng":139.723883,"stationId":"station-004264","note":"歯科"},{"id":"medical-3-4134","name":"むかい歯科","categoryId":"medical","categoryLabel":"医疗","lat":35.584828,"lng":139.728011,"stationId":"station-004264","note":"歯科"},{"id":"medical-3-4326","name":"やまだ歯科口腔外科クリニック","categoryId":"medical","categoryLabel":"医疗","lat":35.59289,"lng":139.725513,"stationId":"station-004264","note":"歯科　小児歯科"},{"id":"medical-3-4390","name":"ゆきたに歯科","categoryId":"medical","categoryLabel":"医疗","lat":35.586308,"lng":139.706811,"stationId":"station-004270","note":"歯科"},{"id":"medical-2-4419","name":"よぎ医院","categoryId":"medical","categoryLabel":"医疗","lat":35.575375,"lng":139.712051,"stationId":"station-004309","note":"アレルギー科　皮膚科　耳鼻咽喉科"},{"id":"medical-3-424","name":"アイカ歯科医院","categoryId":"medical","categoryLabel":"医疗","lat":35.593599,"lng":139.717431,"stationId":"station-004248","note":"歯科　小児歯科"},{"id":"medical-2-671","name":"アトレ大森クリニック","categoryId":"medical","categoryLabel":"医疗","lat":35.588814,"lng":139.728574,"stationId":"station-004264","note":"内科　外科　心臓血管外科　循環器内科"},{"id":"medical-3-863","name":"イシヅカデンタルオフィス","categoryId":"medical","categoryLabel":"医疗","lat":35.586142,"lng":139.728536,"stationId":"station-004264","note":"歯科　小児歯科　歯科口腔外科"},{"id":"medical-3-991","name":"ウィステリアデンタルクリニック","categoryId":"medical","categoryLabel":"医疗","lat":35.583539,"lng":139.723321,"stationId":"station-004264","note":"歯科　歯科口腔外科　矯正歯科　小児歯科"},{"id":"medical-2-1327","name":"オダチ外科内科クリニック","categoryId":"medical","categoryLabel":"医疗","lat":35.586821,"lng":139.700712,"stationId":"station-004270","note":"内科　小児科"},{"id":"medical-3-1464","name":"カトウ歯科医院","categoryId":"medical","categoryLabel":"医疗","lat":35.591937,"lng":139.719613,"stationId":"station-004264","note":"歯科　矯正歯科　小児歯科　歯科口腔外科"},{"id":"medical-3-1944","name":"コペル歯科","categoryId":"medical","categoryLabel":"医疗","lat":35.577523,"lng":139.699065,"stationId":"station-004309","note":"歯科　矯正歯科　小児歯科"},{"id":"medical-2-2030","name":"サカウエ診療所","categoryId":"medical","categoryLabel":"医疗","lat":35.586495,"lng":139.715403,"stationId":"station-004270","note":"整形外科　リハビリテーション科　ペインクリニック外科"},{"id":"medical-3-2528","name":"セントラルビル歯科クリニック","categoryId":"medical","categoryLabel":"医疗","lat":35.585543,"lng":139.729151,"stationId":"station-004264","note":"歯科　小児歯科　歯科口腔外科"},{"id":"medical-3-2849","name":"ティース デンタル オフィス","categoryId":"medical","categoryLabel":"医疗","lat":35.5892,"lng":139.729192,"stationId":"station-004264","note":"歯科　矯正歯科　小児歯科　歯科口腔外科"},{"id":"medical-3-2868","name":"テルデンタルクリニック","categoryId":"medical","categoryLabel":"医疗","lat":35.584146,"lng":139.724056,"stationId":"station-004264","note":"歯科　歯科口腔外科　小児歯科　矯正歯科"},{"id":"medical-3-3405","name":"バニラファミリー歯科","categoryId":"medical","categoryLabel":"医疗","lat":35.578591,"lng":139.723561,"stationId":"station-004307","note":"歯科　小児歯科"},{"id":"medical-3-3624","name":"ファミリー歯科","categoryId":"medical","categoryLabel":"医疗","lat":35.585021,"lng":139.699321,"stationId":"station-004270","note":"歯科　小児歯科　歯科口腔外科　矯正歯科"},{"id":"medical-2-3950","name":"ママダ眼科医院","categoryId":"medical","categoryLabel":"医疗","lat":35.597104,"lng":139.712355,"stationId":"station-004248","note":"内科　消化器科"},{"id":"medical-3-4601","name":"レストキッズデンタルクリニック","categoryId":"medical","categoryLabel":"医疗","lat":35.577002,"lng":139.717569,"stationId":"station-004307","note":"歯科"},{"id":"medical-2-4614","name":"ロコモ南馬込整形クリニック","categoryId":"medical","categoryLabel":"医疗","lat":35.582757,"lng":139.71464,"stationId":"station-004270","note":"整形外科　外科"},{"id":"medical-2-14967","name":"上池上診療所","categoryId":"medical","categoryLabel":"医疗","lat":35.592731,"lng":139.698457,"stationId":"station-004270","note":"内科　皮膚科　泌尿器科　アレルギー科"},{"id":"medical-3-14969","name":"上池台おおつか歯科","categoryId":"medical","categoryLabel":"医疗","lat":35.590804,"lng":139.697814,"stationId":"station-004270","note":"歯科"},{"id":"medical-3-17364","name":"中山歯科医院","categoryId":"medical","categoryLabel":"医疗","lat":35.584953,"lng":139.725214,"stationId":"station-004264","note":"歯科　小児歯科　歯科口腔外科"},{"id":"medical-3-17407","name":"中村歯科","categoryId":"medical","categoryLabel":"医疗","lat":35.59701,"lng":139.704396,"stationId":"station-004248","note":"歯科"},{"id":"medical-3-17413","name":"中村歯科医院","categoryId":"medical","categoryLabel":"医疗","lat":35.598427,"lng":139.726896,"stationId":"station-004235","note":"歯科"},{"id":"medical-2-17342","name":"中河原クリニック","categoryId":"medical","categoryLabel":"医疗","lat":35.585245,"lng":139.727203,"stationId":"station-004264","note":"耳鼻咽喉科"},{"id":"medical-3-17349","name":"中筋歯科医院","categoryId":"medical","categoryLabel":"医疗","lat":35.597005,"lng":139.711253,"stationId":"station-004248","note":"歯科　矯正歯科　小児歯科"},{"id":"medical-2-17476","name":"中馬込おがわ内科","categoryId":"medical","categoryLabel":"医疗","lat":35.595543,"lng":139.708432,"stationId":"station-004248","note":"内科　小児科　胃腸科　放射線科"},{"id":"medical-2-11837","name":"久が原ファミリークリニック","categoryId":"medical","categoryLabel":"医疗","lat":35.578517,"lng":139.700029,"stationId":"station-004309","note":"眼科"},{"id":"medical-2-11869","name":"久保山医院","categoryId":"medical","categoryLabel":"医疗","lat":35.582162,"lng":139.708879,"stationId":"station-004270","note":"内科　外科　脳神経外科"},{"id":"medical-3-11872","name":"久保歯科医院","categoryId":"medical","categoryLabel":"医疗","lat":35.582098,"lng":139.721271,"stationId":"station-004264","note":"歯科　矯正歯科　小児歯科　歯科口腔外科"},{"id":"medical-3-12567","name":"五十嵐歯科医院","categoryId":"medical","categoryLabel":"医疗","lat":35.575542,"lng":139.714993,"stationId":"station-004309","note":"歯科"},{"id":"medical-3-10622","name":"井坂歯科医院","categoryId":"medical","categoryLabel":"医疗","lat":35.585524,"lng":139.726349,"stationId":"station-004264","note":"歯科　小児歯科　矯正歯科　口腔外科歯科"},{"id":"medical-3-12700","name":"公益社団法人東京都大田区大森歯科医師会 休日応急診療所","categoryId":"medical","categoryLabel":"医疗","lat":35.575323,"lng":139.705212,"stationId":"station-004309","note":"歯科"},{"id":"medical-3-18731","name":"内田歯科医院","categoryId":"medical","categoryLabel":"医疗","lat":35.588059,"lng":139.727367,"stationId":"station-004264","note":"歯科　矯正歯科　小児歯科　歯科口腔外科"},{"id":"medical-3-19907","name":"北川歯科クリニック","categoryId":"medical","categoryLabel":"医疗","lat":35.578417,"lng":139.727748,"stationId":"station-004294","note":"歯科　小児歯科"},{"id":"medical-3-19918","name":"北村歯科医院","categoryId":"medical","categoryLabel":"医疗","lat":35.598586,"lng":139.715015,"stationId":"station-004248","note":"歯科"},{"id":"medical-3-19920","name":"北村歯科医院","categoryId":"medical","categoryLabel":"医疗","lat":35.590294,"lng":139.719326,"stationId":"station-004264","note":"歯科"},{"id":"medical-2-4849","name":"医療法人エルア会　マオメディカルクリニック","categoryId":"medical","categoryLabel":"医疗","lat":35.588442,"lng":139.729676,"stationId":"station-004264","note":"内科　泌尿器科　皮膚科　精神科　心療内科"},{"id":"medical-2-5939","name":"医療法人社団 博翠会 寺嶋クリニック","categoryId":"medical","categoryLabel":"医疗","lat":35.590024,"lng":139.727825,"stationId":"station-004264","note":"内科　呼吸器科　循環器科　外科　泌尿器科"},{"id":"medical-2-5327","name":"医療法人社団 啓清会 井上小児科医院","categoryId":"medical","categoryLabel":"医疗","lat":35.58662,"lng":139.726008,"stationId":"station-004264","note":"内科　小児科　外科　麻酔科"},{"id":"medical-3-5788","name":"医療法人社団 宣心会 こころデンタルクリニック","categoryId":"medical","categoryLabel":"医疗","lat":35.586805,"lng":139.727745,"stationId":"station-004264","note":"歯科　小児歯科　矯正歯科　口腔外科"},{"id":"medical-2-6014","name":"医療法人社団 明善会 大森榎本クリニック","categoryId":"medical","categoryLabel":"医疗","lat":35.586217,"lng":139.729105,"stationId":"station-004264","note":"皮膚科"},{"id":"medical-3-5735","name":"医療法人社団 正翔会 横須賀デンタルオフィス","categoryId":"medical","categoryLabel":"医疗","lat":35.590027,"lng":139.728501,"stationId":"station-004264","note":"歯科"},{"id":"medical-3-6058","name":"医療法人社団 裕歯会 小林デンタルクリニック","categoryId":"medical","categoryLabel":"医疗","lat":35.582604,"lng":139.725202,"stationId":"station-004264","note":"歯科　矯正歯科　小児歯科　歯科口腔外科"},{"id":"medical-2-5129","name":"医療法人社団　じゅんせいクリニック","categoryId":"medical","categoryLabel":"医疗","lat":35.59169,"lng":139.720342,"stationId":"station-004264","note":"内科　小児科　心療内科　精神科　神経科"},{"id":"medical-2-5132","name":"医療法人社団　すずきクリニック","categoryId":"medical","categoryLabel":"医疗","lat":35.590192,"lng":139.716463,"stationId":"station-004248","note":"内科　小児科"},{"id":"medical-2-5490","name":"医療法人社団　三留クリニック","categoryId":"medical","categoryLabel":"医疗","lat":35.575912,"lng":139.726,"stationId":"station-004307","note":"内科　精神科　整形外科"},{"id":"medical-2-5195","name":"医療法人社団　伊藤医院","categoryId":"medical","categoryLabel":"医疗","lat":35.592016,"lng":139.720389,"stationId":"station-004264","note":"内科　精神科　神経内科　リハビリテーション科"},{"id":"medical-2-5824","name":"医療法人社団　大森診療所","categoryId":"medical","categoryLabel":"医疗","lat":35.586975,"lng":139.71482,"stationId":"station-004270","note":"内科　小児科　皮膚科"},{"id":"medical-1-5615","name":"医療法人社団　松井病院","categoryId":"medical","categoryLabel":"医疗","lat":35.578411,"lng":139.701143,"stationId":"station-004309","note":"内科　循環器内科　消化器内科　呼吸器内科　腎臓内科　外科　消化器外科　肛門外科　整形外科　皮膚科　眼科　婦人科　リハビリ科　脳神経外科"},{"id":"medical-2-6602","name":"医療法人社団たんぽぽ たんぽぽ皮膚科クリニック","categoryId":"medical","categoryLabel":"医疗","lat":35.585757,"lng":139.725102,"stationId":"station-004264","note":"内科"},{"id":"medical-2-6457","name":"医療法人社団グッドスリープ グッドスリープ・大森クリニック","categoryId":"medical","categoryLabel":"医疗","lat":35.586805,"lng":139.727745,"stationId":"station-004264","note":"眼科　小児眼科"},{"id":"medical-3-6558","name":"医療法人社団スマイルステーション大森イースト歯科","categoryId":"medical","categoryLabel":"医疗","lat":35.588814,"lng":139.728574,"stationId":"station-004264","note":"歯科　小児歯科　歯科口腔外科"},{"id":"medical-3-6698","name":"医療法人社団ファミール会 まごめファミリー歯科","categoryId":"medical","categoryLabel":"医疗","lat":35.596024,"lng":139.711254,"stationId":"station-004248","note":"歯科　矯正歯科　小児歯科"},{"id":"medical-3-6838","name":"医療法人社団ヨシダ歯科","categoryId":"medical","categoryLabel":"医疗","lat":35.580746,"lng":139.707851,"stationId":"station-004270","note":"歯科　矯正歯科　小児歯科　歯科口腔外科"},{"id":"medical-2-8747","name":"医療法人社団仁牧会 大森牧田クリニック","categoryId":"medical","categoryLabel":"医疗","lat":35.585543,"lng":139.727282,"stationId":"station-004264","note":"内科　小児科"},{"id":"medical-3-9866","name":"医療法人社団保歯会　梅本歯科医院","categoryId":"medical","categoryLabel":"医疗","lat":35.578408,"lng":139.717342,"stationId":"station-004270","note":"歯科　矯正歯科　小児歯科　歯科口腔外科"},{"id":"medical-3-10436","name":"医療法人社団偕老会　平松クリニック","categoryId":"medical","categoryLabel":"医疗","lat":35.589833,"lng":139.729848,"stationId":"station-004264","note":"歯科　小児歯科"},{"id":"medical-2-7568","name":"医療法人社団健督会 かぶらきクリニック","categoryId":"medical","categoryLabel":"医疗","lat":35.577578,"lng":139.7155,"stationId":"station-004309","note":"耳鼻いんこう科　麻酔科"},{"id":"medical-2-7685","name":"医療法人社団公孫堂　安澤医院","categoryId":"medical","categoryLabel":"医疗","lat":35.59893,"lng":139.726213,"stationId":"station-004235","note":"内科　循環器内科　糖尿病内科　小児科　小児アレルギー科"},{"id":"medical-3-9221","name":"医療法人社団創新会 大森・東京歯科口腔外科","categoryId":"medical","categoryLabel":"医疗","lat":35.586339,"lng":139.728425,"stationId":"station-004264","note":"歯科　矯正歯科　小児歯科　歯科口腔外科"},{"id":"medical-3-9222","name":"医療法人社団創新会Luz大森アプル歯科医院","categoryId":"medical","categoryLabel":"医疗","lat":35.586339,"lng":139.728425,"stationId":"station-004264","note":"歯科　矯正歯科　小児歯科　歯科口腔外科"},{"id":"medical-3-9230","name":"医療法人社団創生会　松元教貢歯科医院","categoryId":"medical","categoryLabel":"医疗","lat":35.582793,"lng":139.722527,"stationId":"station-004264","note":"歯科　矯正歯科　小児歯科　歯科口腔外科"},{"id":"medical-2-6944","name":"医療法人社団医聖心和会 ファミリークリニック馬込","categoryId":"medical","categoryLabel":"医疗","lat":35.596047,"lng":139.710438,"stationId":"station-004248","note":"内科　小児科"},{"id":"medical-3-9690","name":"医療法人社団博仁会　立石歯科医院","categoryId":"medical","categoryLabel":"医疗","lat":35.579756,"lng":139.71917,"stationId":"station-004264","note":"歯科　矯正歯科　小児歯科　歯科口腔外科"},{"id":"medical-2-9681","name":"医療法人社団博慈会観音通り中央医院","categoryId":"medical","categoryLabel":"医疗","lat":35.576256,"lng":139.719022,"stationId":"station-004307","note":"リウマチ科　整形外科　皮膚科　リハビリテーション科"},{"id":"medical-2-9664","name":"医療法人社団如星会 山王耳鼻咽喉科","categoryId":"medical","categoryLabel":"医疗","lat":35.590273,"lng":139.728535,"stationId":"station-004264","note":"消化器内科　肛門外科"},{"id":"medical-2-7728","name":"医療法人社団宏仁会　千葉医院","categoryId":"medical","categoryLabel":"医疗","lat":35.58027,"lng":139.726436,"stationId":"station-004294","note":"皮膚科"},{"id":"medical-2-9607","name":"医療法人社団徳仁会 藤井内科クリニック","categoryId":"medical","categoryLabel":"医疗","lat":35.584908,"lng":139.706233,"stationId":"station-004270","note":"内科　循環器内科　糖尿病内科　呼吸器内科"},{"id":"medical-3-8592","name":"医療法人社団心瑛会 うえくさ歯科","categoryId":"medical","categoryLabel":"医疗","lat":35.591318,"lng":139.725185,"stationId":"station-004264","note":"歯科"},{"id":"medical-2-7372","name":"医療法人社団恵潤会　小関医院","categoryId":"medical","categoryLabel":"医疗","lat":35.586755,"lng":139.719837,"stationId":"station-004264","note":"整形外科　リハビリテーション科　ペインクリニック外科"},{"id":"medical-2-8162","name":"医療法人社団慈栄会 金子クリニック","categoryId":"medical","categoryLabel":"医疗","lat":35.598845,"lng":139.703863,"stationId":"station-004225","note":"内科"},{"id":"medical-2-7432","name":"医療法人社団慶診会 Ｋクリニック山王","categoryId":"medical","categoryLabel":"医疗","lat":35.591634,"lng":139.723084,"stationId":"station-004264","note":"内科　産婦人科"},{"id":"medical-2-8484","name":"医療法人社団松英会　馬込中央診療所","categoryId":"medical","categoryLabel":"医疗","lat":35.59705,"lng":139.707208,"stationId":"station-004248","note":"内科　胃腸科　外科　整形外科　泌尿器科　リハビリテーション科"},{"id":"medical-2-7020","name":"医療法人社団栄誉会 本田英比古クリニック","categoryId":"medical","categoryLabel":"医疗","lat":35.583048,"lng":139.721398,"stationId":"station-004264","note":"眼科　内科　心療内科　精神科"},{"id":"medical-3-8644","name":"医療法人社団森和会　森歯科医院","categoryId":"medical","categoryLabel":"医疗","lat":35.58678,"lng":139.728368,"stationId":"station-004264","note":"歯科"},{"id":"medical-2-8893","name":"医療法人社団正奨会 大森ながさわ眼科","categoryId":"medical","categoryLabel":"医疗","lat":35.588059,"lng":139.727367,"stationId":"station-004264","note":"内科　呼吸器科　消化器科　循環器科"},{"id":"medical-3-8917","name":"医療法人社団正翔会 横須賀歯科医院","categoryId":"medical","categoryLabel":"医疗","lat":35.590027,"lng":139.728501,"stationId":"station-004264","note":"歯科　小児歯科　矯正歯科　歯科口腔外科"},{"id":"medical-2-9297","name":"医療法人社団泰山木会 持田医院","categoryId":"medical","categoryLabel":"医疗","lat":35.580405,"lng":139.721206,"stationId":"station-004264","note":"小児科"},{"id":"medical-2-9304","name":"医療法人社団泰心会 内科小児科渕上医院","categoryId":"medical","categoryLabel":"医疗","lat":35.583401,"lng":139.719285,"stationId":"station-004264","note":"眼科"},{"id":"medical-2-7883","name":"医療法人社団浩生会 さい整形外科","categoryId":"medical","categoryLabel":"医疗","lat":35.586067,"lng":139.708829,"stationId":"station-004270","note":"内科　小児科　呼吸器科　循環器科"},{"id":"medical-2-10189","name":"医療法人社団湧滉会 山王皮フ科クリニック","categoryId":"medical","categoryLabel":"医疗","lat":35.590273,"lng":139.728535,"stationId":"station-004264","note":"内科　小児科　胃腸内科　循環器内科　外科　婦人科　眼科　乳腺外科"},{"id":"medical-2-9271","name":"医療法人社団相生会　どうどうクリニック","categoryId":"medical","categoryLabel":"医疗","lat":35.5872,"lng":139.695396,"stationId":"station-004270","note":"内科　精神科"},{"id":"medical-2-9856","name":"医療法人社団碧心会 大森こころクリニック","categoryId":"medical","categoryLabel":"医疗","lat":35.590173,"lng":139.728457,"stationId":"station-004264","note":"耳鼻咽喉科"},{"id":"medical-3-9287","name":"医療法人社団足羽会　松川歯科医院","categoryId":"medical","categoryLabel":"医疗","lat":35.586692,"lng":139.726085,"stationId":"station-004264","note":"歯科　小児歯科　矯正歯科　歯科口腔外科"},{"id":"medical-2-10292","name":"医療法人社団隆愛会　月岡医院","categoryId":"medical","categoryLabel":"医疗","lat":35.591656,"lng":139.728588,"stationId":"station-004264","note":"精神科　心療内科"},{"id":"medical-2-10303","name":"医療法人社団隆真会大森耳鼻咽喉科","categoryId":"medical","categoryLabel":"医疗","lat":35.588442,"lng":139.729676,"stationId":"station-004264","note":"アレルギー科　耳鼻咽喉科"},{"id":"medical-2-10441","name":"医療法人社団雙葉会　はなおかレディースクリニック","categoryId":"medical","categoryLabel":"医疗","lat":35.58983,"lng":139.729517,"stationId":"station-004264","note":"産科　婦人科　女性内科"},{"id":"medical-2-8221","name":"医療法人社団鹿苑会　山王クリニック","categoryId":"medical","categoryLabel":"医疗","lat":35.590554,"lng":139.727922,"stationId":"station-004264","note":"整形外科　形成外科　リハビリテーション科"},{"id":"medical-3-6260","name":"医療法人社団ＰＥＡＣＨ　もも矯正歯科","categoryId":"medical","categoryLabel":"医疗","lat":35.588442,"lng":139.729676,"stationId":"station-004264","note":"矯正歯科"},{"id":"medical-3-6304","name":"医療法人社団ＴＳＧ ティーズデンタルクリニック","categoryId":"medical","categoryLabel":"医疗","lat":35.585254,"lng":139.704985,"stationId":"station-004270","note":"歯科　小児歯科"},{"id":"medical-1-4929","name":"医療法人財団　中島記念会　大森山王病院","categoryId":"medical","categoryLabel":"医疗","lat":35.582103,"lng":139.722681,"stationId":"station-004264","note":"内科"},{"id":"medical-1-4895","name":"医療法人財団　安田病院","categoryId":"medical","categoryLabel":"医疗","lat":35.58678,"lng":139.728368,"stationId":"station-004264","note":"内科　外科　整形外科　皮膚科　泌尿器科　リハビリ科　心療内科　精神科"},{"id":"medical-2-4993","name":"医療法人財団十字会　古川医院","categoryId":"medical","categoryLabel":"医疗","lat":35.579579,"lng":139.728399,"stationId":"station-004294","note":"眼科"},{"id":"medical-2-18801","name":"南馬込おかばやし耳鼻咽喉科","categoryId":"medical","categoryLabel":"医疗","lat":35.584496,"lng":139.706781,"stationId":"station-004270","note":"整形外科　脳神経外科"},{"id":"medical-2-18803","name":"南馬込内科循環器クリニック","categoryId":"medical","categoryLabel":"医疗","lat":35.583611,"lng":139.71245,"stationId":"station-004270","note":"内科　小児科"},{"id":"medical-3-18802","name":"南馬込歯科医院","categoryId":"medical","categoryLabel":"医疗","lat":35.591021,"lng":139.715702,"stationId":"station-004248","note":"歯科"},{"id":"medical-2-12487","name":"原本クリニック","categoryId":"medical","categoryLabel":"医疗","lat":35.575363,"lng":139.708568,"stationId":"station-004309","note":"内科　小児科　消化器科"},{"id":"medical-2-12481","name":"原田耳鼻咽喉科医院","categoryId":"medical","categoryLabel":"医疗","lat":35.589595,"lng":139.729775,"stationId":"station-004264","note":"耳鼻咽喉科"},{"id":"medical-2-11716","name":"吉丸眼科医院","categoryId":"medical","categoryLabel":"医疗","lat":35.590821,"lng":139.728196,"stationId":"station-004264","note":"皮膚科　形成外科"},{"id":"medical-2-20730","name":"和田クリニック","categoryId":"medical","categoryLabel":"医疗","lat":35.577505,"lng":139.715719,"stationId":"station-004309","note":"内科　循環器内科　糖尿病内科"},{"id":"medical-3-19381","name":"品川ライオンズ歯科医院","categoryId":"medical","categoryLabel":"医疗","lat":35.598995,"lng":139.725099,"stationId":"station-004235","note":"歯科　矯正歯科　小児歯科　歯科口腔外科"},{"id":"medical-2-10904","name":"塩崎内科医院","categoryId":"medical","categoryLabel":"医疗","lat":35.593112,"lng":139.725135,"stationId":"station-004264","note":"眼科"},{"id":"medical-2-16692","name":"多田耳鼻咽喉科医院","categoryId":"medical","categoryLabel":"医疗","lat":35.577401,"lng":139.698194,"stationId":"station-004309","note":"内科　小児科"},{"id":"medical-2-17066","name":"大木皮膚科","categoryId":"medical","categoryLabel":"医疗","lat":35.591023,"lng":139.727482,"stationId":"station-004264","note":"内科　外科　脳神経外科　漢方内科"},{"id":"medical-2-16878","name":"大森こどもハート・アレルギークリニック","categoryId":"medical","categoryLabel":"医疗","lat":35.587873,"lng":139.728937,"stationId":"station-004264","note":"内科　消化器内科　内視鏡内科"},{"id":"medical-2-16879","name":"大森たなか眼科","categoryId":"medical","categoryLabel":"医疗","lat":35.586339,"lng":139.728425,"stationId":"station-004264","note":"心療内科　精神科　内科"},{"id":"medical-2-16881","name":"大森ふるや眼科クリニック","categoryId":"medical","categoryLabel":"医疗","lat":35.576256,"lng":139.719022,"stationId":"station-004307","note":"内科　消化器内科"},{"id":"medical-3-16885","name":"大森わたなべ歯科","categoryId":"medical","categoryLabel":"医疗","lat":35.586733,"lng":139.727462,"stationId":"station-004264","note":"歯科　小児歯科　口腔外科歯科"},{"id":"medical-3-16884","name":"大森レインボー歯科","categoryId":"medical","categoryLabel":"医疗","lat":35.589595,"lng":139.729775,"stationId":"station-004264","note":"歯科　小児歯科"},{"id":"medical-2-16907","name":"大森内科ハートクリニック","categoryId":"medical","categoryLabel":"医疗","lat":35.586733,"lng":139.727462,"stationId":"station-004264","note":"内科"},{"id":"medical-3-16909","name":"大森北歯科","categoryId":"medical","categoryLabel":"医疗","lat":35.581019,"lng":139.726752,"stationId":"station-004294","note":"歯科　小児歯科"},{"id":"medical-2-16887","name":"大森医師会診療所","categoryId":"medical","categoryLabel":"医疗","lat":35.579642,"lng":139.718659,"stationId":"station-004264","note":"消化器内科　内科"},{"id":"medical-3-16891","name":"大森山王あおやま歯科","categoryId":"medical","categoryLabel":"医疗","lat":35.585479,"lng":139.725311,"stationId":"station-004264","note":"歯科　矯正歯科　小児歯科　歯科口腔外科"},{"id":"medical-3-16892","name":"大森山王デンタルオフィス","categoryId":"medical","categoryLabel":"医疗","lat":35.59361,"lng":139.725322,"stationId":"station-004264","note":"歯科"},{"id":"medical-2-16900","name":"大森整形外科","categoryId":"medical","categoryLabel":"医疗","lat":35.587873,"lng":139.728937,"stationId":"station-004264","note":"心療内科　神経内科　整形外科　脳神経外科"},{"id":"medical-3-16893","name":"大森歯科クリニック","categoryId":"medical","categoryLabel":"医疗","lat":35.586209,"lng":139.728467,"stationId":"station-004264","note":"歯科　矯正歯科　小児歯科　歯科口腔外科"},{"id":"medical-2-16908","name":"大森皮膚科クリニック","categoryId":"medical","categoryLabel":"医疗","lat":35.586248,"lng":139.729906,"stationId":"station-004264","note":"小児科　アレルギー科　小児循環器内科　内科　皮膚科"},{"id":"medical-2-16890","name":"大森眼科医院","categoryId":"medical","categoryLabel":"医疗","lat":35.591591,"lng":139.728899,"stationId":"station-004264","note":"整形外科　内科"},{"id":"medical-2-16888","name":"大森駅前内科・内視鏡クリニック","categoryId":"medical","categoryLabel":"医疗","lat":35.587873,"lng":139.728937,"stationId":"station-004264","note":"整形外科　リウマチ科　リハビリテーション科ペインクリニック内科　内科"},{"id":"medical-3-16818","name":"大橋歯科クリニック","categoryId":"medical","categoryLabel":"医疗","lat":35.591661,"lng":139.721541,"stationId":"station-004264","note":"歯科　小児歯科　矯正歯科　歯科口腔外科"},{"id":"medical-2-17015","name":"大田区保健所大森地域健康課","categoryId":"medical","categoryLabel":"医疗","lat":35.578103,"lng":139.72295,"stationId":"station-004307","note":"内科　小児科　胃腸科　循環器科　放射線科"},{"id":"medical-2-17027","name":"大田大森胃腸肛門内視鏡クリニック","categoryId":"medical","categoryLabel":"医疗","lat":35.586339,"lng":139.728425,"stationId":"station-004264","note":"眼科"},{"id":"medical-2-16916","name":"大西クリニック","categoryId":"medical","categoryLabel":"医疗","lat":35.599564,"lng":139.728508,"stationId":"station-004235","note":"内科　消化器科　外科　肛門科　リハビリテーション科"},{"id":"medical-2-17080","name":"大野皮フ科クリニック","categoryId":"medical","categoryLabel":"医疗","lat":35.577578,"lng":139.7155,"stationId":"station-004309","note":"内科　消化器科　皮膚科"},{"id":"medical-2-19463","name":"夫婦坂クリニック","categoryId":"medical","categoryLabel":"医疗","lat":35.598113,"lng":139.703137,"stationId":"station-004232","note":"皮膚科"},{"id":"medical-2-10920","name":"奥秋整形外科","categoryId":"medical","categoryLabel":"医疗","lat":35.588733,"lng":139.729889,"stationId":"station-004264","note":"リウマチ科　整形外科　リハビリテーション科"},{"id":"medical-2-4728","name":"安田眼科医院","categoryId":"medical","categoryLabel":"医疗","lat":35.583779,"lng":139.719584,"stationId":"station-004264","note":"内科　整形外科　放射線科　皮膚科　外科"},{"id":"medical-2-11675","name":"宜保整形外科医院","categoryId":"medical","categoryLabel":"医疗","lat":35.59974,"lng":139.728445,"stationId":"station-004235","note":"外科　整形外科　皮膚科　泌尿器科"},{"id":"medical-2-11904","name":"宮下耳鼻咽喉科医院","categoryId":"medical","categoryLabel":"医疗","lat":35.577578,"lng":139.7155,"stationId":"station-004309","note":"皮膚科　アレルギー科"},{"id":"medical-2-14509","name":"小児科青柳医院","categoryId":"medical","categoryLabel":"医疗","lat":35.584199,"lng":139.729744,"stationId":"station-004264","note":"外科　耳鼻咽喉科　胃腸内科　アレルギー科"},{"id":"medical-2-14484","name":"小原りぼんクリニック","categoryId":"medical","categoryLabel":"医疗","lat":35.580879,"lng":139.696077,"stationId":"station-004292","note":"整形外科　リハビリテーション科"},{"id":"medical-2-14720","name":"小林耳鼻咽喉科医院","categoryId":"medical","categoryLabel":"医疗","lat":35.585579,"lng":139.726987,"stationId":"station-004264","note":"眼科"},{"id":"medical-3-14590","name":"小池歯科医院","categoryId":"medical","categoryLabel":"医疗","lat":35.599746,"lng":139.709421,"stationId":"station-004248","note":"歯科"},{"id":"medical-3-14522","name":"小沼歯科医院","categoryId":"medical","categoryLabel":"医疗","lat":35.590173,"lng":139.728457,"stationId":"station-004264","note":"歯科　小児歯科　矯正歯科　歯科口腔外科"},{"id":"medical-3-14462","name":"小笠原歯科医院","categoryId":"medical","categoryLabel":"医疗","lat":35.584258,"lng":139.725522,"stationId":"station-004264","note":"歯科　矯正歯科　小児歯科　歯科口腔外科"},{"id":"medical-2-14532","name":"小西医院","categoryId":"medical","categoryLabel":"医疗","lat":35.586434,"lng":139.704913,"stationId":"station-004270","note":"内科　消化器科　胃腸科　外科"},{"id":"medical-3-19307","name":"尾﨑歯科医院","categoryId":"medical","categoryLabel":"医疗","lat":35.58619,"lng":139.725988,"stationId":"station-004264","note":"歯科　矯正歯科"},{"id":"medical-2-13580","name":"山王 眼と心のクリニック","categoryId":"medical","categoryLabel":"医疗","lat":35.584146,"lng":139.724056,"stationId":"station-004264","note":"内科　精神科"},{"id":"medical-3-13583","name":"山王デンタルクリニック","categoryId":"medical","categoryLabel":"医疗","lat":35.58714,"lng":139.726454,"stationId":"station-004264","note":"歯科　矯正歯科　小児歯科　歯科口腔外科"},{"id":"medical-2-13586","name":"山王内科クリニック","categoryId":"medical","categoryLabel":"医疗","lat":35.586993,"lng":139.7264,"stationId":"station-004264","note":"内科　小児科"},{"id":"medical-2-13585","name":"山王山手ビルクリニック","categoryId":"medical","categoryLabel":"医疗","lat":35.590024,"lng":139.727825,"stationId":"station-004264","note":"内科　神経内科"},{"id":"medical-2-13587","name":"山王白石クリニック","categoryId":"medical","categoryLabel":"医疗","lat":35.593335,"lng":139.722454,"stationId":"station-004264","note":"眼科"},{"id":"medical-3-13701","name":"山田歯科医院","categoryId":"medical","categoryLabel":"医疗","lat":35.591046,"lng":139.728234,"stationId":"station-004264","note":"歯科　矯正歯科　小児歯科　歯科口腔外科"},{"id":"medical-3-13770","name":"山﨑歯科医院","categoryId":"medical","categoryLabel":"医疗","lat":35.587731,"lng":139.71146,"stationId":"station-004270","note":"歯科"},{"id":"medical-3-11045","name":"岡本歯科医院","categoryId":"medical","categoryLabel":"医疗","lat":35.592579,"lng":139.698298,"stationId":"station-004270","note":"歯科　矯正歯科　小児歯科　歯科口腔外科"},{"id":"medical-3-11626","name":"岩澤歯科診療所","categoryId":"medical","categoryLabel":"医疗","lat":35.587406,"lng":139.721728,"stationId":"station-004264","note":"歯科　小児歯科"},{"id":"medical-3-18005","name":"島歯科医院","categoryId":"medical","categoryLabel":"医疗","lat":35.575219,"lng":139.701118,"stationId":"station-004309","note":"矯正歯科　歯科"},{"id":"medical-3-19689","name":"平松歯科医院","categoryId":"medical","categoryLabel":"医疗","lat":35.585288,"lng":139.728631,"stationId":"station-004264","note":"歯科　小児歯科"},{"id":"medical-3-18524","name":"徳植デンタルクリニック","categoryId":"medical","categoryLabel":"医疗","lat":35.582972,"lng":139.727542,"stationId":"station-004264","note":"歯科"},{"id":"medical-2-15104","name":"新井整形外科","categoryId":"medical","categoryLabel":"医疗","lat":35.576797,"lng":139.71411,"stationId":"station-004309","note":"内科　小児科　皮膚科　泌尿器科"},{"id":"medical-3-15258","name":"新谷歯科医院","categoryId":"medical","categoryLabel":"医疗","lat":35.575389,"lng":139.711314,"stationId":"station-004309","note":"歯科"},{"id":"medical-1-18948","name":"日本赤十字社東京都支部　大森赤十字病院","categoryId":"medical","categoryLabel":"医疗","lat":35.578799,"lng":139.717186,"stationId":"station-004270","note":"呼吸器内科　循環器内科　消化器内科　糖尿病内分泌内科　血液内科　腎臓内科　神経内科　小児科　精神科　外科　呼吸器外科　脳神経外科　整形外科　心臓血管外科　泌尿器科　眼科　耳鼻いんこう科　産科　婦人科　リハビリ科　放射線科　麻酔科　皮膚科　救急科"},{"id":"medical-3-19854","name":"望田歯科医院","categoryId":"medical","categoryLabel":"医疗","lat":35.581341,"lng":139.696359,"stationId":"station-004292","note":"歯科　小児歯科　歯科口腔外科"},{"id":"medical-3-20194","name":"木邑歯科医院","categoryId":"medical","categoryLabel":"医疗","lat":35.577259,"lng":139.717509,"stationId":"station-004307","note":"小児歯科　矯正歯科　歯科"},{"id":"medical-3-18052","name":"東久が原歯科","categoryId":"medical","categoryLabel":"医疗","lat":35.581798,"lng":139.697591,"stationId":"station-004270","note":"矯正歯科"},{"id":"medical-2-18367","name":"東田医院","categoryId":"medical","categoryLabel":"医疗","lat":35.598536,"lng":139.725496,"stationId":"station-004235","note":"内科　リウマチ科　外科　整形外科　リハビリテーション科"},{"id":"medical-2-18374","name":"東馬込しば整形外科","categoryId":"medical","categoryLabel":"医疗","lat":35.596694,"lng":139.71453,"stationId":"station-004248","note":"眼科"},{"id":"medical-2-14806","name":"松山クリニック","categoryId":"medical","categoryLabel":"医疗","lat":35.599733,"lng":139.716177,"stationId":"station-004248","note":"内科　小児科　精神科　リハビリテーション科"},{"id":"medical-2-14852","name":"松本医院","categoryId":"medical","categoryLabel":"医疗","lat":35.578609,"lng":139.716074,"stationId":"station-004270","note":"小児科　神経小児科　精神科"},{"id":"medical-2-16464","name":"染川医院","categoryId":"medical","categoryLabel":"医疗","lat":35.577652,"lng":139.698338,"stationId":"station-004309","note":"産婦人科　女性内科"},{"id":"medical-2-12302","name":"栗原クリニック","categoryId":"medical","categoryLabel":"医疗","lat":35.590273,"lng":139.728535,"stationId":"station-004264","note":"皮膚科　形成外科　美容皮膚科"},{"id":"medical-2-11424","name":"株式会社リコー診療所","categoryId":"medical","categoryLabel":"医疗","lat":35.597854,"lng":139.705718,"stationId":"station-004248","note":"内科　小児科　呼吸器科　消化器科　循環器科　皮膚科　リハビリテーション科　産婦人科　放射線科　歯科"},{"id":"medical-3-13385","name":"桜並木塚本歯科医院","categoryId":"medical","categoryLabel":"医疗","lat":35.58379,"lng":139.712277,"stationId":"station-004270","note":"歯科"},{"id":"medical-3-15304","name":"森山歯科医院","categoryId":"medical","categoryLabel":"医疗","lat":35.583605,"lng":139.695343,"stationId":"station-004292","note":"歯科　小児歯科　歯科口腔外科"},{"id":"medical-3-15322","name":"森川歯科医院","categoryId":"medical","categoryLabel":"医疗","lat":35.578449,"lng":139.719166,"stationId":"station-004307","note":"歯科　小児歯科　歯科口腔外科"},{"id":"medical-2-15316","name":"森瀬医院","categoryId":"medical","categoryLabel":"医疗","lat":35.582968,"lng":139.713384,"stationId":"station-004270","note":"耳鼻咽喉科　小児耳鼻咽喉科　アレルギー科　小児科"},{"id":"medical-2-15069","name":"植村小児科・内科","categoryId":"medical","categoryLabel":"医疗","lat":35.584825,"lng":139.727781,"stationId":"station-004264","note":"心療内科　精神科"},{"id":"medical-2-15725","name":"正林医院","categoryId":"medical","categoryLabel":"医疗","lat":35.58543,"lng":139.709625,"stationId":"station-004270","note":"内科　小児科"},{"id":"medical-3-15515","name":"水沼歯科医院","categoryId":"medical","categoryLabel":"医疗","lat":35.576642,"lng":139.71461,"stationId":"station-004309","note":"歯科　小児歯科　矯正歯科　歯科口腔外科"},{"id":"medical-2-17191","name":"池上ホームクリニック","categoryId":"medical","categoryLabel":"医疗","lat":35.588996,"lng":139.707143,"stationId":"station-004270","note":"内科"},{"id":"medical-3-17248","name":"池田屋歯科","categoryId":"medical","categoryLabel":"医疗","lat":35.58504,"lng":139.72971,"stationId":"station-004264","note":"歯科　小児歯科"},{"id":"medical-3-17131","name":"沢田通り歯科","categoryId":"medical","categoryLabel":"医疗","lat":35.579399,"lng":139.728317,"stationId":"station-004294","note":"歯科　小児歯科　歯科口腔外科　矯正歯科"},{"id":"medical-2-16451","name":"浅野医院","categoryId":"medical","categoryLabel":"医疗","lat":35.593211,"lng":139.72973,"stationId":"station-004264","note":"内科　小児科"},{"id":"medical-3-12819","name":"浩司デンタルクリニック","categoryId":"medical","categoryLabel":"医疗","lat":35.597104,"lng":139.712355,"stationId":"station-004248","note":"歯科　小児歯科　歯科口腔外科"},{"id":"medical-2-15771","name":"清木クリニック","categoryId":"medical","categoryLabel":"医疗","lat":35.577368,"lng":139.714685,"stationId":"station-004309","note":"リウマチ科　整形外科　リハビリテーション科　麻酔科"},{"id":"medical-2-18568","name":"特別養護老人ホーム　ロイヤルサニー医務室","categoryId":"medical","categoryLabel":"医疗","lat":35.599894,"lng":139.722548,"stationId":"station-004235","note":"内科"},{"id":"medical-2-18654","name":"特別養護老人ホーム大森","categoryId":"medical","categoryLabel":"医疗","lat":35.575718,"lng":139.724992,"stationId":"station-004307","note":"小児科　腫瘍内科　アレルギー科"},{"id":"medical-3-18655","name":"特別養護老人ホーム大森歯科","categoryId":"medical","categoryLabel":"医疗","lat":35.575718,"lng":139.724992,"stationId":"station-004307","note":"歯科　小児歯科　歯科口腔外科"},{"id":"medical-2-18661","name":"特別養護老人ホーム池上","categoryId":"medical","categoryLabel":"医疗","lat":35.584985,"lng":139.697554,"stationId":"station-004270","note":"内科　胃腸科"},{"id":"medical-3-18662","name":"特別養護老人ホーム池上歯科","categoryId":"medical","categoryLabel":"医疗","lat":35.584985,"lng":139.697554,"stationId":"station-004270","note":"歯科"},{"id":"medical-2-18669","name":"特別養護老人ホーム馬込医院","categoryId":"medical","categoryLabel":"医疗","lat":35.58968,"lng":139.701771,"stationId":"station-004270","note":"小児科　皮膚科"},{"id":"medical-2-13776","name":"産婦人科野口医院","categoryId":"medical","categoryLabel":"医疗","lat":35.582278,"lng":139.728253,"stationId":"station-004294","note":"内科　小児科　アレルギー科"},{"id":"medical-3-19040","name":"白井歯科医院","categoryId":"medical","categoryLabel":"医疗","lat":35.586008,"lng":139.708357,"stationId":"station-004270","note":"歯科　小児歯科　歯科口腔外科　矯正歯科"},{"id":"medical-2-19278","name":"皮膚科鏑木医院","categoryId":"medical","categoryLabel":"医疗","lat":35.581931,"lng":139.725985,"stationId":"station-004264","note":"内科　小児科　呼吸器科　消化器科　循環器科　リウマチ科　放射線科"},{"id":"medical-3-20346","name":"矢口記念大森ユニオン歯科","categoryId":"medical","categoryLabel":"医疗","lat":35.57785,"lng":139.716942,"stationId":"station-004270","note":"歯科"},{"id":"medical-2-16072","name":"石井メンタルクリニック","categoryId":"medical","categoryLabel":"医疗","lat":35.585683,"lng":139.728498,"stationId":"station-004264","note":"内科　外科　脳神経外科　整形外科　リウマチ科　泌尿器科　腎臓内科　人工透析"},{"id":"medical-3-16083","name":"石井歯科医院","categoryId":"medical","categoryLabel":"医疗","lat":35.579056,"lng":139.714618,"stationId":"station-004270","note":"歯科　小児歯科"},{"id":"medical-1-14074","name":"社会医療法人財団　仁医会　牧田総合病院","categoryId":"medical","categoryLabel":"医疗","lat":35.585834,"lng":139.727073,"stationId":"station-004264","note":"内科　神経内科　外科　整形外科　脳神経外科　歯科口腔外科　産婦人科　眼科　耳鼻いんこう科　泌尿器科　リハビリ科　放射線科　麻酔科　病理診断科　形成外科　呼吸器内科　循環器内科　消化器内科　糖尿病内科　内分泌内科　腎臓内科　人工透析内科　呼吸器外科"},{"id":"medical-2-14079","name":"社会医療法人財団仁医会牧田総合病院健診クリニックＯｍｏｒｉ","categoryId":"medical","categoryLabel":"医疗","lat":35.588442,"lng":139.729676,"stationId":"station-004264","note":"内科　婦人科"},{"id":"medical-2-14159","name":"社会福祉法人響会　特別養護老人ホーム好日苑診療所","categoryId":"medical","categoryLabel":"医疗","lat":35.594599,"lng":139.702307,"stationId":"station-004248","note":"消化器外科　内科"},{"id":"medical-3-17097","name":"第２小池歯科医院","categoryId":"medical","categoryLabel":"医疗","lat":35.598722,"lng":139.713856,"stationId":"station-004248","note":"歯科　矯正歯科　小児歯科"},{"id":"medical-3-14027","name":"篠崎デンタルクリニック","categoryId":"medical","categoryLabel":"医疗","lat":35.586266,"lng":139.705198,"stationId":"station-004270","note":"歯科　小児歯科"},{"id":"medical-3-12844","name":"紅林歯科医院","categoryId":"medical","categoryLabel":"医疗","lat":35.593178,"lng":139.71976,"stationId":"station-004248","note":"歯科"},{"id":"medical-3-13310","name":"細野歯科クリニック","categoryId":"medical","categoryLabel":"医疗","lat":35.588864,"lng":139.729264,"stationId":"station-004264","note":"歯科　矯正歯科　小児歯科　歯科口腔外科"},{"id":"medical-2-18983","name":"脳外科 西馬込クリニック","categoryId":"medical","categoryLabel":"医疗","lat":35.586679,"lng":139.705417,"stationId":"station-004270","note":"リウマチ科　整形外科　リハビリテーション科"},{"id":"medical-2-20133","name":"茂手木医院","categoryId":"medical","categoryLabel":"医疗","lat":35.59798,"lng":139.728899,"stationId":"station-004235","note":"内科　小児科"},{"id":"medical-3-12879","name":"荒木歯科医院","categoryId":"medical","categoryLabel":"医疗","lat":35.597413,"lng":139.711418,"stationId":"station-004248","note":"歯科　矯正歯科　小児歯科　歯科口腔外科"},{"id":"medical-2-11684","name":"菊地整形外科","categoryId":"medical","categoryLabel":"医疗","lat":35.585728,"lng":139.728382,"stationId":"station-004264","note":"内科　精神科"},{"id":"medical-2-19026","name":"萩沢医院","categoryId":"medical","categoryLabel":"医疗","lat":35.599686,"lng":139.718373,"stationId":"station-004235","note":"小児科"},{"id":"medical-2-18468","name":"藤川医院","categoryId":"medical","categoryLabel":"医疗","lat":35.594493,"lng":139.729274,"stationId":"station-004264","note":"内科　小児科　リウマチ科"},{"id":"medical-3-15838","name":"西山歯科医院","categoryId":"medical","categoryLabel":"医疗","lat":35.593861,"lng":139.724941,"stationId":"station-004264","note":"歯科　小児歯科　歯科口腔外科"},{"id":"medical-2-15941","name":"西馬込あくつ耳鼻咽喉科","categoryId":"medical","categoryLabel":"医疗","lat":35.586653,"lng":139.706102,"stationId":"station-004270","note":"内科　消化器内科　循環器内科"},{"id":"medical-2-15943","name":"西馬込りゅう眼科","categoryId":"medical","categoryLabel":"医疗","lat":35.586653,"lng":139.706102,"stationId":"station-004270","note":"皮膚科　小児皮膚科　形成外科"},{"id":"medical-3-15942","name":"西馬込マークス歯科医院","categoryId":"medical","categoryLabel":"医疗","lat":35.586679,"lng":139.705417,"stationId":"station-004270","note":"歯科"},{"id":"medical-2-15945","name":"西馬込皮フ科","categoryId":"medical","categoryLabel":"医疗","lat":35.586653,"lng":139.706102,"stationId":"station-004270","note":"耳鼻いんこう科　アレルギー科　小児科"},{"id":"medical-3-15944","name":"西馬込駅前クリニック","categoryId":"medical","categoryLabel":"医疗","lat":35.586646,"lng":139.706638,"stationId":"station-004270","note":"歯科　矯正歯科"},{"id":"medical-3-17148","name":"谷歯科クリニック","categoryId":"medical","categoryLabel":"医疗","lat":35.575774,"lng":139.712182,"stationId":"station-004309","note":"歯科　小児歯科"},{"id":"medical-3-16261","name":"赤穂歯科医院","categoryId":"medical","categoryLabel":"医疗","lat":35.589334,"lng":139.696612,"stationId":"station-004270","note":"歯科"},{"id":"medical-2-12070","name":"近江医院","categoryId":"medical","categoryLabel":"医疗","lat":35.597468,"lng":139.698246,"stationId":"station-004232","note":"内科　消化器内科　外科　肛門外科"},{"id":"medical-3-12071","name":"近江歯科医院","categoryId":"medical","categoryLabel":"医疗","lat":35.597468,"lng":139.698246,"stationId":"station-004232","note":"歯科　矯正歯科"},{"id":"medical-3-14259","name":"酒向歯科口腔外科クリニック","categoryId":"medical","categoryLabel":"医疗","lat":35.581714,"lng":139.697083,"stationId":"station-004270","note":"歯科　矯正歯科　小児歯科　歯科口腔外科"},{"id":"medical-2-12127","name":"金城医院","categoryId":"medical","categoryLabel":"医疗","lat":35.597316,"lng":139.721475,"stationId":"station-004235","note":"内科　小児科"},{"id":"medical-3-12119","name":"金子歯科医院","categoryId":"medical","categoryLabel":"医疗","lat":35.575836,"lng":139.729904,"stationId":"station-004307","note":"歯科　小児歯科　矯正歯科　歯科口腔外科"},{"id":"medical-3-15466","name":"針ヶ谷歯科クリニック","categoryId":"medical","categoryLabel":"医疗","lat":35.585705,"lng":139.727959,"stationId":"station-004264","note":"歯科　歯科口腔外科　小児歯科　矯正歯科"},{"id":"medical-2-20651","name":"鈴木内科医院","categoryId":"medical","categoryLabel":"医疗","lat":35.585757,"lng":139.725102,"stationId":"station-004264","note":"皮膚科　小児皮膚科　美容皮膚科"},{"id":"medical-3-20627","name":"鈴木歯科医院","categoryId":"medical","categoryLabel":"医疗","lat":35.591368,"lng":139.723278,"stationId":"station-004264","note":"歯科　矯正歯科　小児歯科　歯科口腔外科"},{"id":"medical-3-17608","name":"長谷川歯科クリニック","categoryId":"medical","categoryLabel":"医疗","lat":35.587941,"lng":139.70852,"stationId":"station-004270","note":"歯科　矯正歯科　小児歯科"},{"id":"medical-2-11516","name":"関耳鼻咽喉科医院","categoryId":"medical","categoryLabel":"医疗","lat":35.599705,"lng":139.699896,"stationId":"station-004232","note":"内科　小児科　アレルギー科　皮膚科　泌尿器科"},{"id":"medical-3-4664","name":"阿南歯科クリニック","categoryId":"medical","categoryLabel":"医疗","lat":35.595459,"lng":139.700821,"stationId":"station-004232","note":"歯科　小児歯科　歯科口腔外科　矯正歯科"},{"id":"medical-2-16020","name":"青木医院","categoryId":"medical","categoryLabel":"医疗","lat":35.583363,"lng":139.697918,"stationId":"station-004270","note":"内科"},{"id":"medical-2-15502","name":"須藤メディカルクリニック","categoryId":"medical","categoryLabel":"医疗","lat":35.599618,"lng":139.702108,"stationId":"station-004232","note":"内科　老年内科　緩和ケア内科　老年精神科"},{"id":"medical-2-20490","name":"養護老人ホーム池上長寿園医務室","categoryId":"medical","categoryLabel":"医疗","lat":35.584985,"lng":139.697554,"stationId":"station-004270","note":"内科　精神科　整形外科"},{"id":"medical-3-12888","name":"香川歯科医院","categoryId":"medical","categoryLabel":"医疗","lat":35.575654,"lng":139.704588,"stationId":"station-004309","note":"歯科　小児歯科　歯科口腔外科"},{"id":"medical-2-18987","name":"馬込橋医院","categoryId":"medical","categoryLabel":"医疗","lat":35.593835,"lng":139.710787,"stationId":"station-004248","note":"内科　外科"},{"id":"medical-3-18986","name":"馬込駅前歯科・矯正歯科","categoryId":"medical","categoryLabel":"医疗","lat":35.598244,"lng":139.712407,"stationId":"station-004248","note":"歯科　矯正歯科　小児歯科"},{"id":"medical-3-12967","name":"高山歯科クリニック","categoryId":"medical","categoryLabel":"医疗","lat":35.593548,"lng":139.710576,"stationId":"station-004248","note":"歯科"},{"id":"medical-3-13026","name":"高峰歯科医院","categoryId":"medical","categoryLabel":"医疗","lat":35.586552,"lng":139.727851,"stationId":"station-004264","note":"歯科　矯正歯科　小児歯科　歯科口腔外科"},{"id":"medical-2-12913","name":"高橋クリニック","categoryId":"medical","categoryLabel":"医疗","lat":35.594493,"lng":139.710298,"stationId":"station-004248","note":"内科　呼吸器科　消化器科　循環器科　外科　皮膚科　肛門科　精神科"},{"id":"medical-3-12931","name":"高橋歯科クリニック","categoryId":"medical","categoryLabel":"医疗","lat":35.584858,"lng":139.728839,"stationId":"station-004264","note":"歯科　歯科口腔外科"},{"id":"medical-2-20790","name":"齋藤医院","categoryId":"medical","categoryLabel":"医疗","lat":35.586525,"lng":139.708251,"stationId":"station-004270","note":"内科　腎臓内科　糖尿病内科　漢方内科"},{"id":"medical-3-243","name":"Ｋデンタルクリニック","categoryId":"medical","categoryLabel":"医疗","lat":35.585964,"lng":139.727816,"stationId":"station-004264","note":"歯科"},{"id":"public-13111-21482","name":"ゆうゆうくらぶ仲池上","categoryId":"public_service","categoryLabel":"公共服务","lat":35.587459,"lng":139.700415,"stationId":"station-004270","note":"大田区仲池上1-10-14"},{"id":"public-13111-21446","name":"ゆうゆうくらぶ山王","categoryId":"public_service","categoryLabel":"公共服务","lat":35.591945,"lng":139.724271,"stationId":"station-004264","note":"大田区山王1-31-8"},{"id":"public-13111-21476","name":"ゆうゆうくらぶ新井宿","categoryId":"public_service","categoryLabel":"公共服务","lat":35.582315,"lng":139.718025,"stationId":"station-004264","note":"大田区中央1-5-1"},{"id":"public-13109-21300","name":"ウェルカムセンター原交流施設","categoryId":"public_service","categoryLabel":"公共服务","lat":35.599121,"lng":139.721484,"stationId":"station-004235","note":"品川区西大井2-5-21"},{"id":"public-13111-21452","name":"ライフコミュニティ西馬込","categoryId":"public_service","categoryLabel":"公共服务","lat":35.586512,"lng":139.705284,"stationId":"station-004270","note":"大田区西馬込2-20-1"},{"id":"public-13111-21467","name":"入新井特別出張所","categoryId":"public_service","categoryLabel":"公共服务","lat":35.586449,"lng":139.728209,"stationId":"station-004264","note":"大田区大森北1-10-14"},{"id":"public-13111-21447","name":"区立山王会館","categoryId":"public_service","categoryLabel":"公共服务","lat":35.585573,"lng":139.723474,"stationId":"station-004264","note":"大田区山王3-37-11"},{"id":"public-13111-21500","name":"南馬込文化センター","categoryId":"public_service","categoryLabel":"公共服务","lat":35.58487,"lng":139.718833,"stationId":"station-004264","note":"大田区南馬込3-24-9"},{"id":"public-13111-21479","name":"地域包括支援センター馬込","categoryId":"public_service","categoryLabel":"公共服务","lat":35.594638,"lng":139.704717,"stationId":"station-004248","note":"大田区中馬込1-19-1-101"},{"id":"public-13109-21302","name":"大井第三区民集会所","categoryId":"public_service","categoryLabel":"公共服务","lat":35.597666,"lng":139.721085,"stationId":"station-004235","note":"品川区西大井4-1-8"},{"id":"public-13109-21301","name":"大井第三地域センター","categoryId":"public_service","categoryLabel":"公共服务","lat":35.597666,"lng":139.721105,"stationId":"station-004235","note":"品川区西大井4-1-8"},{"id":"public-13111-21457","name":"大森地域庁舎","categoryId":"public_service","categoryLabel":"公共服务","lat":35.578144,"lng":139.722968,"stationId":"station-004307","note":"大田区大森西1-12-1"},{"id":"public-13111-21461","name":"大森西区民センターゆうゆうくらぶ大森西","categoryId":"public_service","categoryLabel":"公共服务","lat":35.576474,"lng":139.727713,"stationId":"station-004307","note":"大田区大森西2-20-17"},{"id":"public-13111-21477","name":"大田文化の森","categoryId":"public_service","categoryLabel":"公共服务","lat":35.579171,"lng":139.720405,"stationId":"station-004264","note":"大田区中央2-10-1"},{"id":"public-13111-21478","name":"新井宿会館","categoryId":"public_service","categoryLabel":"公共服务","lat":35.579621,"lng":139.718622,"stationId":"station-004264","note":"大田区中央4-31-14"},{"id":"public-13111-21475","name":"新井宿特別出張所","categoryId":"public_service","categoryLabel":"公共服务","lat":35.579697,"lng":139.719712,"stationId":"station-004264","note":"大田区中央1-21-6"},{"id":"public-13111-21472","name":"池上会館","categoryId":"public_service","categoryLabel":"公共服务","lat":35.576938,"lng":139.706351,"stationId":"station-004309","note":"大田区池上1-32-8"},{"id":"public-13111-21473","name":"池上文化センター","categoryId":"public_service","categoryLabel":"公共服务","lat":35.575416,"lng":139.703605,"stationId":"station-004309","note":"大田区池上4-21-13"},{"id":"public-13111-21471","name":"池上特別出張所","categoryId":"public_service","categoryLabel":"公共服务","lat":35.575115,"lng":139.710299,"stationId":"station-004309","note":"大田区池上1-29-6"},{"id":"public-13109-21314","name":"滝王子児童センター","categoryId":"public_service","categoryLabel":"公共服务","lat":35.598225,"lng":139.729033,"stationId":"station-004235","note":"品川区大井5-19-14"},{"id":"public-13111-21469","name":"男女平等推進センターエセナおおた","categoryId":"public_service","categoryLabel":"公共服务","lat":35.583396,"lng":139.726871,"stationId":"station-004264","note":"大田区大森北4-16-4"},{"id":"public-13111-21501","name":"馬込区民センターゆうゆうくらぶ馬込","categoryId":"public_service","categoryLabel":"公共服务","lat":35.586567,"lng":139.710045,"stationId":"station-004270","note":"大田区南馬込4-6-5"},{"id":"public-13111-21481","name":"馬込文化センター","categoryId":"public_service","categoryLabel":"公共服务","lat":35.593952,"lng":139.710505,"stationId":"station-004248","note":"大田区中馬込3-26-3"},{"id":"public-13111-21480","name":"馬込特別出張所","categoryId":"public_service","categoryLabel":"公共服务","lat":35.593962,"lng":139.709816,"stationId":"station-004248","note":"大田区中馬込3-25-5"}]
