[{"id":"medical-2-604","name":"あさひクリニック","categoryId":"medical","categoryLabel":"医疗","lat":35.624896,"lng":139.722595,"stationId":"station-004117","note":"美容外科　歯科　矯正歯科　外科　口腔外科"},{"id":"medical-2-618","name":"あじさい診療所","categoryId":"medical","categoryLabel":"医疗","lat":35.611828,"lng":139.713211,"stationId":"station-004181","note":"内科　乳腺外科　消化器内科　胃腸　肛門　内視鏡"},{"id":"medical-2-644","name":"あだちクリニック","categoryId":"medical","categoryLabel":"医疗","lat":35.602553,"lng":139.697598,"stationId":"station-004232","note":"内科　整形外科　皮膚科　精神科　心療内科　小児科　眼科"},{"id":"medical-3-650","name":"あづさ歯科医院","categoryId":"medical","categoryLabel":"医疗","lat":35.609331,"lng":139.708784,"stationId":"station-004181","note":"歯科"},{"id":"medical-3-835","name":"いけだ歯科クリニック","categoryId":"medical","categoryLabel":"医疗","lat":35.614638,"lng":139.719613,"stationId":"station-004161","note":"歯科　小児歯科　矯正歯科　歯科口腔外科"},{"id":"medical-3-869","name":"いしはら歯科クリニック","categoryId":"medical","categoryLabel":"医疗","lat":35.603564,"lng":139.707896,"stationId":"station-004225","note":"歯科　小児歯科　歯科口腔外科"},{"id":"medical-3-901","name":"いちょう通り歯科医院","categoryId":"medical","categoryLabel":"医疗","lat":35.609522,"lng":139.69614,"stationId":"station-004180","note":"歯科　矯正歯科　小児歯科　歯科口腔外科"},{"id":"medical-3-915","name":"いとう歯科クリニック","categoryId":"medical","categoryLabel":"医疗","lat":35.61815,"lng":139.719225,"stationId":"station-004155","note":"歯科　矯正歯科　小児歯科　歯科口腔外科"},{"id":"medical-3-1011","name":"うえの歯科クリニック","categoryId":"medical","categoryLabel":"医疗","lat":35.602048,"lng":139.70861,"stationId":"station-004225","note":"歯科　矯正歯科　小児歯科　歯科口腔外科"},{"id":"medical-3-1065","name":"うらなか歯科クリニック","categoryId":"medical","categoryLabel":"医疗","lat":35.616221,"lng":139.71525,"stationId":"station-004155","note":"歯科　矯正歯科　小児歯科　歯科口腔外科"},{"id":"medical-2-1123","name":"えばらまち皮膚科","categoryId":"medical","categoryLabel":"医疗","lat":35.600483,"lng":139.709194,"stationId":"station-004225","note":"耳鼻いんこう科　アレルギー科"},{"id":"medical-2-1122","name":"えばらまち駅近クリニック","categoryId":"medical","categoryLabel":"医疗","lat":35.603378,"lng":139.707598,"stationId":"station-004225","note":"内科"},{"id":"medical-2-1124","name":"えばら駅前整形外科醫院","categoryId":"medical","categoryLabel":"医疗","lat":35.603368,"lng":139.707739,"stationId":"station-004225","note":"整形外科　消化器内科　糖尿病内科"},{"id":"medical-2-1182","name":"おおい宮本整形外科","categoryId":"medical","categoryLabel":"医疗","lat":35.60701,"lng":139.729947,"stationId":"station-004188","note":"整形外科　リハビリテーション科　リウマチ科　小児整形外科"},{"id":"medical-3-1282","name":"おがわ歯科医院","categoryId":"medical","categoryLabel":"医疗","lat":35.622644,"lng":139.696961,"stationId":"station-004133","note":"歯科"},{"id":"medical-3-1303","name":"おくの歯科医院・おくの矯正歯科","categoryId":"medical","categoryLabel":"医疗","lat":35.610915,"lng":139.717765,"stationId":"station-004186","note":"歯科　小児歯科"},{"id":"medical-3-1331","name":"おちあい歯科クリニック","categoryId":"medical","categoryLabel":"医疗","lat":35.616417,"lng":139.698441,"stationId":"station-004157","note":"歯科　小児歯科　歯科口腔外科"},{"id":"medical-2-1417","name":"かきのき眼科","categoryId":"medical","categoryLabel":"医疗","lat":35.615527,"lng":139.698951,"stationId":"station-004157","note":"眼科"},{"id":"medical-2-1432","name":"かしわせクリニック","categoryId":"medical","categoryLabel":"医疗","lat":35.603344,"lng":139.70792,"stationId":"station-004225","note":"内科　外科　肛門科　乳腺内科　乳腺外科"},{"id":"medical-3-1475","name":"かない歯科クリニック","categoryId":"medical","categoryLabel":"医疗","lat":35.601715,"lng":139.712726,"stationId":"station-004215","note":"歯科　矯正歯科　小児歯科　歯科口腔外科"},{"id":"medical-2-1579","name":"きくち眼科","categoryId":"medical","categoryLabel":"医疗","lat":35.605904,"lng":139.712074,"stationId":"station-004215","note":"形成外科　眼科"},{"id":"medical-3-1707","name":"くりた歯科クリニック","categoryId":"medical","categoryLabel":"医疗","lat":35.607719,"lng":139.712392,"stationId":"station-004181","note":"歯科　小児歯科　歯科口腔外科"},{"id":"medical-3-1795","name":"けやき歯科","categoryId":"medical","categoryLabel":"医疗","lat":35.602949,"lng":139.710214,"stationId":"station-004225","note":"歯科　小児歯科　矯正歯科　歯科口腔外科"},{"id":"medical-2-1822","name":"こうざき医院","categoryId":"medical","categoryLabel":"医疗","lat":35.60614,"lng":139.728392,"stationId":"station-004188","note":"内科　小児科　婦人科"},{"id":"medical-2-1923","name":"こばやしクリニック","categoryId":"medical","categoryLabel":"医疗","lat":35.616044,"lng":139.697493,"stationId":"station-004157","note":"内科　小児科　アレルギー科　皮膚科"},{"id":"medical-2-1935","name":"こばやし耳鼻咽喉科","categoryId":"medical","categoryLabel":"医疗","lat":35.604195,"lng":139.703883,"stationId":"station-004221","note":"耳鼻咽喉科"},{"id":"medical-2-2017","name":"さえきクリニック","categoryId":"medical","categoryLabel":"医疗","lat":35.609067,"lng":139.715922,"stationId":"station-004186","note":"内科　小児科"},{"id":"medical-2-2071","name":"さくらの丘こどもクリニック","categoryId":"medical","categoryLabel":"医疗","lat":35.616265,"lng":139.708997,"stationId":"station-004155","note":"小児科　アレルギー科"},{"id":"medical-3-2244","name":"しのだデンタルクリニック","categoryId":"medical","categoryLabel":"医疗","lat":35.616847,"lng":139.70654,"stationId":"station-004133","note":"歯科　歯科口腔外科　矯正歯科　小児歯科"},{"id":"medical-2-2262","name":"しばざき泌尿器クリニック","categoryId":"medical","categoryLabel":"医疗","lat":35.615461,"lng":139.699309,"stationId":"station-004157","note":"泌尿器科　腎臓内科"},{"id":"medical-2-2292","name":"しみず皮膚科","categoryId":"medical","categoryLabel":"医疗","lat":35.6021,"lng":139.722418,"stationId":"station-004235","note":"皮膚科　小児皮膚科"},{"id":"medical-3-2375","name":"すが矯正歯科クリニック","categoryId":"medical","categoryLabel":"医疗","lat":35.620141,"lng":139.702759,"stationId":"station-004133","note":"矯正歯科"},{"id":"medical-3-2387","name":"すぎやま歯科","categoryId":"medical","categoryLabel":"医疗","lat":35.623424,"lng":139.721362,"stationId":"station-004127","note":"歯科　矯正歯科　小児歯科"},{"id":"medical-2-2422","name":"すずき内科クリニック","categoryId":"medical","categoryLabel":"医疗","lat":35.608444,"lng":139.729196,"stationId":"station-004188","note":"内科　消化器科　循環器科　アレルギー科"},{"id":"medical-3-2415","name":"すずき歯科医院","categoryId":"medical","categoryLabel":"医疗","lat":35.617043,"lng":139.701529,"stationId":"station-004157","note":"歯科　矯正歯科　小児歯科　歯科口腔外科"},{"id":"medical-3-2438","name":"すどう歯科医院","categoryId":"medical","categoryLabel":"医疗","lat":35.621172,"lng":139.706801,"stationId":"station-004133","note":"歯科　矯正歯科　小児歯科　歯科口腔外科"},{"id":"medical-2-2482","name":"せいの耳鼻咽喉科クリニック","categoryId":"medical","categoryLabel":"医疗","lat":35.6021,"lng":139.722418,"stationId":"station-004235","note":"耳鼻咽喉科　頭頸部外科"},{"id":"medical-2-2591","name":"たかせクリニック","categoryId":"medical","categoryLabel":"医疗","lat":35.61348,"lng":139.728899,"stationId":"station-004188","note":"内科　呼吸器科　胃腸科　小児科"},{"id":"medical-2-2676","name":"たごファミリークリニック","categoryId":"medical","categoryLabel":"医疗","lat":35.616014,"lng":139.713503,"stationId":"station-004155","note":"内科　呼吸器科　消化器科　循環器科　小児科　アレルギー科"},{"id":"medical-2-2686","name":"たつのこどもクリニック","categoryId":"medical","categoryLabel":"医疗","lat":35.605628,"lng":139.728102,"stationId":"station-004188","note":"小児科　アレルギー科　内科"},{"id":"medical-3-2701","name":"たなか歯科医院","categoryId":"medical","categoryLabel":"医疗","lat":35.600299,"lng":139.723157,"stationId":"station-004235","note":"歯科　小児歯科"},{"id":"medical-3-2703","name":"たなか歯科医院","categoryId":"medical","categoryLabel":"医疗","lat":35.61072,"lng":139.718531,"stationId":"station-004186","note":"歯科　矯正歯科　小児歯科　歯科口腔外科"},{"id":"medical-2-2972","name":"とごし公園内科クリニック","categoryId":"medical","categoryLabel":"医疗","lat":35.609446,"lng":139.718081,"stationId":"station-004186","note":"内科　呼吸器内科　循環器内科　糖尿病内科"},{"id":"medical-2-2974","name":"とごし整形外科＆手のクリニック","categoryId":"medical","categoryLabel":"医疗","lat":35.614907,"lng":139.71622,"stationId":"station-004161","note":"整形外科　リウマチ科　リハビリテーション科"},{"id":"medical-2-2973","name":"とごし耳鼻咽喉科","categoryId":"medical","categoryLabel":"医疗","lat":35.612584,"lng":139.717767,"stationId":"station-004161","note":"耳鼻咽喉科"},{"id":"medical-2-3024","name":"ともより皮フ科","categoryId":"medical","categoryLabel":"医疗","lat":35.610681,"lng":139.718679,"stationId":"station-004186","note":"皮膚科"},{"id":"medical-2-3023","name":"ともより眼科","categoryId":"medical","categoryLabel":"医疗","lat":35.610681,"lng":139.718679,"stationId":"station-004186","note":"眼科"},{"id":"medical-3-3040","name":"とよつぐ歯科クリニック","categoryId":"medical","categoryLabel":"医疗","lat":35.61561,"lng":139.715855,"stationId":"station-004155","note":"歯科　矯正歯科　小児歯科"},{"id":"medical-3-3107","name":"なかのぶ歯科","categoryId":"medical","categoryLabel":"医疗","lat":35.606672,"lng":139.713709,"stationId":"station-004215","note":"歯科口腔外科　小児歯科　矯正歯科　歯科"},{"id":"medical-2-3115","name":"ながはらクリニック","categoryId":"medical","categoryLabel":"医疗","lat":35.602553,"lng":139.697598,"stationId":"station-004232","note":"内科"},{"id":"medical-3-3116","name":"ながはら歯科クリニック","categoryId":"medical","categoryLabel":"医疗","lat":35.601601,"lng":139.696025,"stationId":"station-004232","note":"歯科　小児歯科　矯正歯科　歯科口腔外科"},{"id":"medical-3-3151","name":"なごみ小児歯科クリニック","categoryId":"medical","categoryLabel":"医疗","lat":35.614086,"lng":139.721571,"stationId":"station-004161","note":"小児歯科　歯科"},{"id":"medical-3-3181","name":"なる歯科クリニック","categoryId":"medical","categoryLabel":"医疗","lat":35.61599,"lng":139.708433,"stationId":"station-004155","note":"歯科　矯正歯科　小児歯科　歯科口腔外科"},{"id":"medical-3-3266","name":"のぐち歯科医院","categoryId":"medical","categoryLabel":"医疗","lat":35.603681,"lng":139.708504,"stationId":"station-004225","note":"歯科"},{"id":"medical-3-3294","name":"のもとデンタルデザインクリニック（Ｎ．Ｄ．Ｄクリニック）","categoryId":"medical","categoryLabel":"医疗","lat":35.614858,"lng":139.700657,"stationId":"station-004157","note":"歯科　矯正歯科　小児歯科　歯科口腔外科"},{"id":"medical-3-3338","name":"はしもとデンタルクリニック","categoryId":"medical","categoryLabel":"医疗","lat":35.615705,"lng":139.697655,"stationId":"station-004157","note":"歯科　矯正歯科　小児歯科　歯科口腔外科"},{"id":"medical-2-3355","name":"はせがわ内科クリニック","categoryId":"medical","categoryLabel":"医疗","lat":35.600201,"lng":139.729413,"stationId":"station-004235","note":"内科　内科　腎臓　内分泌　代謝　小児科　漢方内科"},{"id":"medical-3-3398","name":"はなも歯科医院","categoryId":"medical","categoryLabel":"医疗","lat":35.606159,"lng":139.71169,"stationId":"station-004215","note":"歯科　矯正歯科　小児歯科　歯科口腔外科"},{"id":"medical-3-3421","name":"はやし歯科クリニック","categoryId":"medical","categoryLabel":"医疗","lat":35.616376,"lng":139.697492,"stationId":"station-004157","note":"歯科　矯正歯科　小児歯科"},{"id":"medical-2-3447","name":"はるクリニック西小山","categoryId":"medical","categoryLabel":"医疗","lat":35.614587,"lng":139.697794,"stationId":"station-004157","note":"内科　循環器内科　心臓血管外科"},{"id":"medical-2-3511","name":"ひだ整形外科","categoryId":"medical","categoryLabel":"医疗","lat":35.62206,"lng":139.704438,"stationId":"station-004133","note":"リウマチ科　整形外科　リハビリテーション科"},{"id":"medical-3-3816","name":"ほりぐち歯科","categoryId":"medical","categoryLabel":"医疗","lat":35.602062,"lng":139.708154,"stationId":"station-004225","note":"歯科　矯正歯科　小児歯科　歯科口腔外科"},{"id":"medical-3-3948","name":"まぶち歯科医院","categoryId":"medical","categoryLabel":"医疗","lat":35.604444,"lng":139.702532,"stationId":"station-004221","note":"歯科　矯正歯科　小児歯科"},{"id":"medical-2-3968","name":"まるごと在宅ケアクリニック","categoryId":"medical","categoryLabel":"医疗","lat":35.607698,"lng":139.722058,"stationId":"station-004186","note":"内科"},{"id":"medical-2-4008","name":"みしま内科","categoryId":"medical","categoryLabel":"医疗","lat":35.604063,"lng":139.703704,"stationId":"station-004221","note":"内科"},{"id":"medical-3-4036","name":"みちこ歯科医院","categoryId":"medical","categoryLabel":"医疗","lat":35.617514,"lng":139.719256,"stationId":"station-004155","note":"歯科　矯正歯科　小児歯科"},{"id":"medical-2-4139","name":"むさしこやま眼科","categoryId":"medical","categoryLabel":"医疗","lat":35.620483,"lng":139.704973,"stationId":"station-004133","note":"眼科"},{"id":"medical-2-4224","name":"もちづき内科クリニック","categoryId":"medical","categoryLabel":"医疗","lat":35.610445,"lng":139.71933,"stationId":"station-004186","note":"内科　アレルギー科　整形外科"},{"id":"medical-2-4240","name":"もりしたクリニック","categoryId":"medical","categoryLabel":"医疗","lat":35.617024,"lng":139.707438,"stationId":"station-004133","note":"内科　精神科　心療内科"},{"id":"medical-3-4243","name":"もりた歯科","categoryId":"medical","categoryLabel":"医疗","lat":35.614462,"lng":139.720055,"stationId":"station-004161","note":"歯科　歯科口腔外科"},{"id":"medical-3-4252","name":"もり歯科クリニック","categoryId":"medical","categoryLabel":"医疗","lat":35.61489,"lng":139.699481,"stationId":"station-004157","note":"歯科　小児歯科　矯正歯科　歯科口腔外科"},{"id":"medical-2-4253","name":"もり脳神経外科クリニック","categoryId":"medical","categoryLabel":"医疗","lat":35.603564,"lng":139.707896,"stationId":"station-004225","note":"脳神経外科　内科　皮膚科　放射線科　小児科"},{"id":"medical-2-4256","name":"もろおか整形外科","categoryId":"medical","categoryLabel":"医疗","lat":35.600483,"lng":139.709194,"stationId":"station-004225","note":"形成外科　皮膚科"},{"id":"medical-2-4323","name":"やまだ眼科クリニック","categoryId":"medical","categoryLabel":"医疗","lat":35.618653,"lng":139.702999,"stationId":"station-004133","note":"眼科"},{"id":"medical-3-4365","name":"ゆうデンタルオフィス","categoryId":"medical","categoryLabel":"医疗","lat":35.62441,"lng":139.72097,"stationId":"station-004127","note":"歯科　矯正歯科　歯科口腔外科"},{"id":"medical-3-4375","name":"ゆう歯科・矯正歯科戸越銀座クリニック","categoryId":"medical","categoryLabel":"医疗","lat":35.614344,"lng":139.72112,"stationId":"station-004161","note":"歯科　矯正歯科　小児歯科　歯科口腔外科"},{"id":"medical-2-4388","name":"ゆきこどもクリニック","categoryId":"medical","categoryLabel":"医疗","lat":35.6036,"lng":139.708663,"stationId":"station-004225","note":"小児科　アレルギー科　内科"},{"id":"medical-2-4403","name":"ゆたか診療所","categoryId":"medical","categoryLabel":"医疗","lat":35.60605,"lng":139.720332,"stationId":"station-004186","note":"内科　小児科　整形外科　皮膚科　胃腸内科　泌尿器科"},{"id":"medical-3-4443","name":"よしだ歯科クリニック","categoryId":"medical","categoryLabel":"医疗","lat":35.616161,"lng":139.708426,"stationId":"station-004155","note":"歯科　矯正歯科　小児歯科　歯科口腔外科"},{"id":"medical-3-4466","name":"よしむら歯科クリニック","categoryId":"medical","categoryLabel":"医疗","lat":35.614538,"lng":139.698225,"stationId":"station-004157","note":"歯科　矯正歯科　小児歯科　歯科口腔外科"},{"id":"medical-2-4624","name":"わかばやし眼科","categoryId":"medical","categoryLabel":"医疗","lat":35.608512,"lng":139.711171,"stationId":"station-004181","note":"眼科"},{"id":"medical-3-658","name":"アップル歯科クリニック","categoryId":"medical","categoryLabel":"医疗","lat":35.603117,"lng":139.708099,"stationId":"station-004225","note":"歯科　矯正歯科　小児歯科　歯科口腔外科"},{"id":"medical-3-413","name":"アールデンタルクリニック","categoryId":"medical","categoryLabel":"医疗","lat":35.604237,"lng":139.702587,"stationId":"station-004221","note":"歯科　小児歯科　歯科口腔外科"},{"id":"medical-3-809","name":"イエダ歯科","categoryId":"medical","categoryLabel":"医疗","lat":35.601813,"lng":139.722555,"stationId":"station-004235","note":"歯科　矯正歯科　小児歯科"},{"id":"medical-3-1113","name":"エヌ・エイ歯科クリニック","categoryId":"medical","categoryLabel":"医疗","lat":35.624003,"lng":139.721365,"stationId":"station-004127","note":"歯科　矯正歯科　小児歯科　歯科口腔外科"},{"id":"medical-3-1241","name":"オーバルコート歯科室","categoryId":"medical","categoryLabel":"医疗","lat":35.622685,"lng":139.72922,"stationId":"station-004136","note":"歯科　矯正歯科　小児歯科　歯科口腔外科"},{"id":"medical-2-1733","name":"クリニック飯塚","categoryId":"medical","categoryLabel":"医疗","lat":35.622958,"lng":139.721407,"stationId":"station-004127","note":"内科　小児科　婦人科"},{"id":"medical-3-1687","name":"グランティース武蔵小山歯科","categoryId":"medical","categoryLabel":"医疗","lat":35.619838,"lng":139.703517,"stationId":"station-004133","note":"歯科　矯正歯科　小児歯科　歯科口腔外科"},{"id":"medical-2-2184","name":"サンタハウスこどもクリニック","categoryId":"medical","categoryLabel":"医疗","lat":35.620141,"lng":139.702759,"stationId":"station-004133","note":"小児科　内科　アレルギー科"},{"id":"medical-3-2322","name":"ジョウ歯科クリニック","categoryId":"medical","categoryLabel":"医疗","lat":35.60178,"lng":139.699268,"stationId":"station-004232","note":"歯科"},{"id":"medical-2-2471","name":"スリープ＆ストレスクリニック","categoryId":"medical","categoryLabel":"医疗","lat":35.618388,"lng":139.72755,"stationId":"station-004136","note":"精神科　神経内科　心療内科"},{"id":"medical-3-2477","name":"スワン歯科クリニック","categoryId":"medical","categoryLabel":"医疗","lat":35.616637,"lng":139.707844,"stationId":"station-004133","note":"歯科　小児歯科　歯科口腔外科"},{"id":"medical-2-2542","name":"ソニーピープルソリューションズ株式会社　大崎診療所","categoryId":"medical","categoryLabel":"医疗","lat":35.617501,"lng":139.72796,"stationId":"station-004136","note":"内科"},{"id":"medical-2-2833","name":"ツマキ医院","categoryId":"medical","categoryLabel":"医疗","lat":35.611178,"lng":139.707999,"stationId":"station-004181","note":"内科　小児科"},{"id":"medical-3-2885","name":"デンタルオフィス戸越","categoryId":"medical","categoryLabel":"医疗","lat":35.615257,"lng":139.71649,"stationId":"station-004161","note":"歯科　小児歯科　歯科口腔外科"},{"id":"medical-2-2963","name":"ドクターナカムラ目黒本町医院","categoryId":"medical","categoryLabel":"医疗","lat":35.621407,"lng":139.701066,"stationId":"station-004133","note":"内科　消化器内科"},{"id":"medical-3-3234","name":"ニュー大崎ビル歯科","categoryId":"medical","categoryLabel":"医疗","lat":35.619558,"lng":139.727255,"stationId":"station-004136","note":"歯科　矯正歯科　小児歯科　歯科口腔外科"},{"id":"medical-3-3248","name":"ネバシデンタルオフィス","categoryId":"medical","categoryLabel":"医疗","lat":35.62483,"lng":139.721952,"stationId":"station-004117","note":"歯科"},{"id":"medical-3-3601","name":"ヒロ歯科","categoryId":"medical","categoryLabel":"医疗","lat":35.618049,"lng":139.70273,"stationId":"station-004133","note":"歯科　矯正歯科　小児歯科"},{"id":"medical-3-3465","name":"ビースマイル歯科矯正歯科","categoryId":"medical","categoryLabel":"医疗","lat":35.616851,"lng":139.725352,"stationId":"station-004136","note":"歯科　矯正歯科　小児歯科　歯科口腔外科"},{"id":"medical-3-3761","name":"フレンド歯科医院","categoryId":"medical","categoryLabel":"医疗","lat":35.608623,"lng":139.712267,"stationId":"station-004181","note":"歯科　小児歯科　歯科口腔外科"},{"id":"medical-2-4137","name":"ムサコ整形外科","categoryId":"medical","categoryLabel":"医疗","lat":35.619829,"lng":139.703318,"stationId":"station-004133","note":"整形外科　リハビリテーション科"},{"id":"medical-2-4151","name":"ムッシュロータ武蔵小山医院","categoryId":"medical","categoryLabel":"医疗","lat":35.616787,"lng":139.707255,"stationId":"station-004133","note":"内科　外科　消化器内科　肛門内科　皮膚科　整形外科"},{"id":"medical-2-4504","name":"ライフ大崎まるま整形外科","categoryId":"medical","categoryLabel":"医疗","lat":35.61815,"lng":139.719225,"stationId":"station-004155","note":"リウマチ科　整形外科　リハビリテーション科"},{"id":"medical-3-4525","name":"ラントゥービー歯科室","categoryId":"medical","categoryLabel":"医疗","lat":35.62129,"lng":139.706339,"stationId":"station-004133","note":"歯科　矯正歯科"},{"id":"medical-2-10728","name":"一般社団法人　荏原医師会附属診療所","categoryId":"medical","categoryLabel":"医疗","lat":35.61146,"lng":139.71224,"stationId":"station-004181","note":"内科　小児科"},{"id":"medical-2-10693","name":"一般財団法人　三水会クリニック","categoryId":"medical","categoryLabel":"医疗","lat":35.617885,"lng":139.726085,"stationId":"station-004136","note":"内科　消化器科　外科　整形外科"},{"id":"medical-2-10714","name":"一般財団法人全日本労働福祉協会附属旗の台健診センタ−","categoryId":"medical","categoryLabel":"医疗","lat":35.607054,"lng":139.69741,"stationId":"station-004212","note":"内科　放射線科"},{"id":"medical-3-13554","name":"三木歯科医院","categoryId":"medical","categoryLabel":"医疗","lat":35.617304,"lng":139.72403,"stationId":"station-004136","note":"歯科　小児歯科　歯科口腔外科"},{"id":"medical-3-14945","name":"上山歯科医院","categoryId":"medical","categoryLabel":"医疗","lat":35.60585,"lng":139.727047,"stationId":"station-004188","note":"歯科"},{"id":"medical-3-19458","name":"不動前　桐ケ谷通り歯科","categoryId":"medical","categoryLabel":"医疗","lat":35.622917,"lng":139.712019,"stationId":"station-004114","note":"歯科　矯正歯科　小児歯科　歯科口腔外科"},{"id":"medical-3-17362","name":"中山歯科医院","categoryId":"medical","categoryLabel":"医疗","lat":35.604005,"lng":139.705083,"stationId":"station-004225","note":"歯科"},{"id":"medical-3-17318","name":"中延セントラル歯科","categoryId":"medical","categoryLabel":"医疗","lat":35.606548,"lng":139.710473,"stationId":"station-004215","note":"歯科　小児歯科　矯正歯科　歯科口腔外科"},{"id":"medical-3-17319","name":"中延デンタルクリニック","categoryId":"medical","categoryLabel":"医疗","lat":35.608891,"lng":139.711383,"stationId":"station-004181","note":"歯科　矯正歯科　小児歯科　歯科口腔外科"},{"id":"medical-2-17320","name":"中延医院","categoryId":"medical","categoryLabel":"医疗","lat":35.610679,"lng":139.711939,"stationId":"station-004181","note":"内科　精神科　心療内科　外科　脳神経外科"},{"id":"medical-3-17322","name":"中延昭和通り歯科","categoryId":"medical","categoryLabel":"医疗","lat":35.609481,"lng":139.711534,"stationId":"station-004181","note":"歯科　矯正歯科　歯科口腔外科　小児歯科"},{"id":"medical-2-17323","name":"中延皮フ科医院","categoryId":"medical","categoryLabel":"医疗","lat":35.608969,"lng":139.711911,"stationId":"station-004181","note":"皮膚科　小児皮膚科"},{"id":"medical-3-17321","name":"中延駅前歯科","categoryId":"medical","categoryLabel":"医疗","lat":35.604483,"lng":139.713714,"stationId":"station-004215","note":"歯科　小児歯科"},{"id":"medical-2-17396","name":"中村医院","categoryId":"medical","categoryLabel":"医疗","lat":35.617604,"lng":139.71524,"stationId":"station-004155","note":"耳鼻咽喉科"},{"id":"medical-2-17397","name":"中村医院","categoryId":"medical","categoryLabel":"医疗","lat":35.602449,"lng":139.712292,"stationId":"station-004215","note":"内科　外科　整形外科　皮膚科　肛門科　リハビリテーション科"},{"id":"medical-3-17406","name":"中村歯科","categoryId":"medical","categoryLabel":"医疗","lat":35.602449,"lng":139.712292,"stationId":"station-004215","note":"歯科　矯正歯科　小児歯科　歯科口腔外科"},{"id":"medical-3-17433","name":"中沢歯科医院","categoryId":"medical","categoryLabel":"医疗","lat":35.615141,"lng":139.718524,"stationId":"station-004161","note":"歯科　矯正歯科　小児歯科　歯科口腔外科"},{"id":"medical-2-11544","name":"丸山医院","categoryId":"medical","categoryLabel":"医疗","lat":35.611759,"lng":139.717575,"stationId":"station-004161","note":"内科"},{"id":"medical-2-11867","name":"久保眼科クリニック","categoryId":"medical","categoryLabel":"医疗","lat":35.602924,"lng":139.710486,"stationId":"station-004225","note":"眼科"},{"id":"medical-2-20465","name":"予防医療クリニック","categoryId":"medical","categoryLabel":"医疗","lat":35.604466,"lng":139.721824,"stationId":"station-004235","note":"内科"},{"id":"medical-2-18833","name":"二葉クリニック","categoryId":"medical","categoryLabel":"医疗","lat":35.602101,"lng":139.717892,"stationId":"station-004235","note":"内科　リハビリテーション科　循環器内科　糖尿病脂質代謝内科"},{"id":"medical-2-18835","name":"二葉医院","categoryId":"medical","categoryLabel":"医疗","lat":35.609116,"lng":139.729632,"stationId":"station-004188","note":"内科　耳鼻咽喉科　麻酔科"},{"id":"medical-3-12576","name":"五反田みとめ歯科","categoryId":"medical","categoryLabel":"医疗","lat":35.623506,"lng":139.722993,"stationId":"station-004127","note":"歯科　小児歯科　歯科口腔外科"},{"id":"medical-1-12577","name":"五反田リハビリテーション病院","categoryId":"medical","categoryLabel":"医疗","lat":35.621672,"lng":139.720712,"stationId":"station-004127","note":"リハビリ科"},{"id":"medical-3-12581","name":"五反田歯科","categoryId":"medical","categoryLabel":"医疗","lat":35.621037,"lng":139.719079,"stationId":"station-004127","note":"歯科"},{"id":"medical-2-10655","name":"井上内科医院","categoryId":"medical","categoryLabel":"医疗","lat":35.622277,"lng":139.699927,"stationId":"station-004133","note":"内科　小児科　リウマチ科"},{"id":"medical-3-10617","name":"井口歯科医院","categoryId":"medical","categoryLabel":"医疗","lat":35.618282,"lng":139.705811,"stationId":"station-004133","note":"歯科　矯正歯科　小児歯科"},{"id":"medical-2-10625","name":"井手小児科","categoryId":"medical","categoryLabel":"医疗","lat":35.618931,"lng":139.695238,"stationId":"station-004157","note":"内科　小児科"},{"id":"medical-3-13149","name":"今村歯科医院","categoryId":"medical","categoryLabel":"医疗","lat":35.606326,"lng":139.712056,"stationId":"station-004215","note":"歯科"},{"id":"medical-3-4789","name":"伊藤歯科医院","categoryId":"medical","categoryLabel":"医疗","lat":35.607474,"lng":139.723705,"stationId":"station-004188","note":"歯科"},{"id":"medical-2-13185","name":"佐々木医院","categoryId":"medical","categoryLabel":"医疗","lat":35.613742,"lng":139.724652,"stationId":"station-004188","note":"内科　循環器科　婦人科"},{"id":"medical-3-13194","name":"佐々木歯科医院","categoryId":"medical","categoryLabel":"医疗","lat":35.614672,"lng":139.698917,"stationId":"station-004157","note":"歯科　矯正歯科　小児歯科"},{"id":"medical-3-13240","name":"佐藤歯科医院","categoryId":"medical","categoryLabel":"医疗","lat":35.614229,"lng":139.71576,"stationId":"station-004161","note":"歯科"},{"id":"medical-2-4817","name":"依田医院","categoryId":"medical","categoryLabel":"医疗","lat":35.608378,"lng":139.717894,"stationId":"station-004186","note":"内科　アレルギー科　リウマチ科　皮膚科　泌尿器科　呼吸器内科"},{"id":"medical-3-13918","name":"児玉歯科","categoryId":"medical","categoryLabel":"医疗","lat":35.624258,"lng":139.722602,"stationId":"station-004127","note":"歯科　矯正歯科"},{"id":"medical-2-18745","name":"内野医院","categoryId":"medical","categoryLabel":"医疗","lat":35.612117,"lng":139.711849,"stationId":"station-004181","note":"内科　外科　整形外科　皮膚科　泌尿器科"},{"id":"medical-2-16490","name":"前田医院","categoryId":"medical","categoryLabel":"医疗","lat":35.608142,"lng":139.712577,"stationId":"station-004181","note":"内科　呼吸器科　小児科　婦人科　リハビリテーション科"},{"id":"medical-2-4883","name":"医療法人康済会（財団）　武蔵小山胃腸内視鏡クリニック","categoryId":"medical","categoryLabel":"医疗","lat":35.617983,"lng":139.701916,"stationId":"station-004133","note":"内科　消化器内科　胃腸内科　内視鏡内科"},{"id":"medical-2-4884","name":"医療法人康済会（財団）康済クリニック","categoryId":"medical","categoryLabel":"医疗","lat":35.620909,"lng":139.704332,"stationId":"station-004133","note":"内科"},{"id":"medical-2-10572","name":"医療法人政芳会　戸越銀座駅近内科クリニック","categoryId":"medical","categoryLabel":"医疗","lat":35.614948,"lng":139.715951,"stationId":"station-004161","note":"内科　リハビリテーション科　循環器内科　消化器内科"},{"id":"medical-3-10564","name":"医療法人松濤会平和通り歯科","categoryId":"medical","categoryLabel":"医疗","lat":35.622886,"lng":139.698556,"stationId":"station-004133","note":"歯科　矯正歯科　小児歯科　歯科口腔外科"},{"id":"medical-2-5091","name":"医療法人社団　あおい會　森山リハビリテーションクリニック","categoryId":"medical","categoryLabel":"医疗","lat":35.611206,"lng":139.708247,"stationId":"station-004181","note":"内科　リハビリテーション科　呼吸器内科　整形外科"},{"id":"medical-1-5106","name":"医療法人社団　おきの会　旗の台病院","categoryId":"medical","categoryLabel":"医疗","lat":35.603613,"lng":139.698732,"stationId":"station-004232","note":"内科　外科　整形外科　脳神経外科"},{"id":"medical-2-5288","name":"医療法人社団　吉原医院","categoryId":"medical","categoryLabel":"医疗","lat":35.609968,"lng":139.720172,"stationId":"station-004186","note":"内科　小児科"},{"id":"medical-2-5244","name":"医療法人社団　岡昭会　眼科なかのぶ医院","categoryId":"medical","categoryLabel":"医疗","lat":35.605731,"lng":139.714531,"stationId":"station-004215","note":"眼科"},{"id":"medical-2-5537","name":"医療法人社団　時正会　エバラクリニック","categoryId":"medical","categoryLabel":"医疗","lat":35.616829,"lng":139.70315,"stationId":"station-004133","note":"人工透析内科　内科"},{"id":"medical-2-5858","name":"医療法人社団　長原皮膚科医院","categoryId":"medical","categoryLabel":"医疗","lat":35.602638,"lng":139.69813,"stationId":"station-004232","note":"耳鼻咽喉科"},{"id":"medical-2-6330","name":"医療法人社団あおい會　森山医院","categoryId":"medical","categoryLabel":"医疗","lat":35.610186,"lng":139.70914,"stationId":"station-004181","note":"内科　消化器内科　整形外科"},{"id":"medical-2-6437","name":"医療法人社団かなめ会田口クリニック","categoryId":"medical","categoryLabel":"医疗","lat":35.623766,"lng":139.7225,"stationId":"station-004127","note":"内科　アレルギー科　感染症内科"},{"id":"medical-2-6477","name":"医療法人社団けんゆう会　旗の台レディースクリニック","categoryId":"medical","categoryLabel":"医疗","lat":35.605146,"lng":139.702282,"stationId":"station-004221","note":"産婦人科"},{"id":"medical-2-6485","name":"医療法人社団こだま会　こだまクリニック","categoryId":"medical","categoryLabel":"医疗","lat":35.620225,"lng":139.715821,"stationId":"station-004155","note":"内科　精神科　神経科　アレルギー科　リハビリテーション科"},{"id":"medical-2-6624","name":"医療法人社団どい小児科　どい小児科","categoryId":"medical","categoryLabel":"医疗","lat":35.611486,"lng":139.716124,"stationId":"station-004161","note":"小児科"},{"id":"medical-2-6641","name":"医療法人社団なつめ会 なつめ耳鼻咽喉科","categoryId":"medical","categoryLabel":"医疗","lat":35.600483,"lng":139.709194,"stationId":"station-004225","note":"精神科　老人内科"},{"id":"medical-2-6755","name":"医療法人社団まつばらクリニック","categoryId":"medical","categoryLabel":"医疗","lat":35.615659,"lng":139.711181,"stationId":"station-004155","note":"内科　呼吸器科　小児科　アレルギー科　リウマチ科　皮膚科"},{"id":"medical-2-6438","name":"医療法人社団カネコクリニック","categoryId":"medical","categoryLabel":"医疗","lat":35.621673,"lng":139.705405,"stationId":"station-004133","note":"内科　胃腸科　循環器科"},{"id":"medical-2-6472","name":"医療法人社団ケイ・メディカルオフィステーオーシービル診療所","categoryId":"medical","categoryLabel":"医疗","lat":35.622038,"lng":139.718797,"stationId":"station-004127","note":"内科　呼吸器科　消化器科　循環器科　リハビリテーション科　アレルギー科"},{"id":"medical-3-6564","name":"医療法人社団スマイルパートナーズ山手歯科クリニック戸越公園","categoryId":"medical","categoryLabel":"医疗","lat":35.60921,"lng":139.718225,"stationId":"station-004186","note":"歯科　矯正歯科　小児歯科　歯科口腔外科"},{"id":"medical-3-6612","name":"医療法人社団ティースタップパールデンタルクリニック","categoryId":"medical","categoryLabel":"医疗","lat":35.620721,"lng":139.70215,"stationId":"station-004133","note":"歯科　矯正歯科　小児歯科　歯科口腔外科"},{"id":"medical-3-6620","name":"医療法人社団デンタルスマイル会　デンタルオフィス２１","categoryId":"medical","categoryLabel":"医疗","lat":35.60206,"lng":139.697323,"stationId":"station-004232","note":"歯科　小児歯科　矯正歯科　歯科口腔外科"},{"id":"medical-2-6645","name":"医療法人社団ニューシティ大崎クリニック","categoryId":"medical","categoryLabel":"医疗","lat":35.62072,"lng":139.728722,"stationId":"station-004136","note":"内科"},{"id":"medical-2-8231","name":"医療法人社団七福会　ホリィマームクリニック旗の台","categoryId":"medical","categoryLabel":"医疗","lat":35.607046,"lng":139.704099,"stationId":"station-004221","note":"内科　神経科　外科　リハビリテーション科"},{"id":"medical-2-7644","name":"医療法人社団交鐘会　あおぞら在宅診療所城南","categoryId":"medical","categoryLabel":"医疗","lat":35.614867,"lng":139.697968,"stationId":"station-004157","note":"内科"},{"id":"medical-3-10062","name":"医療法人社団佑健会　武蔵小山ＫＴ矯正歯科","categoryId":"medical","categoryLabel":"医疗","lat":35.620483,"lng":139.704973,"stationId":"station-004133","note":"歯科　矯正歯科　小児歯科　歯科口腔外科"},{"id":"medical-3-10063","name":"医療法人社団佑健会戸越銀座ＫＴ矯正歯科","categoryId":"medical","categoryLabel":"医疗","lat":35.615552,"lng":139.716094,"stationId":"station-004155","note":"歯科　矯正歯科　小児歯科　歯科口腔外科"},{"id":"medical-2-10067","name":"医療法人社団佑洪会　ボク上池台クリニック","categoryId":"medical","categoryLabel":"医疗","lat":35.601772,"lng":139.698712,"stationId":"station-004232","note":"内科　呼吸器科　循環器科　アレルギー科"},{"id":"medical-3-8364","name":"医療法人社団俊鶴会あおば歯科医院","categoryId":"medical","categoryLabel":"医疗","lat":35.615698,"lng":139.698141,"stationId":"station-004157","note":"歯科　矯正歯科　小児歯科　歯科口腔外科"},{"id":"medical-3-8365","name":"医療法人社団俊鶴会わかば歯科医院","categoryId":"medical","categoryLabel":"医疗","lat":35.621599,"lng":139.695679,"stationId":"station-004157","note":"歯科　矯正歯科　小児歯科　歯科口腔外科"},{"id":"medical-2-8577","name":"医療法人社団信俊会　心療内科アーツクリニック大崎","categoryId":"medical","categoryLabel":"医疗","lat":35.619675,"lng":139.72951,"stationId":"station-004136","note":"内科　精神科　心療内科"},{"id":"medical-2-10437","name":"医療法人社団傳仁会　　穂坂クリニック","categoryId":"medical","categoryLabel":"医疗","lat":35.618846,"lng":139.704816,"stationId":"station-004133","note":"内科　小児科　アレルギー科　リウマチ科"},{"id":"medical-2-10127","name":"医療法人社団優穂会　三穂クリニック","categoryId":"medical","categoryLabel":"医疗","lat":35.619675,"lng":139.72951,"stationId":"station-004136","note":"内科　胃腸科　循環器科　外科　整形外科　肛門科"},{"id":"medical-2-7626","name":"医療法人社団元隆会　小野内科","categoryId":"medical","categoryLabel":"医疗","lat":35.613164,"lng":139.700887,"stationId":"station-004157","note":"内科　アレルギー科"},{"id":"medical-2-7679","name":"医療法人社団光亮会　さかもと整形外科","categoryId":"medical","categoryLabel":"医疗","lat":35.603629,"lng":139.706009,"stationId":"station-004225","note":"リウマチ科　外科　皮膚科　リハビリテーション科　麻酔科ペインクリニック　整形外科　美容皮膚科"},{"id":"medical-2-7652","name":"医療法人社団光健会西小山耳鼻咽喉科","categoryId":"medical","categoryLabel":"医疗","lat":35.616251,"lng":139.698308,"stationId":"station-004157","note":"耳鼻いんこう科　頭頸部外科"},{"id":"medical-3-9227","name":"医療法人社団創星会　トミヤマ歯科クリニック","categoryId":"medical","categoryLabel":"医疗","lat":35.604584,"lng":139.700567,"stationId":"station-004221","note":"歯科　矯正歯科　小児歯科　歯科口腔外科"},{"id":"medical-3-9229","name":"医療法人社団創星会はたのだい東口歯科クリニック","categoryId":"medical","categoryLabel":"医疗","lat":35.606036,"lng":139.703898,"stationId":"station-004221","note":"歯科　小児歯科　歯科口腔外科　矯正歯科"},{"id":"medical-2-6945","name":"医療法人社団医誠会　牧野耳鼻咽喉科医院","categoryId":"medical","categoryLabel":"医疗","lat":35.608255,"lng":139.711932,"stationId":"station-004181","note":"耳鼻咽喉科"},{"id":"medical-2-9146","name":"医療法人社団千桜会　さくら皮フ科","categoryId":"medical","categoryLabel":"医疗","lat":35.619786,"lng":139.703977,"stationId":"station-004133","note":"形成外科　皮膚科　美容皮膚科"},{"id":"medical-2-9627","name":"医療法人社団南七星会　西小山脳神経外科・整形外科","categoryId":"medical","categoryLabel":"医疗","lat":35.615461,"lng":139.699309,"stationId":"station-004157","note":"脳神経外科　整形外科　外科　内科　リハビリテーション科"},{"id":"medical-2-10148","name":"医療法人社団友徳発心会　ひめのともみクリニック","categoryId":"medical","categoryLabel":"医疗","lat":35.622395,"lng":139.72276,"stationId":"station-004127","note":"心療内科　精神科　内科　小児科　整形外科　麻酔科"},{"id":"medical-2-9244","name":"医療法人社団双壽會　秋津医院","categoryId":"medical","categoryLabel":"医疗","lat":35.615067,"lng":139.717063,"stationId":"station-004161","note":"内科　小児科　アレルギー科　消化器内科　循環器内科"},{"id":"medical-2-8549","name":"医療法人社団城南すこやか会　城南レディスクリニック","categoryId":"medical","categoryLabel":"医疗","lat":35.604784,"lng":139.70485,"stationId":"station-004221","note":"産科　婦人科"},{"id":"medical-3-9338","name":"医療法人社団大樹　大崎ＴｈｉｎｋＰａｒｋ歯科","categoryId":"medical","categoryLabel":"医疗","lat":35.618388,"lng":139.72755,"stationId":"station-004136","note":"歯科　矯正歯科　小児歯科　歯科口腔外科"},{"id":"medical-3-9354","name":"医療法人社団大生会みこころ総合歯科　武蔵小山クリニック","categoryId":"medical","categoryLabel":"医疗","lat":35.617326,"lng":139.705847,"stationId":"station-004133","note":"歯科　矯正歯科　小児歯科　歯科口腔外科"},{"id":"medical-2-8438","name":"医療法人社団小川医院","categoryId":"medical","categoryLabel":"医疗","lat":35.601067,"lng":139.71212,"stationId":"station-004215","note":"内科　胃腸科　小児科　リウマチ科"},{"id":"medical-2-8555","name":"医療法人社団常安会　木内医院","categoryId":"medical","categoryLabel":"医疗","lat":35.606094,"lng":139.716789,"stationId":"station-004215","note":"内科　小児科　外科　産科　婦人科"},{"id":"medical-2-8590","name":"医療法人社団心愛会 TOWN訪問診療所城南","categoryId":"medical","categoryLabel":"医疗","lat":35.60058,"lng":139.699011,"stationId":"station-004232","note":"眼科"},{"id":"medical-2-9424","name":"医療法人社団忠晴会　石井クリニック","categoryId":"medical","categoryLabel":"医疗","lat":35.614852,"lng":139.706992,"stationId":"station-004133","note":"内科　消化器科　外科　整形外科　皮膚科　肛門科　リハビリテーション科"},{"id":"medical-2-7371","name":"医療法人社団恵俊会こんどう医院","categoryId":"medical","categoryLabel":"医疗","lat":35.619948,"lng":139.698743,"stationId":"station-004157","note":"内科　外科　消化器内科　肛門外科"},{"id":"medical-2-7390","name":"医療法人社団恵泉会　荏原中延クリニック","categoryId":"medical","categoryLabel":"医疗","lat":35.610041,"lng":139.711265,"stationId":"station-004181","note":"内科　精神科　神経科　神経内科　心療内科　皮膚科"},{"id":"medical-3-7396","name":"医療法人社団恵風会　西大井歯科医院","categoryId":"medical","categoryLabel":"医疗","lat":35.60006,"lng":139.721903,"stationId":"station-004235","note":"歯科　矯正歯科　小児歯科　歯科口腔外科"},{"id":"medical-2-10157","name":"医療法人社団悠日健　野本内科クリニック","categoryId":"medical","categoryLabel":"医疗","lat":35.615527,"lng":139.698951,"stationId":"station-004157","note":"内科　呼吸器内科　アレルギー科"},{"id":"medical-2-8197","name":"医療法人社団慈邦会　こみね循環器科・内科クリニック","categoryId":"medical","categoryLabel":"医疗","lat":35.601462,"lng":139.708849,"stationId":"station-004225","note":"内科　小児科　循環器内科"},{"id":"medical-3-7430","name":"医療法人社団慶心有来会目黒本町さくら歯科医院","categoryId":"medical","categoryLabel":"医疗","lat":35.621254,"lng":139.700806,"stationId":"station-004133","note":"歯科　矯正歯科　小児歯科　歯科口腔外科"},{"id":"medical-2-7442","name":"医療法人社団慶繁会青山セントラルクリニック","categoryId":"medical","categoryLabel":"医疗","lat":35.621531,"lng":139.705874,"stationId":"station-004133","note":"内科　アレルギー科　耳鼻咽喉科"},{"id":"medical-2-7597","name":"医療法人社団憲伸会　五反田西口クリニック","categoryId":"medical","categoryLabel":"医疗","lat":35.624405,"lng":139.722949,"stationId":"station-004117","note":"内科　アレルギー科　整形外科　皮膚科"},{"id":"medical-2-9262","name":"医療法人社団早雲会　北条クリニックはたのだい","categoryId":"medical","categoryLabel":"医疗","lat":35.604834,"lng":139.700254,"stationId":"station-004221","note":"心療内科　内科　精神科"},{"id":"medical-3-10026","name":"医療法人社団明優会　しみず歯科クリニック","categoryId":"medical","categoryLabel":"医疗","lat":35.604154,"lng":139.704358,"stationId":"station-004221","note":"歯科　矯正歯科　小児歯科　歯科口腔外科"},{"id":"medical-2-10018","name":"医療法人社団明方会　松本クリニック","categoryId":"medical","categoryLabel":"医疗","lat":35.605359,"lng":139.712847,"stationId":"station-004215","note":"内科　胃腸科　循環器科　外科　整形外科　リハビリテーション科"},{"id":"medical-2-10031","name":"医療法人社団明洋会　柴垣医院　戸越","categoryId":"medical","categoryLabel":"医疗","lat":35.61512,"lng":139.716299,"stationId":"station-004161","note":"内科　人工透析内科"},{"id":"medical-2-8477","name":"医療法人社団昭和育英会　長原三和クリニック","categoryId":"medical","categoryLabel":"医疗","lat":35.603675,"lng":139.698134,"stationId":"station-004232","note":"産婦人科　麻酔科　皮膚科"},{"id":"medical-2-8473","name":"医療法人社団昭清会　千葉内科歯科クリニック","categoryId":"medical","categoryLabel":"医疗","lat":35.606466,"lng":139.724587,"stationId":"station-004188","note":"内科　消化器科　歯科　小児歯科"},{"id":"medical-2-8206","name":"医療法人社団時正会　旗の台小池クリニック","categoryId":"medical","categoryLabel":"医疗","lat":35.604141,"lng":139.703027,"stationId":"station-004221","note":"人工透析内科"},{"id":"medical-2-7299","name":"医療法人社団暁会　原医院","categoryId":"medical","categoryLabel":"医疗","lat":35.612764,"lng":139.713648,"stationId":"station-004161","note":"内科　消化器科　小児科　放射線科"},{"id":"medical-2-9892","name":"医療法人社団朋英会　舘医院","categoryId":"medical","categoryLabel":"医疗","lat":35.620535,"lng":139.710349,"stationId":"station-004133","note":"内科　外科　皮膚科　泌尿器科"},{"id":"medical-2-9528","name":"医療法人社団東京修仁会　戸越泌尿器科内科クリニック","categoryId":"medical","categoryLabel":"医疗","lat":35.614195,"lng":139.723126,"stationId":"station-004161","note":"泌尿器科　内科"},{"id":"medical-3-9542","name":"医療法人社団東秀会　森井歯科医院","categoryId":"medical","categoryLabel":"医疗","lat":35.605118,"lng":139.718913,"stationId":"station-004186","note":"矯正歯科"},{"id":"medical-2-8483","name":"医療法人社団松永医院","categoryId":"medical","categoryLabel":"医疗","lat":35.612939,"lng":139.717489,"stationId":"station-004161","note":"内科　呼吸器科　消化器科　循環器科　精神科"},{"id":"medical-2-8498","name":"医療法人社団松福会　伊藤クリニック","categoryId":"medical","categoryLabel":"医疗","lat":35.605474,"lng":139.718144,"stationId":"station-004186","note":"胃腸科　外科　整形外科　リハビリテーション科　放射線科"},{"id":"medical-2-10366","name":"医療法人社団林医院","categoryId":"medical","categoryLabel":"医疗","lat":35.6182,"lng":139.70148,"stationId":"station-004133","note":"内科　眼科　矯正歯科"},{"id":"medical-2-9782","name":"医療法人社団柊会　大崎眼科クリニック","categoryId":"medical","categoryLabel":"医疗","lat":35.619675,"lng":139.72951,"stationId":"station-004136","note":"眼科"},{"id":"medical-2-7329","name":"医療法人社団栗原医院","categoryId":"medical","categoryLabel":"医疗","lat":35.617347,"lng":139.710434,"stationId":"station-004155","note":"内科　外科　整形外科　皮膚科　リハビリテーション科　歯科"},{"id":"medical-2-7985","name":"医療法人社団桜愛会　サザンガーデンクリニック","categoryId":"medical","categoryLabel":"医疗","lat":35.624328,"lng":139.727336,"stationId":"station-004117","note":"内科　循環器内科　小児科　アレルギー科　皮膚科"},{"id":"medical-3-9443","name":"医療法人社団椎の木　なかむら歯科クリニック","categoryId":"medical","categoryLabel":"医疗","lat":35.606414,"lng":139.712198,"stationId":"station-004215","note":"歯科　矯正歯科　小児歯科　歯科口腔外科"},{"id":"medical-2-10468","name":"医療法人社団櫻井クリニック","categoryId":"medical","categoryLabel":"医疗","lat":35.620179,"lng":139.716447,"stationId":"station-004155","note":"内科　消化器科　外科　リハビリテーション科"},{"id":"medical-3-8140","name":"医療法人社団歯仁会　ダイエー歯科診療所","categoryId":"medical","categoryLabel":"医疗","lat":35.615931,"lng":139.727493,"stationId":"station-004136","note":"歯科　小児歯科"},{"id":"medical-2-8557","name":"医療法人社団浄真会　仲田クリニック","categoryId":"medical","categoryLabel":"医疗","lat":35.606672,"lng":139.713709,"stationId":"station-004215","note":"内科　皮膚科　泌尿器科"},{"id":"medical-3-8931","name":"医療法人社団清慈会戸越パーク歯科クリニック","categoryId":"medical","categoryLabel":"医疗","lat":35.609233,"lng":139.718452,"stationId":"station-004186","note":"小児歯科　矯正歯科　歯科　歯科口腔外科"},{"id":"medical-2-8080","name":"医療法人社団燦燦会えばらサンクリニック","categoryId":"medical","categoryLabel":"医疗","lat":35.610868,"lng":139.710517,"stationId":"station-004181","note":"内科　皮膚科　小児科　整形外科"},{"id":"medical-2-9266","name":"医療法人社団相愛会　相原内科クリニック","categoryId":"medical","categoryLabel":"医疗","lat":35.60825,"lng":139.712056,"stationId":"station-004181","note":"内科　消化器科　循環器科　糖尿病内科　内分泌内科　代謝内科"},{"id":"medical-3-8658","name":"医療法人社団真信会　健デンタルクリニック","categoryId":"medical","categoryLabel":"医疗","lat":35.617985,"lng":139.706135,"stationId":"station-004133","note":"歯科　矯正歯科　小児歯科　歯科口腔外科"},{"id":"medical-2-8529","name":"医療法人社団笑鯨会　なかのぶクリニック","categoryId":"medical","categoryLabel":"医疗","lat":35.606227,"lng":139.712809,"stationId":"station-004215","note":"内科　消化器科　外科　整形外科　リハビリテーション科"},{"id":"medical-2-8117","name":"医療法人社団紫水会むさしこやま耳鼻咽喉科","categoryId":"medical","categoryLabel":"医疗","lat":35.622093,"lng":139.697271,"stationId":"station-004133","note":"アレルギー科　耳鼻いんこう科　小児耳鼻いんこう科　小児科"},{"id":"medical-3-10354","name":"医療法人社団緑心会　カナイ歯科クリニック","categoryId":"medical","categoryLabel":"医疗","lat":35.620552,"lng":139.715771,"stationId":"station-004155","note":"歯科　矯正歯科　小児歯科"},{"id":"medical-3-9778","name":"医療法人社団美和会　にいや歯科医院","categoryId":"medical","categoryLabel":"医疗","lat":35.610399,"lng":139.719774,"stationId":"station-004186","note":"歯科　矯正歯科　小児歯科　歯科口腔外科"},{"id":"medical-2-10509","name":"医療法人社団翔永会　山田整形外科","categoryId":"medical","categoryLabel":"医疗","lat":35.603661,"lng":139.723412,"stationId":"station-004235","note":"内科　整形外科　皮膚科　リハビリテーション科"},{"id":"medical-2-10527","name":"医療法人社団翔緑会　麦谷医院","categoryId":"medical","categoryLabel":"医疗","lat":35.610248,"lng":139.718955,"stationId":"station-004186","note":"胃腸科　外科　リハビリテーション科"},{"id":"medical-3-10518","name":"医療法人社団翔美会　小久保歯科医院","categoryId":"medical","categoryLabel":"医疗","lat":35.605731,"lng":139.714531,"stationId":"station-004215","note":"歯科　矯正歯科　小児歯科　歯科口腔外科"},{"id":"medical-2-9001","name":"医療法人社団聖心会　さいとうファミリークリニック","categoryId":"medical","categoryLabel":"医疗","lat":35.61023,"lng":139.701755,"stationId":"station-004221","note":"内科　小児科　リハビリテーション科　消化器内科"},{"id":"medical-2-8123","name":"医療法人社団至誠会　横山外科内科","categoryId":"medical","categoryLabel":"医疗","lat":35.605458,"lng":139.725414,"stationId":"station-004188","note":"内科　外科　整形外科　皮膚科　泌尿器科　性病科　リハビリテーション科　産婦人科　肛門外科"},{"id":"medical-2-10334","name":"医療法人社団良宗会　池上皮膚科医院","categoryId":"medical","categoryLabel":"医疗","lat":35.615259,"lng":139.714806,"stationId":"station-004155","note":"皮膚科"},{"id":"medical-3-7063","name":"医療法人社団英高会　板倉歯科医院","categoryId":"medical","categoryLabel":"医疗","lat":35.61435,"lng":139.700051,"stationId":"station-004157","note":"歯科　矯正歯科　小児歯科　歯科口腔外科"},{"id":"medical-2-9037","name":"医療法人社団誠敬会ふかどう眼科","categoryId":"medical","categoryLabel":"医疗","lat":35.601485,"lng":139.698435,"stationId":"station-004232","note":"リウマチ科　整形外科　リハビリテーション科"},{"id":"medical-3-9921","name":"医療法人社団豊仁会　大塚歯科医院","categoryId":"medical","categoryLabel":"医疗","lat":35.624808,"lng":139.722951,"stationId":"station-004117","note":"歯科　矯正歯科"},{"id":"medical-2-9913","name":"医療法人社団豊佳会　青柳医院","categoryId":"medical","categoryLabel":"医疗","lat":35.614343,"lng":139.722476,"stationId":"station-004161","note":"内科　消化器科　胃腸科　外科　整形外科　肛門科　リハビリテーション科"},{"id":"medical-3-7207","name":"医療法人社団貴麗会貴子デンタルクリニック","categoryId":"medical","categoryLabel":"医疗","lat":35.622111,"lng":139.699607,"stationId":"station-004133","note":"歯科　矯正歯科　小児歯科　歯科口腔外科"},{"id":"medical-2-8694","name":"医療法人社団進興会　オーバルコート健診クリニック","categoryId":"medical","categoryLabel":"医疗","lat":35.623332,"lng":139.729226,"stationId":"station-004136","note":"内科"},{"id":"medical-2-8696","name":"医療法人社団進興会　進興クリニック","categoryId":"medical","categoryLabel":"医疗","lat":35.618388,"lng":139.72755,"stationId":"station-004136","note":"内科"},{"id":"medical-2-8697","name":"医療法人社団進興会　進興クリニックアネックス","categoryId":"medical","categoryLabel":"医疗","lat":35.62072,"lng":139.728722,"stationId":"station-004136","note":"内科"},{"id":"medical-2-10377","name":"医療法人社団鈴の輪会　鈴の木こどもクリニック","categoryId":"medical","categoryLabel":"医疗","lat":35.617966,"lng":139.71889,"stationId":"station-004155","note":"小児科　アレルギー科"},{"id":"medical-2-7312","name":"医療法人社団錦生会　和光医院","categoryId":"medical","categoryLabel":"医疗","lat":35.618591,"lng":139.703232,"stationId":"station-004133","note":"内科　循環器科　小児科　糖尿病内科"},{"id":"medical-3-10295","name":"医療法人社団隆嘉会　よしひろ歯科クリニック","categoryId":"medical","categoryLabel":"医疗","lat":35.618718,"lng":139.70659,"stationId":"station-004133","note":"歯科　矯正歯科　小児歯科　歯科口腔外科"},{"id":"medical-3-10296","name":"医療法人社団隆嘉会ソレイユデンタルクリニック","categoryId":"medical","categoryLabel":"医疗","lat":35.601475,"lng":139.697182,"stationId":"station-004232","note":"歯科口腔外科"},{"id":"medical-2-10302","name":"医療法人社団隆真会　大崎耳鼻咽喉科","categoryId":"medical","categoryLabel":"医疗","lat":35.618388,"lng":139.72755,"stationId":"station-004136","note":"アレルギー科　耳鼻咽喉科"},{"id":"medical-2-10216","name":"医療法人社団雄喜会　大崎広小路内科","categoryId":"medical","categoryLabel":"医疗","lat":35.62275,"lng":139.722602,"stationId":"station-004127","note":"内科　循環器内科　アレルギー科"},{"id":"medical-2-9101","name":"医療法人社団静英会　あしかわ耳鼻咽喉科","categoryId":"medical","categoryLabel":"医疗","lat":35.60921,"lng":139.718225,"stationId":"station-004186","note":"耳鼻咽喉科"},{"id":"medical-2-8409","name":"医療法人社団順信会目黒整形外科内科","categoryId":"medical","categoryLabel":"医疗","lat":35.622093,"lng":139.697271,"stationId":"station-004133","note":"内科　整形外科　リウマチ科　リハビリテーション科"},{"id":"medical-3-7938","name":"医療法人社団高優会　パルム歯科クリニック","categoryId":"medical","categoryLabel":"医疗","lat":35.611287,"lng":139.712905,"stationId":"station-004181","note":"歯科　矯正歯科　歯科口腔外科"},{"id":"medical-2-7930","name":"医療法人社団高志会はらまち高田整形外科内科医院","categoryId":"medical","categoryLabel":"医疗","lat":35.615653,"lng":139.697473,"stationId":"station-004157","note":"整形外科　リハビリテーション科　内科　リウマチ科"},{"id":"medical-2-10558","name":"医療法人社団髙礎会髙崎クリニック","categoryId":"medical","categoryLabel":"医疗","lat":35.620415,"lng":139.697339,"stationId":"station-004157","note":"内科　小児科"},{"id":"medical-2-9935","name":"医療法人社団鳳優会荏原ホームケアクリニック","categoryId":"medical","categoryLabel":"医疗","lat":35.610656,"lng":139.715218,"stationId":"station-004181","note":"内科　リハビリテーション科　泌尿器科　脳神経内科　緩和ケア内科"},{"id":"medical-2-6123","name":"医療法人社団ＡＲＣＷＥＬＬ 旗の台ライフクリニック","categoryId":"medical","categoryLabel":"医疗","lat":35.602839,"lng":139.698001,"stationId":"station-004232","note":"アレルギー科　皮膚科　性病科"},{"id":"medical-3-6133","name":"医療法人社団ＢＬＩＳＳ　西大井駅前歯科クリニック","categoryId":"medical","categoryLabel":"医疗","lat":35.60147,"lng":139.721679,"stationId":"station-004235","note":"歯科　矯正歯科　小児歯科　歯科口腔外科"},{"id":"medical-2-6253","name":"医療法人社団ＮＩＨ　なるき内科クリニック","categoryId":"medical","categoryLabel":"医疗","lat":35.602062,"lng":139.720562,"stationId":"station-004235","note":"内科　消化器科　小児科　リハビリテーション科"},{"id":"medical-2-5005","name":"医療法人財団太光会　柿島医院","categoryId":"medical","categoryLabel":"医疗","lat":35.60134,"lng":139.727812,"stationId":"station-004235","note":"内科　循環器内科　ペインクリニック内科"},{"id":"medical-2-16317","name":"千束呼吸器アレルギークリニック","categoryId":"medical","categoryLabel":"医疗","lat":35.604251,"lng":139.69747,"stationId":"station-004232","note":"内科　外科　整形外科　脳神経外科　皮膚科　リハビリテーション科　肛門科"},{"id":"medical-3-12500","name":"古屋歯科医院","categoryId":"medical","categoryLabel":"医疗","lat":35.605398,"lng":139.729656,"stationId":"station-004188","note":"歯科　小児歯科"},{"id":"medical-3-12526","name":"古澤歯科診療所","categoryId":"medical","categoryLabel":"医疗","lat":35.602591,"lng":139.717658,"stationId":"station-004235","note":"歯科　小児歯科"},{"id":"medical-3-10769","name":"右田歯科医院","categoryId":"medical","categoryLabel":"医疗","lat":35.610136,"lng":139.716139,"stationId":"station-004186","note":"歯科　矯正歯科"},{"id":"medical-2-11803","name":"吉田整形外科医院","categoryId":"medical","categoryLabel":"医疗","lat":35.624189,"lng":139.721496,"stationId":"station-004127","note":"整形外科　リハビリテーション科"},{"id":"medical-3-12596","name":"吾妻歯科医院","categoryId":"medical","categoryLabel":"医疗","lat":35.624667,"lng":139.712948,"stationId":"station-004114","note":"歯科"},{"id":"medical-3-20728","name":"和智歯科医院","categoryId":"medical","categoryLabel":"医疗","lat":35.600401,"lng":139.697433,"stationId":"station-004232","note":"歯科　小児歯科　矯正歯科　歯科口腔外科"},{"id":"medical-3-20722","name":"和栗歯科医院","categoryId":"medical","categoryLabel":"医疗","lat":35.606809,"lng":139.712426,"stationId":"station-004215","note":"歯科　矯正歯科　小児歯科"},{"id":"medical-2-20733","name":"和田外科医院","categoryId":"medical","categoryLabel":"医疗","lat":35.615164,"lng":139.715011,"stationId":"station-004155","note":"内科　リウマチ科　外科　整形外科　皮膚科　リハビリテーション科"},{"id":"medical-2-20746","name":"和田整形外科","categoryId":"medical","categoryLabel":"医疗","lat":35.607723,"lng":139.717736,"stationId":"station-004186","note":"内科　整形外科　リハビリテーション科"},{"id":"medical-2-20735","name":"和田眼科","categoryId":"medical","categoryLabel":"医疗","lat":35.601181,"lng":139.70912,"stationId":"station-004225","note":"眼科"},{"id":"medical-2-19400","name":"品川上井クリニック","categoryId":"medical","categoryLabel":"医疗","lat":35.60303,"lng":139.722609,"stationId":"station-004235","note":"内科"},{"id":"medical-2-19387","name":"品川区保健所荏原保健センター","categoryId":"medical","categoryLabel":"医疗","lat":35.617201,"lng":139.711386,"stationId":"station-004155","note":"内科　小児科　放射線科　歯科"},{"id":"medical-2-19393","name":"品川区立中延特別養護老人ホ−ム医務室","categoryId":"medical","categoryLabel":"医疗","lat":35.60177,"lng":139.711594,"stationId":"station-004215","note":"内科"},{"id":"medical-2-19396","name":"品川区立平塚橋特別養護老人ホーム医務室","categoryId":"medical","categoryLabel":"医疗","lat":35.614334,"lng":139.709937,"stationId":"station-004155","note":"内科"},{"id":"medical-2-19391","name":"品川区立戸越台特別養護老人ホ−ム医療室","categoryId":"medical","categoryLabel":"医疗","lat":35.615551,"lng":139.71762,"stationId":"station-004161","note":"内科"},{"id":"medical-2-19394","name":"品川区立杜松特別養護老人ホーム　医務室","categoryId":"medical","categoryLabel":"医疗","lat":35.605954,"lng":139.722192,"stationId":"station-004235","note":"内科"},{"id":"medical-2-19390","name":"品川区立荏原特別養護老人ホ−ム医療室","categoryId":"medical","categoryLabel":"医疗","lat":35.617201,"lng":139.711386,"stationId":"station-004155","note":"内科"},{"id":"medical-2-19383","name":"品川荏原ライフケアクリニック","categoryId":"medical","categoryLabel":"医疗","lat":35.618253,"lng":139.709758,"stationId":"station-004155","note":"漢方内科　疼痛緩和内科"},{"id":"medical-3-17983","name":"土佐歯科クリニック","categoryId":"medical","categoryLabel":"医疗","lat":35.620487,"lng":139.706233,"stationId":"station-004133","note":"歯科　矯正歯科　小児歯科"},{"id":"medical-3-10915","name":"塩野目歯科医院","categoryId":"medical","categoryLabel":"医疗","lat":35.60608,"lng":139.712483,"stationId":"station-004215","note":"歯科　矯正歯科　小児歯科　歯科口腔外科"},{"id":"medical-2-16771","name":"大井町なかじま眼科・内科","categoryId":"medical","categoryLabel":"医疗","lat":35.60701,"lng":139.729947,"stationId":"station-004188","note":"眼科　内科　小児眼科"},{"id":"medical-2-16775","name":"大井町レディースクリニック","categoryId":"medical","categoryLabel":"医疗","lat":35.60701,"lng":139.729947,"stationId":"station-004188","note":"婦人科　女性内科"},{"id":"medical-3-16833","name":"大原歯科医院","categoryId":"medical","categoryLabel":"医疗","lat":35.610126,"lng":139.711778,"stationId":"station-004181","note":"歯科　矯正歯科　小児歯科"},{"id":"medical-3-17089","name":"大和屋歯科医院","categoryId":"medical","categoryLabel":"医疗","lat":35.606701,"lng":139.716648,"stationId":"station-004186","note":"歯科"},{"id":"medical-3-16993","name":"大塚歯科医院","categoryId":"medical","categoryLabel":"医疗","lat":35.612407,"lng":139.719317,"stationId":"station-004161","note":"歯科"},{"id":"medical-3-16793","name":"大岡歯科医院","categoryId":"medical","categoryLabel":"医疗","lat":35.609591,"lng":139.712955,"stationId":"station-004181","note":"歯科"},{"id":"medical-2-16838","name":"大崎　女性のためのクリニック","categoryId":"medical","categoryLabel":"医疗","lat":35.618388,"lng":139.72755,"stationId":"station-004136","note":"産婦人科"},{"id":"medical-3-16839","name":"大崎ウエストシティタワーズ歯科","categoryId":"medical","categoryLabel":"医疗","lat":35.616551,"lng":139.727809,"stationId":"station-004136","note":"歯科　矯正歯科　小児歯科　歯科口腔外科"},{"id":"medical-2-16842","name":"大崎ニューシティ皮膚科さやかクリニック","categoryId":"medical","categoryLabel":"医疗","lat":35.619675,"lng":139.72951,"stationId":"station-004136","note":"皮膚科　形成外科　美容皮膚科"},{"id":"medical-2-16844","name":"大崎医院","categoryId":"medical","categoryLabel":"医疗","lat":35.61734,"lng":139.724799,"stationId":"station-004136","note":"内科　皮膚科"},{"id":"medical-3-17040","name":"大嶋歯科医院","categoryId":"medical","categoryLabel":"医疗","lat":35.603849,"lng":139.719457,"stationId":"station-004235","note":"歯科"},{"id":"medical-3-17061","name":"大木歯科医院","categoryId":"medical","categoryLabel":"医疗","lat":35.608996,"lng":139.71785,"stationId":"station-004186","note":"歯科　矯正歯科"},{"id":"medical-3-16895","name":"大森歯科医院","categoryId":"medical","categoryLabel":"医疗","lat":35.620523,"lng":139.702762,"stationId":"station-004133","note":"歯科　小児歯科"},{"id":"medical-2-16837","name":"大高小児科醫院","categoryId":"medical","categoryLabel":"医疗","lat":35.614058,"lng":139.708675,"stationId":"station-004181","note":"小児科"},{"id":"medical-2-17716","name":"天野医院","categoryId":"medical","categoryLabel":"医疗","lat":35.605585,"lng":139.702905,"stationId":"station-004221","note":"内科　外科　整形外科"},{"id":"medical-3-14232","name":"守歯科医院","categoryId":"medical","categoryLabel":"医疗","lat":35.605423,"lng":139.698929,"stationId":"station-004221","note":"歯科"},{"id":"medical-3-4729","name":"安田歯科医院","categoryId":"medical","categoryLabel":"医疗","lat":35.623788,"lng":139.715282,"stationId":"station-004114","note":"歯科"},{"id":"medical-3-4742","name":"安藤歯科","categoryId":"medical","categoryLabel":"医疗","lat":35.621968,"lng":139.700463,"stationId":"station-004133","note":"歯科"},{"id":"medical-2-4751","name":"安藤脳神経外科・内科クリニック","categoryId":"medical","categoryLabel":"医疗","lat":35.600792,"lng":139.721536,"stationId":"station-004235","note":"内科　神経内科　脳神経外科　リハビリテーション科　放射線科"},{"id":"medical-3-14266","name":"宗田歯科医院","categoryId":"medical","categoryLabel":"医疗","lat":35.609722,"lng":139.718874,"stationId":"station-004186","note":"歯科"},{"id":"medical-3-11903","name":"宮下歯科室","categoryId":"medical","categoryLabel":"医疗","lat":35.607933,"lng":139.717386,"stationId":"station-004186","note":"歯科　矯正歯科　小児歯科"},{"id":"medical-2-11952","name":"宮本整形外科","categoryId":"medical","categoryLabel":"医疗","lat":35.6021,"lng":139.722418,"stationId":"station-004235","note":"整形外科　リハビリテーション科　リウマチ科　小児整形外科"},{"id":"medical-3-13929","name":"寺岡歯科医院","categoryId":"medical","categoryLabel":"医疗","lat":35.602684,"lng":139.708323,"stationId":"station-004225","note":"歯科"},{"id":"medical-2-14504","name":"小山中央診療所","categoryId":"medical","categoryLabel":"医疗","lat":35.620284,"lng":139.702565,"stationId":"station-004133","note":"消化器内科　内科"},{"id":"medical-2-14728","name":"小林皮膚科クリニック","categoryId":"medical","categoryLabel":"医疗","lat":35.620668,"lng":139.702285,"stationId":"station-004133","note":"皮膚科"},{"id":"medical-2-14648","name":"小野ひふ科医院","categoryId":"medical","categoryLabel":"医疗","lat":35.612321,"lng":139.702124,"stationId":"station-004157","note":"皮膚科"},{"id":"medical-3-14657","name":"小野寺歯科医院","categoryId":"medical","categoryLabel":"医疗","lat":35.622173,"lng":139.721358,"stationId":"station-004127","note":"歯科"},{"id":"medical-2-13715","name":"山内クリニック","categoryId":"medical","categoryLabel":"医疗","lat":35.615011,"lng":139.701883,"stationId":"station-004157","note":"内科　消化器内科　胃腸内科　内視鏡内科　大腸外科　肛門外科"},{"id":"medical-2-13633","name":"山口診療所","categoryId":"medical","categoryLabel":"医疗","lat":35.624588,"lng":139.720533,"stationId":"station-004127","note":"内科　漢方婦人科　漢方内科"},{"id":"medical-3-13672","name":"山村歯科医院","categoryId":"medical","categoryLabel":"医疗","lat":35.624189,"lng":139.721496,"stationId":"station-004127","note":"歯科"},{"id":"medical-2-13712","name":"山田内科医院","categoryId":"medical","categoryLabel":"医疗","lat":35.600949,"lng":139.69894,"stationId":"station-004232","note":"循環器内科　内科　形成外科　皮膚科"},{"id":"medical-2-13767","name":"山﨑眼科","categoryId":"medical","categoryLabel":"医疗","lat":35.616014,"lng":139.713503,"stationId":"station-004155","note":"眼科"},{"id":"medical-2-11038","name":"岡部耳鼻咽喉科医院","categoryId":"medical","categoryLabel":"医疗","lat":35.620503,"lng":139.708364,"stationId":"station-004133","note":"耳鼻咽喉科　小児科"},{"id":"medical-3-11594","name":"岩城デンタルクリニック","categoryId":"medical","categoryLabel":"医疗","lat":35.615507,"lng":139.714931,"stationId":"station-004155","note":"歯科　矯正歯科"},{"id":"medical-3-18026","name":"島本歯科医院","categoryId":"medical","categoryLabel":"医疗","lat":35.607584,"lng":139.710049,"stationId":"station-004181","note":"歯科　小児歯科"},{"id":"medical-2-18015","name":"島田眼科","categoryId":"medical","categoryLabel":"医疗","lat":35.619829,"lng":139.703318,"stationId":"station-004133","note":"眼科"},{"id":"medical-3-19710","name":"平内歯科クリニック","categoryId":"medical","categoryLabel":"医疗","lat":35.606711,"lng":139.71185,"stationId":"station-004215","note":"歯科　矯正歯科　小児歯科　歯科口腔外科"},{"id":"medical-3-19726","name":"平和坂菅原歯科","categoryId":"medical","categoryLabel":"医疗","lat":35.612165,"lng":139.724679,"stationId":"station-004188","note":"歯科　矯正歯科　小児歯科　歯科口腔外科"},{"id":"medical-3-19699","name":"平塚歯科クリニック","categoryId":"medical","categoryLabel":"医疗","lat":35.613838,"lng":139.719186,"stationId":"station-004161","note":"歯科　小児歯科"},{"id":"medical-2-19694","name":"平川医院","categoryId":"medical","categoryLabel":"医疗","lat":35.6143,"lng":139.695287,"stationId":"station-004157","note":"内科　消化器内科"},{"id":"medical-3-19696","name":"平川歯科医院","categoryId":"medical","categoryLabel":"医疗","lat":35.624937,"lng":139.707545,"stationId":"station-004114","note":"歯科"},{"id":"medical-3-19698","name":"平沢歯科医院","categoryId":"medical","categoryLabel":"医疗","lat":35.614767,"lng":139.699495,"stationId":"station-004157","note":"歯科"},{"id":"medical-3-19706","name":"平田歯科医院","categoryId":"medical","categoryLabel":"医疗","lat":35.606029,"lng":139.718266,"stationId":"station-004186","note":"歯科　矯正歯科"},{"id":"medical-2-19678","name":"平間整形外科内科クリニック","categoryId":"medical","categoryLabel":"医疗","lat":35.604576,"lng":139.697995,"stationId":"station-004232","note":"内科　消化器科　リウマチ科　整形外科　リハビリテーション科"},{"id":"medical-3-12736","name":"広田歯科","categoryId":"medical","categoryLabel":"医疗","lat":35.60976,"lng":139.718228,"stationId":"station-004186","note":"歯科"},{"id":"medical-3-20758","name":"廣瀬歯科医院","categoryId":"medical","categoryLabel":"医疗","lat":35.619843,"lng":139.727208,"stationId":"station-004136","note":"歯科"},{"id":"medical-2-18517","name":"徳丸クリニック","categoryId":"medical","categoryLabel":"医疗","lat":35.607264,"lng":139.71215,"stationId":"station-004215","note":"内科　小児科　リウマチ科　外科　整形外科　形成外科　小児外科　皮膚科　リハビリテーション科"},{"id":"medical-3-12528","name":"戸越なかやま歯科","categoryId":"medical","categoryLabel":"医疗","lat":35.611394,"lng":139.716463,"stationId":"station-004186","note":"歯科　矯正歯科　小児歯科　歯科口腔外科"},{"id":"medical-2-12529","name":"戸越パーククリニック","categoryId":"medical","categoryLabel":"医疗","lat":35.606274,"lng":139.717952,"stationId":"station-004186","note":"内科　糖尿病内科　アレルギー科　呼吸器内科"},{"id":"medical-3-12533","name":"戸越公園宮里歯科","categoryId":"medical","categoryLabel":"医疗","lat":35.610155,"lng":139.718744,"stationId":"station-004186","note":"歯科"},{"id":"medical-2-12535","name":"戸越皮膚科クリニック","categoryId":"medical","categoryLabel":"医疗","lat":35.615067,"lng":139.717063,"stationId":"station-004161","note":"皮膚科　アレルギー科"},{"id":"medical-2-12534","name":"戸越脳神経外科クリニック","categoryId":"medical","categoryLabel":"医疗","lat":35.616718,"lng":139.717623,"stationId":"station-004155","note":"脳神経外科　神経内科　内科　放射線科"},{"id":"medical-2-12531","name":"戸越銀座なかむら整形外科","categoryId":"medical","categoryLabel":"医疗","lat":35.616014,"lng":139.713503,"stationId":"station-004155","note":"整形外科　リハビリテーション科　泌尿器科"},{"id":"medical-3-12530","name":"戸越銀座デンタルケアークリニック","categoryId":"medical","categoryLabel":"医疗","lat":35.616363,"lng":139.711631,"stationId":"station-004155","note":"歯科　矯正歯科　小児歯科　歯科口腔外科"},{"id":"medical-3-12532","name":"戸越銀座歯科矯正歯科クリニック","categoryId":"medical","categoryLabel":"医疗","lat":35.615999,"lng":139.715287,"stationId":"station-004155","note":"歯科　矯正歯科　小児歯科"},{"id":"medical-3-15100","name":"新井歯科医院","categoryId":"medical","categoryLabel":"医疗","lat":35.615964,"lng":139.71361,"stationId":"station-004155","note":"歯科　矯正歯科　小児歯科"},{"id":"medical-2-11641","name":"旗の台アレルギー・こどもクリニック","categoryId":"medical","categoryLabel":"医疗","lat":35.607046,"lng":139.704099,"stationId":"station-004221","note":"小児科　内科　アレルギー科"},{"id":"medical-3-11642","name":"旗の台カナリヤ坂歯科クリニック","categoryId":"medical","categoryLabel":"医疗","lat":35.604009,"lng":139.702975,"stationId":"station-004221","note":"歯科　矯正歯科　小児歯科　歯科口腔外科"},{"id":"medical-3-11643","name":"旗の台サカイ歯科クリニック","categoryId":"medical","categoryLabel":"医疗","lat":35.604325,"lng":139.702073,"stationId":"station-004221","note":"歯科　小児歯科　矯正歯科　歯科口腔外科"},{"id":"medical-2-11644","name":"旗の台メンタルクリニック","categoryId":"medical","categoryLabel":"医疗","lat":35.606071,"lng":139.704718,"stationId":"station-004221","note":"心療内科　精神科"},{"id":"medical-2-11647","name":"旗の台内科・救急クリニック","categoryId":"medical","categoryLabel":"医疗","lat":35.607835,"lng":139.704661,"stationId":"station-004221","note":"内科　救急科　外科　脳神経外科　小児科　整形外科"},{"id":"medical-3-11646","name":"旗の台歯科","categoryId":"medical","categoryLabel":"医疗","lat":35.605005,"lng":139.703359,"stationId":"station-004221","note":"歯科　矯正歯科　小児歯科"},{"id":"medical-2-11645","name":"旗の台駅東口　いわた眼科","categoryId":"medical","categoryLabel":"医疗","lat":35.608828,"lng":139.705218,"stationId":"station-004221","note":"眼科"},{"id":"medical-2-18873","name":"日本コムシス医務室","categoryId":"medical","categoryLabel":"医疗","lat":35.623332,"lng":139.729226,"stationId":"station-004136","note":"内科"},{"id":"medical-2-18943","name":"日本精工診療所","categoryId":"medical","categoryLabel":"医疗","lat":35.620162,"lng":139.72985,"stationId":"station-004136","note":"内科　歯科"},{"id":"medical-2-16561","name":"早川眼科医院","categoryId":"medical","categoryLabel":"医疗","lat":35.61642,"lng":139.705848,"stationId":"station-004133","note":"眼科"},{"id":"medical-1-14743","name":"昭和大学病院","categoryId":"medical","categoryLabel":"医疗","lat":35.608438,"lng":139.703592,"stationId":"station-004221","note":"呼吸器内科　循環器内科　消化器内科　腎臓内科　神経内科　糖尿病内科　代謝内科　内分泌内科　血液内科　皮膚科　アレルギー科　リウマチ科　感染症内科　腫瘍内科　緩和ケア内科　小児科　精神科　呼吸器外科　心臓血管外科　乳腺外科　消化器外科　気管食道外科"},{"id":"medical-1-14744","name":"昭和大学病院附属東病院","categoryId":"medical","categoryLabel":"医疗","lat":35.609499,"lng":139.705552,"stationId":"station-004221","note":"内科　呼吸器内科　糖尿病内科　代謝内科　内分泌内科　精神科　神経内科　アレルギー科　リウマチ科　外科　整形外科　形成外科　脳神経外科　眼科　皮膚科　リハビリ科　放射線診断科　麻酔科"},{"id":"medical-2-14749","name":"昭和通り内科診療所","categoryId":"medical","categoryLabel":"医疗","lat":35.609181,"lng":139.707765,"stationId":"station-004181","note":"内科　小児科　心療内科　皮膚科"},{"id":"medical-3-15564","name":"杉原歯科医院","categoryId":"medical","categoryLabel":"医疗","lat":35.616461,"lng":139.711053,"stationId":"station-004155","note":"歯科　小児歯科"},{"id":"medical-3-4758","name":"杏林堂歯科医院","categoryId":"medical","categoryLabel":"医疗","lat":35.612764,"lng":139.713648,"stationId":"station-004161","note":"歯科　小児歯科　矯正歯科　歯科口腔外科"},{"id":"medical-2-16647","name":"村井こどもクリニック","categoryId":"medical","categoryLabel":"医疗","lat":35.60318,"lng":139.706667,"stationId":"station-004225","note":"内科　小児科"},{"id":"medical-3-18088","name":"東京サザンガーデンさいとう歯科","categoryId":"medical","categoryLabel":"医疗","lat":35.624328,"lng":139.727336,"stationId":"station-004117","note":"歯科　矯正歯科　小児歯科　歯科口腔外科"},{"id":"medical-3-18176","name":"東京口腔研クリニック","categoryId":"medical","categoryLabel":"医疗","lat":35.602706,"lng":139.697159,"stationId":"station-004232","note":"歯科"},{"id":"medical-3-18047","name":"東海林歯科医院","categoryId":"medical","categoryLabel":"医疗","lat":35.621342,"lng":139.705682,"stationId":"station-004133","note":"歯科　矯正歯科　小児歯科　歯科口腔外科"},{"id":"medical-2-14765","name":"松井律東診療所","categoryId":"medical","categoryLabel":"医疗","lat":35.62289,"lng":139.698289,"stationId":"station-004133","note":"内科"},{"id":"medical-3-14760","name":"松井歯科医院","categoryId":"medical","categoryLabel":"医疗","lat":35.617006,"lng":139.69554,"stationId":"station-004157","note":"歯科"},{"id":"medical-2-14762","name":"松井診療所","categoryId":"medical","categoryLabel":"医疗","lat":35.62308,"lng":139.698076,"stationId":"station-004133","note":"内科"},{"id":"medical-3-14859","name":"松本歯科医院","categoryId":"medical","categoryLabel":"医疗","lat":35.602786,"lng":139.709456,"stationId":"station-004225","note":"歯科"},{"id":"medical-3-14860","name":"松本歯科医院","categoryId":"medical","categoryLabel":"医疗","lat":35.614766,"lng":139.718838,"stationId":"station-004161","note":"歯科　矯正歯科　小児歯科　歯科口腔外科"},{"id":"medical-2-14774","name":"松永クリニツク","categoryId":"medical","categoryLabel":"医疗","lat":35.602897,"lng":139.708097,"stationId":"station-004225","note":"内科　呼吸器科　循環器科　リハビリテーション科"},{"id":"medical-3-20567","name":"林歯科医院","categoryId":"medical","categoryLabel":"医疗","lat":35.614607,"lng":139.717725,"stationId":"station-004161","note":"歯科　矯正歯科"},{"id":"medical-3-11327","name":"柿崎歯科医院","categoryId":"medical","categoryLabel":"医疗","lat":35.603976,"lng":139.704078,"stationId":"station-004221","note":"歯科"},{"id":"medical-2-11419","name":"株式会社ニコン大井製作所健康支援室","categoryId":"medical","categoryLabel":"医疗","lat":35.602167,"lng":139.725166,"stationId":"station-004235","note":"内科　眼科"},{"id":"medical-2-11446","name":"株式会社日本総合研究所　健康管理室","categoryId":"medical","categoryLabel":"医疗","lat":35.624326,"lng":139.72956,"stationId":"station-004136","note":"内科　精神科"},{"id":"medical-2-11454","name":"株式会社明電舎　健康管理室","categoryId":"medical","categoryLabel":"医疗","lat":35.618388,"lng":139.72755,"stationId":"station-004136","note":"内科"},{"id":"medical-3-12326","name":"桑名歯科医院","categoryId":"medical","categoryLabel":"医疗","lat":35.611023,"lng":139.695203,"stationId":"station-004180","note":"歯科"},{"id":"medical-3-12320","name":"桑鶴歯科医院","categoryId":"medical","categoryLabel":"医疗","lat":35.616129,"lng":139.711926,"stationId":"station-004155","note":"歯科"},{"id":"medical-3-19005","name":"梅宮歯科医院","categoryId":"medical","categoryLabel":"医疗","lat":35.615779,"lng":139.715258,"stationId":"station-004155","note":"歯科　矯正歯科　小児歯科　歯科口腔外科"},{"id":"medical-2-10970","name":"横田整形外科","categoryId":"medical","categoryLabel":"医疗","lat":35.615383,"lng":139.699246,"stationId":"station-004157","note":"整形外科　リハビリテーション科"},{"id":"medical-2-19542","name":"武蔵小山　山内耳鼻咽喉科","categoryId":"medical","categoryLabel":"医疗","lat":35.618358,"lng":139.703073,"stationId":"station-004133","note":"耳鼻咽喉科　アレルギー科"},{"id":"medical-3-19543","name":"武蔵小山エムケー歯科クリニック","categoryId":"medical","categoryLabel":"医疗","lat":35.621427,"lng":139.705289,"stationId":"station-004133","note":"歯科　矯正歯科　小児歯科　歯科口腔外科"},{"id":"medical-2-19544","name":"武蔵小山メンタルクリニック","categoryId":"medical","categoryLabel":"医疗","lat":35.619786,"lng":139.703977,"stationId":"station-004133","note":"内科　精神科　神経科　心療内科"},{"id":"medical-2-19546","name":"武蔵小山腎泌尿器クリニック","categoryId":"medical","categoryLabel":"医疗","lat":35.619207,"lng":139.702815,"stationId":"station-004133","note":"泌尿器科　腎臓内科　内科"},{"id":"medical-2-19545","name":"武蔵小山駅前ままた内科クリニック","categoryId":"medical","categoryLabel":"医疗","lat":35.619829,"lng":139.703318,"stationId":"station-004133","note":"内科　消化器内科　肝臓内科"},{"id":"medical-2-19572","name":"武藤医院","categoryId":"medical","categoryLabel":"医疗","lat":35.611063,"lng":139.71032,"stationId":"station-004181","note":"内科　循環器科"},{"id":"medical-2-19573","name":"武藤医院","categoryId":"medical","categoryLabel":"医疗","lat":35.615831,"lng":139.699877,"stationId":"station-004157","note":"内科　消化器科　放射線科　麻酔科"},{"id":"medical-3-13879","name":"歯科依田医院","categoryId":"medical","categoryLabel":"医疗","lat":35.608378,"lng":139.717894,"stationId":"station-004186","note":"歯科　矯正歯科　小児歯科"},{"id":"medical-3-13906","name":"歯科滝沢医院","categoryId":"medical","categoryLabel":"医疗","lat":35.61173,"lng":139.725461,"stationId":"station-004188","note":"歯科　小児歯科　歯科口腔外科"},{"id":"medical-2-15542","name":"水野整形外科","categoryId":"medical","categoryLabel":"医疗","lat":35.614341,"lng":139.722004,"stationId":"station-004161","note":"内科　リウマチ科　整形外科　リハビリテーション科"},{"id":"medical-3-10826","name":"永井歯科","categoryId":"medical","categoryLabel":"医疗","lat":35.623383,"lng":139.7211,"stationId":"station-004127","note":"歯科　矯正歯科　小児歯科"},{"id":"medical-3-10830","name":"永井歯科医院","categoryId":"medical","categoryLabel":"医疗","lat":35.609926,"lng":139.695218,"stationId":"station-004180","note":"歯科　矯正歯科　小児歯科　歯科口腔外科"},{"id":"medical-2-12764","name":"江クリニック　歯科　産婦人科　内科","categoryId":"medical","categoryLabel":"医疗","lat":35.622165,"lng":139.72458,"stationId":"station-004127","note":"内科　産婦人科　歯科　矯正歯科　小児歯科　歯科口腔外科"},{"id":"medical-3-11237","name":"河辺歯科医院","categoryId":"medical","categoryLabel":"医疗","lat":35.618759,"lng":139.726104,"stationId":"station-004136","note":"歯科"},{"id":"medical-3-16459","name":"洗足マスオ歯科医院","categoryId":"medical","categoryLabel":"医疗","lat":35.610406,"lng":139.695011,"stationId":"station-004180","note":"歯科　小児歯科　歯科口腔外科"},{"id":"medical-3-15745","name":"清水坂歯科医院","categoryId":"medical","categoryLabel":"医疗","lat":35.614492,"lng":139.718153,"stationId":"station-004161","note":"歯科　矯正歯科　小児歯科"},{"id":"medical-3-15748","name":"清水歯科医院","categoryId":"medical","categoryLabel":"医疗","lat":35.608844,"lng":139.719999,"stationId":"station-004186","note":"歯科　歯科口腔外科"},{"id":"medical-2-15768","name":"清田クリニック","categoryId":"medical","categoryLabel":"医疗","lat":35.614911,"lng":139.699021,"stationId":"station-004157","note":"内科　産婦人科　麻酔科"},{"id":"medical-3-17928","name":"渡辺歯科医院","categoryId":"medical","categoryLabel":"医疗","lat":35.603751,"lng":139.70685,"stationId":"station-004225","note":"歯科　矯正歯科　小児歯科　歯科口腔外科"},{"id":"medical-2-18428","name":"湯田医院","categoryId":"medical","categoryLabel":"医疗","lat":35.611235,"lng":139.710522,"stationId":"station-004181","note":"眼科　耳鼻咽喉科"},{"id":"medical-2-12496","name":"源明クリニック","categoryId":"medical","categoryLabel":"医疗","lat":35.603045,"lng":139.718792,"stationId":"station-004235","note":"内科　消化器科　外科　整形外科　泌尿器科　リハビリテーション科"},{"id":"medical-2-15651","name":"瀬底皮膚科クリニック","categoryId":"medical","categoryLabel":"医疗","lat":35.60438,"lng":139.703548,"stationId":"station-004221","note":"皮膚科"},{"id":"medical-3-19763","name":"片平歯科医院","categoryId":"medical","categoryLabel":"医疗","lat":35.615595,"lng":139.696846,"stationId":"station-004157","note":"歯科　矯正歯科　小児歯科　歯科口腔外科"},{"id":"medical-2-17793","name":"田中クリニック","categoryId":"medical","categoryLabel":"医疗","lat":35.607078,"lng":139.704537,"stationId":"station-004221","note":"内科　小児科　精神科　整形外科　皮膚科　リハビリテーション科"},{"id":"medical-2-17847","name":"田中整形外科","categoryId":"medical","categoryLabel":"医疗","lat":35.601066,"lng":139.69933,"stationId":"station-004232","note":"耳鼻咽喉科"},{"id":"medical-2-17878","name":"田辺小児科医院","categoryId":"medical","categoryLabel":"医疗","lat":35.605825,"lng":139.697456,"stationId":"station-004212","note":"小児科"},{"id":"medical-3-20446","name":"由井歯科","categoryId":"medical","categoryLabel":"医疗","lat":35.607007,"lng":139.72957,"stationId":"station-004188","note":"歯科口腔外科　歯科　矯正歯科　小児歯科"},{"id":"medical-2-19039","name":"白井クリニック","categoryId":"medical","categoryLabel":"医疗","lat":35.604357,"lng":139.726645,"stationId":"station-004188","note":"内科　循環器科　小児科　神経内科"},{"id":"medical-2-19045","name":"白岩皮膚科医院","categoryId":"medical","categoryLabel":"医疗","lat":35.618358,"lng":139.703073,"stationId":"station-004133","note":"皮膚科"},{"id":"medical-3-19087","name":"白田歯科クリニック","categoryId":"medical","categoryLabel":"医疗","lat":35.615626,"lng":139.714021,"stationId":"station-004155","note":"歯科　矯正歯科"},{"id":"medical-3-11308","name":"皆川歯科医院","categoryId":"medical","categoryLabel":"医疗","lat":35.606354,"lng":139.726942,"stationId":"station-004188","note":"歯科　小児歯科"},{"id":"medical-3-20231","name":"目黒本町歯科医院","categoryId":"medical","categoryLabel":"医疗","lat":35.618887,"lng":139.697348,"stationId":"station-004157","note":"歯科　小児歯科　歯科口腔外科　矯正歯科"},{"id":"medical-2-20230","name":"目黒本町眼科","categoryId":"medical","categoryLabel":"医疗","lat":35.621994,"lng":139.69738,"stationId":"station-004133","note":"眼科"},{"id":"medical-3-16590","name":"相馬歯科室","categoryId":"medical","categoryLabel":"医疗","lat":35.600003,"lng":139.728091,"stationId":"station-004235","note":"歯科　矯正歯科　小児歯科　歯科口腔外科"},{"id":"medical-2-11574","name":"眼科西大井クリニック","categoryId":"medical","categoryLabel":"医疗","lat":35.600866,"lng":139.722422,"stationId":"station-004235","note":"眼科"},{"id":"medical-3-20368","name":"矢部歯科医院","categoryId":"medical","categoryLabel":"医疗","lat":35.60897,"lng":139.726314,"stationId":"station-004188","note":"歯科　小児歯科"},{"id":"medical-3-17171","name":"知野歯科医院","categoryId":"medical","categoryLabel":"医疗","lat":35.614756,"lng":139.69688,"stationId":"station-004157","note":"歯科"},{"id":"medical-3-16137","name":"石川歯科","categoryId":"medical","categoryLabel":"医疗","lat":35.60581,"lng":139.713286,"stationId":"station-004215","note":"歯科"},{"id":"medical-2-14076","name":"社会医療法人財団城南福祉医療協会　三ツ木診療所","categoryId":"medical","categoryLabel":"医疗","lat":35.613775,"lng":139.726725,"stationId":"station-004188","note":"内科　小児科　精神科　整形外科　歯科　小児歯科"},{"id":"medical-2-14167","name":"社会福祉法人三徳会　附属診療所","categoryId":"medical","categoryLabel":"医疗","lat":35.612117,"lng":139.711849,"stationId":"station-004181","note":"内科"},{"id":"medical-2-14178","name":"社会福祉法人清徳会特別養護老人ホーム清徳苑医務室","categoryId":"medical","categoryLabel":"医疗","lat":35.62289,"lng":139.698289,"stationId":"station-004133","note":"内科"},{"id":"medical-3-19738","name":"米山歯科","categoryId":"medical","categoryLabel":"医疗","lat":35.620186,"lng":139.70339,"stationId":"station-004133","note":"歯科　矯正歯科　小児歯科"},{"id":"medical-3-19744","name":"米田歯科医院","categoryId":"medical","categoryLabel":"医疗","lat":35.619408,"lng":139.702071,"stationId":"station-004133","note":"歯科　矯正歯科　小児歯科"},{"id":"medical-3-19315","name":"美馬歯科医院","categoryId":"medical","categoryLabel":"医疗","lat":35.602109,"lng":139.718415,"stationId":"station-004235","note":"歯科　小児歯科"},{"id":"medical-2-10800","name":"羽尾皮フ科クリニック","categoryId":"medical","categoryLabel":"医疗","lat":35.603564,"lng":139.707896,"stationId":"station-004225","note":"皮膚科　美容皮膚科"},{"id":"medical-2-13965","name":"耳鼻咽喉科 光吉医院","categoryId":"medical","categoryLabel":"医疗","lat":35.602115,"lng":139.696506,"stationId":"station-004232","note":"内科　呼吸器内科　循環器内科"},{"id":"medical-2-13976","name":"耳鼻咽喉科気管食道科古屋医院","categoryId":"medical","categoryLabel":"医疗","lat":35.605398,"lng":139.729656,"stationId":"station-004188","note":"アレルギー科　耳鼻咽喉科　気管食道科"},{"id":"medical-3-16474","name":"船登歯科医院","categoryId":"medical","categoryLabel":"医疗","lat":35.614177,"lng":139.720773,"stationId":"station-004161","note":"歯科　小児歯科"},{"id":"medical-3-10816","name":"荏原グランアート歯科医院","categoryId":"medical","categoryLabel":"医疗","lat":35.61245,"lng":139.699531,"stationId":"station-004157","note":"歯科　矯正歯科　小児歯科"},{"id":"medical-3-10817","name":"荏原ホームケアデンタルオフィス","categoryId":"medical","categoryLabel":"医疗","lat":35.610656,"lng":139.715218,"stationId":"station-004181","note":"歯科"},{"id":"medical-3-10820","name":"荏原中延ファミリー歯科","categoryId":"medical","categoryLabel":"医疗","lat":35.610057,"lng":139.711529,"stationId":"station-004181","note":"歯科　矯正歯科　小児歯科　歯科口腔外科"},{"id":"medical-2-10818","name":"荏原健診クリニック","categoryId":"medical","categoryLabel":"医疗","lat":35.617334,"lng":139.712349,"stationId":"station-004155","note":"内科　内視鏡内科　放射線科"},{"id":"medical-2-10821","name":"荏原内科・外科クリニック","categoryId":"medical","categoryLabel":"医疗","lat":35.617334,"lng":139.712349,"stationId":"station-004155","note":"内科　外科　肛門外科　肝臓内科　胃腸内科　内視鏡内科　内視鏡外科"},{"id":"medical-3-10819","name":"荏原歯科医師会　歯科診療所","categoryId":"medical","categoryLabel":"医疗","lat":35.612599,"lng":139.711503,"stationId":"station-004181","note":"歯科"},{"id":"medical-3-12868","name":"荒川歯科医院","categoryId":"medical","categoryLabel":"医疗","lat":35.602839,"lng":139.696751,"stationId":"station-004232","note":"歯科　矯正歯科　小児歯科　歯科口腔外科"},{"id":"medical-3-15605","name":"菅家医院歯科","categoryId":"medical","categoryLabel":"医疗","lat":35.611661,"lng":139.728902,"stationId":"station-004188","note":"歯科"},{"id":"medical-3-18447","name":"藤井歯科医院","categoryId":"medical","categoryLabel":"医疗","lat":35.619675,"lng":139.72951,"stationId":"station-004136","note":"歯科"},{"id":"medical-3-18483","name":"藤田歯科クリニック","categoryId":"medical","categoryLabel":"医疗","lat":35.616656,"lng":139.72439,"stationId":"station-004136","note":"歯科　矯正歯科　小児歯科"},{"id":"medical-3-14209","name":"蛇窪歯科","categoryId":"medical","categoryLabel":"医疗","lat":35.604975,"lng":139.726021,"stationId":"station-004188","note":"歯科　矯正歯科　小児歯科"},{"id":"medical-2-15909","name":"西大井内科","categoryId":"medical","categoryLabel":"医疗","lat":35.6021,"lng":139.722418,"stationId":"station-004235","note":"内科　消化器内科　内視鏡内科"},{"id":"medical-2-15910","name":"西大井皮膚科","categoryId":"medical","categoryLabel":"医疗","lat":35.600792,"lng":139.721536,"stationId":"station-004235","note":"皮膚科"},{"id":"medical-2-15908","name":"西大井駅前眼科","categoryId":"medical","categoryLabel":"医疗","lat":35.6021,"lng":139.722418,"stationId":"station-004235","note":"眼科"},{"id":"medical-3-15844","name":"西小山オーラルクリニック","categoryId":"medical","categoryLabel":"医疗","lat":35.614679,"lng":139.697894,"stationId":"station-004157","note":"歯科　歯科口腔外科"},{"id":"medical-2-15845","name":"西小山クリニック","categoryId":"medical","categoryLabel":"医疗","lat":35.616044,"lng":139.697493,"stationId":"station-004157","note":"内科　小児科　アレルギー科　皮膚科"},{"id":"medical-3-15846","name":"西小山歯科クリニック","categoryId":"medical","categoryLabel":"医疗","lat":35.614129,"lng":139.699634,"stationId":"station-004157","note":"歯科　矯正歯科　小児歯科　歯科口腔外科"},{"id":"medical-2-15848","name":"西小山皮膚科","categoryId":"medical","categoryLabel":"医疗","lat":35.615527,"lng":139.698951,"stationId":"station-004157","note":"皮膚科"},{"id":"medical-2-15847","name":"西小山診療所","categoryId":"medical","categoryLabel":"医疗","lat":35.618408,"lng":139.696943,"stationId":"station-004157","note":"内科"},{"id":"medical-2-15879","name":"西川医院","categoryId":"medical","categoryLabel":"医疗","lat":35.604204,"lng":139.704535,"stationId":"station-004221","note":"内科　消化器科　放射線科"},{"id":"medical-3-15964","name":"西連寺歯科医院","categoryId":"medical","categoryLabel":"医疗","lat":35.604784,"lng":139.70485,"stationId":"station-004221","note":"歯科"},{"id":"medical-3-15462","name":"辛島歯科医院","categoryId":"medical","categoryLabel":"医疗","lat":35.617396,"lng":139.702213,"stationId":"station-004157","note":"歯科"},{"id":"medical-3-14251","name":"酒井歯科医院","categoryId":"medical","categoryLabel":"医疗","lat":35.623635,"lng":139.69999,"stationId":"station-004133","note":"歯科　矯正歯科　小児歯科"},{"id":"medical-2-20277","name":"野口クリニック","categoryId":"medical","categoryLabel":"医疗","lat":35.617119,"lng":139.696355,"stationId":"station-004157","note":"内科　神経内科"},{"id":"medical-2-20325","name":"野平医院","categoryId":"medical","categoryLabel":"医疗","lat":35.606456,"lng":139.708741,"stationId":"station-004225","note":"内科　婦人科　耳鼻咽喉科"},{"id":"medical-3-20616","name":"鈴木歯科クリニック","categoryId":"medical","categoryLabel":"医疗","lat":35.605548,"lng":139.715655,"stationId":"station-004215","note":"歯科　矯正歯科"},{"id":"medical-3-14929","name":"鐘ヶ江歯科医院","categoryId":"medical","categoryLabel":"医疗","lat":35.621802,"lng":139.699568,"stationId":"station-004133","note":"歯科"},{"id":"medical-3-11497","name":"関デンタルクリニック","categoryId":"medical","categoryLabel":"医疗","lat":35.618144,"lng":139.704778,"stationId":"station-004133","note":"小児歯科　歯科"},{"id":"medical-3-11510","name":"関歯科医院","categoryId":"medical","categoryLabel":"医疗","lat":35.607294,"lng":139.711635,"stationId":"station-004215","note":"歯科"},{"id":"medical-3-4665","name":"阿南歯科医院","categoryId":"medical","categoryLabel":"医疗","lat":35.622395,"lng":139.72276,"stationId":"station-004127","note":"歯科"},{"id":"medical-3-20489","name":"陽光歯科クリニック","categoryId":"medical","categoryLabel":"医疗","lat":35.62275,"lng":139.722602,"stationId":"station-004127","note":"歯科"},{"id":"medical-3-16029","name":"青木歯科医院","categoryId":"medical","categoryLabel":"医疗","lat":35.602836,"lng":139.712784,"stationId":"station-004215","note":"歯科　矯正歯科　小児歯科"},{"id":"medical-3-16040","name":"青柳歯科","categoryId":"medical","categoryLabel":"医疗","lat":35.619382,"lng":139.703304,"stationId":"station-004133","note":"歯科　矯正歯科　小児歯科　歯科口腔外科"},{"id":"medical-3-19250","name":"飯島歯科医院","categoryId":"medical","categoryLabel":"医疗","lat":35.621257,"lng":139.702082,"stationId":"station-004133","note":"歯科"},{"id":"medical-3-12891","name":"香谷歯科医院","categoryId":"medical","categoryLabel":"医疗","lat":35.600878,"lng":139.712267,"stationId":"station-004248","note":"歯科　矯正歯科　小児歯科"},{"id":"medical-3-18992","name":"馬場歯科医院","categoryId":"medical","categoryLabel":"医疗","lat":35.615682,"lng":139.699086,"stationId":"station-004157","note":"歯科　矯正歯科　小児歯科　歯科口腔外科"},{"id":"medical-2-12963","name":"高山クリニック","categoryId":"medical","categoryLabel":"医疗","lat":35.603312,"lng":139.709408,"stationId":"station-004225","note":"内科　胃腸科"},{"id":"medical-2-12961","name":"高崎医院","categoryId":"medical","categoryLabel":"医疗","lat":35.620415,"lng":139.697339,"stationId":"station-004157","note":"産科　婦人科"},{"id":"medical-3-12935","name":"高橋歯科医院","categoryId":"medical","categoryLabel":"医疗","lat":35.619964,"lng":139.706227,"stationId":"station-004133","note":"歯科"},{"id":"medical-3-20857","name":"髙﨑歯科","categoryId":"medical","categoryLabel":"医疗","lat":35.621956,"lng":139.725059,"stationId":"station-004127","note":"歯科"},{"id":"medical-2-19092","name":"麦谷眼科医院","categoryId":"medical","categoryLabel":"医疗","lat":35.610136,"lng":139.716139,"stationId":"station-004186","note":"眼科"},{"id":"medical-2-13110","name":"黒須医院","categoryId":"medical","categoryLabel":"医疗","lat":35.61795,"lng":139.707056,"stationId":"station-004133","note":"内科　小児科　外科　眼科　放射線科　麻酔科"},{"id":"medical-3-20532","name":"龍歯科医院","categoryId":"medical","categoryLabel":"医疗","lat":35.622953,"lng":139.721076,"stationId":"station-004127","note":"歯科"},{"id":"medical-2-104","name":"ＡＩＢＩクリニック","categoryId":"medical","categoryLabel":"医疗","lat":35.623664,"lng":139.722224,"stationId":"station-004127","note":"内科　呼吸器科　消化器科　循環器科　アレルギー科"},{"id":"medical-2-116","name":"ＡＬＯＨＡ外科クリニック","categoryId":"medical","categoryLabel":"医疗","lat":35.624782,"lng":139.711016,"stationId":"station-004114","note":"外科　消化器外科　緩和ケア外科"},{"id":"medical-3-126","name":"Ｂｃデンタルオフィス","categoryId":"medical","categoryLabel":"医疗","lat":35.603921,"lng":139.729734,"stationId":"station-004193","note":"歯科　小児歯科　矯正歯科　歯科口腔外科"},{"id":"medical-3-218","name":"Ｊデンタルクリニック","categoryId":"medical","categoryLabel":"医疗","lat":35.601145,"lng":139.7221,"stationId":"station-004235","note":"歯科　矯正歯科　小児歯科　歯科口腔外科"},{"id":"medical-3-216","name":"ＪＵＮデンタルクリニック","categoryId":"medical","categoryLabel":"医疗","lat":35.62298,"lng":139.698933,"stationId":"station-004133","note":"歯科　矯正歯科　小児歯科　歯科口腔外科"},{"id":"medical-3-245","name":"Ｋ歯科クリニック","categoryId":"medical","categoryLabel":"医疗","lat":35.613692,"lng":139.728245,"stationId":"station-004188","note":"歯科　小児歯科　矯正歯科　歯科口腔外科"},{"id":"medical-3-333","name":"ＳＲデンタルクリニック","categoryId":"medical","categoryLabel":"医疗","lat":35.616944,"lng":139.72962,"stationId":"station-004136","note":"歯科　矯正歯科　小児歯科　歯科口腔外科"},{"id":"medical-2-354","name":"ＴｈｉｎｋＰａｒｋハートクリニック","categoryId":"medical","categoryLabel":"医疗","lat":35.618388,"lng":139.72755,"stationId":"station-004136","note":"循環器内科　内科　呼吸器内科　外科　心臓血管外科"},{"id":"medical-2-355","name":"ＴｈｉｎｋＰａｒｋ消化器クリニック","categoryId":"medical","categoryLabel":"医疗","lat":35.618388,"lng":139.72755,"stationId":"station-004136","note":"内科　消化器科　小児科　リウマチ科　整形外科"},{"id":"medical-2-356","name":"ＴｈｉｎｋＰａｒｋ皮膚科クリニック","categoryId":"medical","categoryLabel":"医疗","lat":35.618388,"lng":139.72755,"stationId":"station-004136","note":"アレルギー科　皮膚科"},{"id":"public-13109-21354","name":"ゆたかシルバーセンター","categoryId":"public_service","categoryLabel":"公共服务","lat":35.608334,"lng":139.719612,"stationId":"station-004186","note":"品川区豊町3-2-15"},{"id":"public-13109-21277","name":"ゆたか児童センター","categoryId":"public_service","categoryLabel":"公共服务","lat":35.611555,"lng":139.722756,"stationId":"station-004188","note":"品川区豊町1-18-15"},{"id":"public-13109-21284","name":"一本橋児童センター","categoryId":"public_service","categoryLabel":"公共服务","lat":35.604711,"lng":139.729588,"stationId":"station-004193","note":"品川区大井2-25-1"},{"id":"public-13109-21304","name":"三ツ木児童センター","categoryId":"public_service","categoryLabel":"公共服务","lat":35.613967,"lng":139.72626,"stationId":"station-004188","note":"品川区西品川2-6-13"},{"id":"public-13109-21324","name":"中原児童センター","categoryId":"public_service","categoryLabel":"公共服务","lat":35.622131,"lng":139.71258,"stationId":"station-004114","note":"品川区小山1-4-1"},{"id":"public-13109-21323","name":"中延児童センター","categoryId":"public_service","categoryLabel":"公共服务","lat":35.612361,"lng":139.708467,"stationId":"station-004181","note":"品川区西中延1-6-16"},{"id":"public-13109-21322","name":"五反田シルバーセンター","categoryId":"public_service","categoryLabel":"公共服务","lat":35.621933,"lng":139.729444,"stationId":"station-004136","note":"品川区東五反田2-15-6"},{"id":"public-13109-21299","name":"五反田文化センター","categoryId":"public_service","categoryLabel":"公共服务","lat":35.622655,"lng":139.716645,"stationId":"station-004114","note":"品川区西五反田6-5-1"},{"id":"public-13109-21281","name":"伊藤児童センター","categoryId":"public_service","categoryLabel":"公共服务","lat":35.600733,"lng":139.717558,"stationId":"station-004235","note":"品川区西大井6-13-1"},{"id":"public-13109-21352","name":"冨士見台児童センター","categoryId":"public_service","categoryLabel":"公共服务","lat":35.601399,"lng":139.714307,"stationId":"station-004215","note":"品川区西大井6-1-8"},{"id":"public-13109-21338","name":"南ゆたか児童センター","categoryId":"public_service","categoryLabel":"公共服务","lat":35.606509,"lng":139.720926,"stationId":"station-004186","note":"品川区豊町4-17-21"},{"id":"public-13110-21429","name":"向原住区センター","categoryId":"public_service","categoryLabel":"公共服务","lat":35.618718,"lng":139.698625,"stationId":"station-004157","note":"目黒区目黒本町5-22-11"},{"id":"public-13110-21384","name":"向原老人いこいの家","categoryId":"public_service","categoryLabel":"公共服务","lat":35.618721,"lng":139.698605,"stationId":"station-004157","note":"目黒区目黒本町5-22-11向原住区センター内"},{"id":"public-13109-21313","name":"大原児童センター","categoryId":"public_service","categoryLabel":"公共服务","lat":35.607332,"lng":139.715397,"stationId":"station-004215","note":"品川区戸越6-16-1"},{"id":"public-13109-21315","name":"大崎ゆうゆうプラザ","categoryId":"public_service","categoryLabel":"公共服务","lat":35.61672,"lng":139.725914,"stationId":"station-004136","note":"品川区大崎2-7-13"},{"id":"public-13109-21316","name":"大崎第二区民集会所","categoryId":"public_service","categoryLabel":"公共服务","lat":35.616689,"lng":139.728326,"stationId":"station-004136","note":"品川区大崎2-9-4"},{"id":"public-13109-21317","name":"大崎第二地域センター","categoryId":"public_service","categoryLabel":"公共服务","lat":35.616804,"lng":139.727061,"stationId":"station-004136","note":"品川区大崎2-9-4"},{"id":"public-13109-21293","name":"小山シルバーセンター","categoryId":"public_service","categoryLabel":"公共服务","lat":35.614836,"lng":139.701444,"stationId":"station-004157","note":"品川区小山5-17-18"},{"id":"public-13109-21350","name":"平塚ゆうゆうプラザ","categoryId":"public_service","categoryLabel":"公共服务","lat":35.616914,"lng":139.713965,"stationId":"station-004155","note":"品川区平塚2-10-20"},{"id":"public-13109-21355","name":"平塚児童センター","categoryId":"public_service","categoryLabel":"公共服务","lat":35.61879,"lng":139.717412,"stationId":"station-004155","note":"品川区平塚2-2-3"},{"id":"public-13109-21306","name":"平塚橋ゆうゆうプラザ","categoryId":"public_service","categoryLabel":"公共服务","lat":35.6144,"lng":139.709968,"stationId":"station-004155","note":"品川区西中延1-2-8"},{"id":"public-13109-21288","name":"後地シルバーセンター","categoryId":"public_service","categoryLabel":"公共服务","lat":35.620533,"lng":139.70921,"stationId":"station-004133","note":"品川区小山2-9-19"},{"id":"public-13109-21303","name":"後地児童センター","categoryId":"public_service","categoryLabel":"公共服务","lat":35.620548,"lng":139.709145,"stationId":"station-004133","note":"品川区小山2-9-19"},{"id":"public-13109-21282","name":"旗の台シルバーセンター","categoryId":"public_service","categoryLabel":"公共服务","lat":35.602584,"lng":139.704672,"stationId":"station-004225","note":"品川区旗の台4-13-1"},{"id":"public-13109-21295","name":"旗の台児童センター","categoryId":"public_service","categoryLabel":"公共服务","lat":35.603767,"lng":139.700419,"stationId":"station-004221","note":"品川区旗の台5-19-5旗の台文化センター"},{"id":"public-13109-21283","name":"旗の台文化センター","categoryId":"public_service","categoryLabel":"公共服务","lat":35.603756,"lng":139.700456,"stationId":"station-004221","note":"品川区旗の台5-19-5"},{"id":"public-13109-21331","name":"東中延児童センター","categoryId":"public_service","categoryLabel":"公共服务","lat":35.607871,"lng":139.71386,"stationId":"station-004215","note":"品川区東中延2-5-10"},{"id":"public-13109-21292","name":"武蔵小山サービスコーナー","categoryId":"public_service","categoryLabel":"公共服务","lat":35.619745,"lng":139.703324,"stationId":"station-004133","note":"品川区小山3-27-5"},{"id":"public-13109-21285","name":"荏原健康センター","categoryId":"public_service","categoryLabel":"公共服务","lat":35.617212,"lng":139.71143,"stationId":"station-004155","note":"品川区荏原2-9-6荏原複合施設"},{"id":"public-13109-21278","name":"荏原区民センター","categoryId":"public_service","categoryLabel":"公共服务","lat":35.614522,"lng":139.702155,"stationId":"station-004157","note":"品川区荏原5-6-5"},{"id":"public-13109-21291","name":"荏原平塚総合区民会館スクエア荏原","categoryId":"public_service","categoryLabel":"公共服务","lat":35.615312,"lng":139.707464,"stationId":"station-004133","note":"品川区荏原4-5-28"},{"id":"public-13109-21318","name":"荏原文化センター","categoryId":"public_service","categoryLabel":"公共服务","lat":35.612164,"lng":139.710549,"stationId":"station-004181","note":"品川区中延1-9-15"},{"id":"public-13109-21290","name":"荏原第一区民集会所","categoryId":"public_service","categoryLabel":"公共服务","lat":35.620983,"lng":139.705809,"stationId":"station-004133","note":"品川区小山3-14-1"},{"id":"public-13109-21289","name":"荏原第一地域センター","categoryId":"public_service","categoryLabel":"公共服务","lat":35.620707,"lng":139.70573,"stationId":"station-004133","note":"品川区小山3-14-1"},{"id":"public-13109-21349","name":"荏原第三区民集会所","categoryId":"public_service","categoryLabel":"公共服务","lat":35.613364,"lng":139.715421,"stationId":"station-004161","note":"品川区平塚1-13-18"},{"id":"public-13109-21348","name":"荏原第三地域センター","categoryId":"public_service","categoryLabel":"公共服务","lat":35.613323,"lng":139.715376,"stationId":"station-004161","note":"品川区平塚1-13-18"},{"id":"public-13109-21280","name":"荏原第二区民集会所","categoryId":"public_service","categoryLabel":"公共服务","lat":35.611103,"lng":139.704322,"stationId":"station-004221","note":"品川区荏原6-17-12"},{"id":"public-13109-21279","name":"荏原第二地域センター","categoryId":"public_service","categoryLabel":"公共服务","lat":35.611103,"lng":139.704342,"stationId":"station-004221","note":"品川区荏原6-17-12"},{"id":"public-13109-21343","name":"荏原第五区民集会所","categoryId":"public_service","categoryLabel":"公共服务","lat":35.608195,"lng":139.725749,"stationId":"station-004188","note":"品川区二葉1-1-2"},{"id":"public-13109-21342","name":"荏原第五地域センター","categoryId":"public_service","categoryLabel":"公共服务","lat":35.608282,"lng":139.725717,"stationId":"station-004188","note":"品川区二葉1-1-2"},{"id":"public-13109-21320","name":"荏原第四区民集会所","categoryId":"public_service","categoryLabel":"公共服务","lat":35.60374,"lng":139.708361,"stationId":"station-004225","note":"品川区中延5-3-12"},{"id":"public-13109-21319","name":"荏原第四地域センター","categoryId":"public_service","categoryLabel":"公共服务","lat":35.603824,"lng":139.708436,"stationId":"station-004225","note":"品川区中延5-3-12"},{"id":"public-13109-21308","name":"西中延児童センター","categoryId":"public_service","categoryLabel":"公共服务","lat":35.60731,"lng":139.708176,"stationId":"station-004225","note":"品川区西中延3-8-5"},{"id":"public-13110-21432","name":"中央体育館・武道場","categoryId":"sports","categoryLabel":"体育设施","lat":35.618999,"lng":139.69891,"stationId":"station-004157","note":"目黒本町5-22-8"},{"id":"public-13109-21353","name":"戸越体育館","categoryId":"sports","categoryLabel":"体育设施","lat":35.610839,"lng":139.720592,"stationId":"station-004186","note":"品川区豊町2-1-17"},{"id":"public-13109-21321","name":"総合体育館","categoryId":"sports","categoryLabel":"体育设施","lat":35.624544,"lng":139.728311,"stationId":"station-004117","note":"品川区東五反田2-11-2"}]
