[{"id":"public-13103-20955","name":"赤坂図書館","categoryId":"library","categoryLabel":"图书馆","lat":35.671591,"lng":139.725287,"stationId":"station-003817","note":"港区南青山1-3-3"},{"id":"medical-2-511","name":"あおばクリニック渋谷院","categoryId":"medical","categoryLabel":"医疗","lat":35.659304,"lng":139.699928,"stationId":"shibuya","note":"眼科　美容皮膚科"},{"id":"medical-3-572","name":"あけぼの歯科医院","categoryId":"medical","categoryLabel":"医疗","lat":35.65651,"lng":139.701356,"stationId":"shibuya","note":"歯科"},{"id":"medical-3-587","name":"あさか歯科医院","categoryId":"medical","categoryLabel":"医疗","lat":35.665196,"lng":139.712957,"stationId":"station-003885","note":"歯科　矯正歯科　小児歯科"},{"id":"medical-2-722","name":"あらいかずえクリニック","categoryId":"medical","categoryLabel":"医疗","lat":35.660547,"lng":139.705176,"stationId":"shibuya","note":"神経科　内科　精神科"},{"id":"medical-2-1083","name":"えがおクリニック","categoryId":"medical","categoryLabel":"医疗","lat":35.657507,"lng":139.718554,"stationId":"station-003969","note":"内科　形成外科　ペインクリニック内科　ペインクリニック外科　美容内科"},{"id":"medical-3-1120","name":"えのもと歯科医院","categoryId":"medical","categoryLabel":"医疗","lat":35.670044,"lng":139.716373,"stationId":"station-003834","note":"歯科　小児歯科"},{"id":"medical-2-1174","name":"おいかわ内科在宅クリニック","categoryId":"medical","categoryLabel":"医疗","lat":35.665068,"lng":139.707286,"stationId":"station-003885","note":"内科"},{"id":"medical-2-1300","name":"おくつ整形外科クリニック","categoryId":"medical","categoryLabel":"医疗","lat":35.652582,"lng":139.722393,"stationId":"station-003969","note":"整形外科"},{"id":"medical-3-1336","name":"おのえ歯科医院","categoryId":"medical","categoryLabel":"医疗","lat":35.650093,"lng":139.720606,"stationId":"station-003969","note":"歯科　矯正歯科　小児歯科　歯科口腔外科"},{"id":"medical-2-1370","name":"おりつこどもクリニック","categoryId":"medical","categoryLabel":"医疗","lat":35.667468,"lng":139.714234,"stationId":"station-003885","note":"小児科　アレルギー科"},{"id":"medical-3-1425","name":"かざまき歯科","categoryId":"medical","categoryLabel":"医疗","lat":35.657673,"lng":139.707856,"stationId":"shibuya","note":"歯科"},{"id":"medical-3-1674","name":"くまがい歯科","categoryId":"medical","categoryLabel":"医疗","lat":35.663704,"lng":139.701418,"stationId":"shibuya","note":"歯科"},{"id":"medical-2-1788","name":"けい子レディースクリニック表参道","categoryId":"medical","categoryLabel":"医疗","lat":35.6644,"lng":139.708036,"stationId":"station-003885","note":"皮膚科　産婦人科"},{"id":"medical-3-1794","name":"けやき坂ゆみ歯科医院","categoryId":"medical","categoryLabel":"医疗","lat":35.659442,"lng":139.727395,"stationId":"station-003897","note":"歯科　小児歯科　歯科口腔外科"},{"id":"medical-2-1983","name":"こんどうクリニック","categoryId":"medical","categoryLabel":"医疗","lat":35.657348,"lng":139.703557,"stationId":"shibuya","note":"性病科　泌尿科　皮膚科　形成外科　婦人科"},{"id":"medical-3-2000","name":"さいた歯科クリニック","categoryId":"medical","categoryLabel":"医疗","lat":35.66507,"lng":139.713286,"stationId":"station-003885","note":"歯科　矯正歯科　小児歯科　歯科口腔外科"},{"id":"medical-3-2076","name":"さくらプラチナム歯科","categoryId":"medical","categoryLabel":"医疗","lat":35.658487,"lng":139.7032,"stationId":"shibuya","note":"歯科　矯正歯科　小児歯科　歯科口腔外科"},{"id":"medical-2-2082","name":"さくら坂クリニック　ＳｏｐｈｙＡｎｃｅ（ソフィアンス）","categoryId":"medical","categoryLabel":"医疗","lat":35.664933,"lng":139.728546,"stationId":"station-003868","note":"心療内科　精神科　内科"},{"id":"medical-3-2376","name":"すが歯科クリニック","categoryId":"medical","categoryLabel":"医疗","lat":35.665951,"lng":139.72845,"stationId":"station-003868","note":"歯科"},{"id":"medical-3-2400","name":"すずきデンタルクリニック","categoryId":"medical","categoryLabel":"医疗","lat":35.667035,"lng":139.713844,"stationId":"station-003885","note":"歯科"},{"id":"medical-2-2559","name":"そらクリニック外苑前","categoryId":"medical","categoryLabel":"医疗","lat":35.670054,"lng":139.720375,"stationId":"station-003834","note":"心療内科　精神科"},{"id":"medical-3-2593","name":"たかだ歯科クリニック","categoryId":"medical","categoryLabel":"医疗","lat":35.650186,"lng":139.720803,"stationId":"station-003969","note":"歯科　矯正歯科　小児歯科　歯科口腔外科"},{"id":"medical-2-2641","name":"たからぎ医院","categoryId":"medical","categoryLabel":"医疗","lat":35.65168,"lng":139.708791,"stationId":"station-003991","note":"小児科"},{"id":"medical-2-2645","name":"たか子クリニック","categoryId":"medical","categoryLabel":"医疗","lat":35.656728,"lng":139.701331,"stationId":"shibuya","note":"皮膚科　形成外科"},{"id":"medical-2-2694","name":"たて山レディスクリニック","categoryId":"medical","categoryLabel":"医疗","lat":35.670688,"lng":139.72138,"stationId":"station-003834","note":"産婦人科"},{"id":"medical-3-2734","name":"たまきデンタルクリニック","categoryId":"medical","categoryLabel":"医疗","lat":35.659803,"lng":139.720329,"stationId":"station-003969","note":"歯科　矯正歯科　小児歯科　歯科口腔外科"},{"id":"medical-2-2824","name":"つなぐハートクリニック","categoryId":"medical","categoryLabel":"医疗","lat":35.653261,"lng":139.710736,"stationId":"station-003991","note":"内科　循環器内科"},{"id":"medical-3-2945","name":"とがわ歯科","categoryId":"medical","categoryLabel":"医疗","lat":35.659108,"lng":139.699906,"stationId":"shibuya","note":"歯科"},{"id":"medical-2-3018","name":"ともこレディースクリニック表参道","categoryId":"medical","categoryLabel":"医疗","lat":35.666682,"lng":139.710068,"stationId":"station-003885","note":"産婦人科"},{"id":"medical-2-3079","name":"なかお眼科医院","categoryId":"medical","categoryLabel":"医疗","lat":35.661098,"lng":139.706156,"stationId":"shibuya","note":"眼科"},{"id":"medical-2-3108","name":"なかの眼科クリニック","categoryId":"medical","categoryLabel":"医疗","lat":35.659945,"lng":139.697979,"stationId":"shibuya","note":"眼科"},{"id":"medical-2-3198","name":"にじいろファミリークリニック","categoryId":"medical","categoryLabel":"医疗","lat":35.666676,"lng":139.725389,"stationId":"station-003868","note":"内科　疼痛緩和内科　皮膚科"},{"id":"medical-3-3374","name":"はちやデンタルクリニック","categoryId":"medical","categoryLabel":"医疗","lat":35.670743,"lng":139.705061,"stationId":"station-003828","note":"歯科"},{"id":"medical-2-3853","name":"まいこホリスティックスキンクリニック","categoryId":"medical","categoryLabel":"医疗","lat":35.651893,"lng":139.704822,"stationId":"station-003985","note":"美容皮膚科　皮膚科"},{"id":"medical-3-3875","name":"まき歯科","categoryId":"medical","categoryLabel":"医疗","lat":35.650627,"lng":139.702871,"stationId":"station-003985","note":"歯科　矯正歯科"},{"id":"medical-3-4005","name":"みさき歯科医院","categoryId":"medical","categoryLabel":"医疗","lat":35.660942,"lng":139.70621,"stationId":"shibuya","note":"歯科"},{"id":"medical-2-4013","name":"みすずクリニック","categoryId":"medical","categoryLabel":"医疗","lat":35.661351,"lng":139.713532,"stationId":"station-003885","note":"心療内科　精神科"},{"id":"medical-2-4051","name":"みどり美容クリニック・広尾","categoryId":"medical","categoryLabel":"医疗","lat":35.650093,"lng":139.720606,"stationId":"station-003969","note":"形成外科　美容外科　婦人科"},{"id":"medical-3-4088","name":"みやぎし歯科クリニック","categoryId":"medical","categoryLabel":"医疗","lat":35.655699,"lng":139.705779,"stationId":"shibuya","note":"歯科　矯正歯科　小児歯科　歯科口腔外科"},{"id":"medical-2-4464","name":"よしみね皮膚科","categoryId":"medical","categoryLabel":"医疗","lat":35.660217,"lng":139.696644,"stationId":"station-003938","note":"皮膚科　内科　美容皮膚科"},{"id":"medical-3-417","name":"アイエスデンタルクリニック","categoryId":"medical","categoryLabel":"医疗","lat":35.665633,"lng":139.712328,"stationId":"station-003885","note":"歯科　矯正歯科　小児歯科　歯科口腔外科"},{"id":"medical-2-429","name":"アイクリニック表参道","categoryId":"medical","categoryLabel":"医疗","lat":35.669052,"lng":139.706329,"stationId":"station-003844","note":"眼科"},{"id":"medical-2-461","name":"アイリス美容外科","categoryId":"medical","categoryLabel":"医疗","lat":35.656238,"lng":139.705146,"stationId":"shibuya","note":"皮膚科　形成外科　美容外科　婦人科"},{"id":"medical-2-614","name":"アサミ美容外科","categoryId":"medical","categoryLabel":"医疗","lat":35.661948,"lng":139.697235,"stationId":"shibuya","note":"形成外科　美容外科"},{"id":"medical-2-612","name":"アザブ循環器・内科クリニック","categoryId":"medical","categoryLabel":"医疗","lat":35.656454,"lng":139.727802,"stationId":"station-003969","note":"内科　循環器科　放射線科　脳神経外科　リハビリテーション科"},{"id":"medical-2-652","name":"アットホーム　渋谷クリニック","categoryId":"medical","categoryLabel":"医疗","lat":35.657876,"lng":139.704509,"stationId":"shibuya","note":"内科　リウマチ科　整形外科　リハビリテーション科"},{"id":"medical-2-653","name":"アットホーム表参道クリニック","categoryId":"medical","categoryLabel":"医疗","lat":35.667225,"lng":139.714019,"stationId":"station-003885","note":"リウマチ科　整形外科　リハビリテーション科　内科"},{"id":"medical-2-698","name":"アマソラクリニック","categoryId":"medical","categoryLabel":"医疗","lat":35.662339,"lng":139.702483,"stationId":"shibuya","note":"形成外科　美容外科　美容皮膚科"},{"id":"medical-2-701","name":"アマラクリニック表参道","categoryId":"medical","categoryLabel":"医疗","lat":35.666295,"lng":139.7146,"stationId":"station-003885","note":"精神科　心療内科"},{"id":"medical-3-737","name":"アラナ矯正歯科広尾","categoryId":"medical","categoryLabel":"医疗","lat":35.6509,"lng":139.72247,"stationId":"station-003969","note":"矯正歯科"},{"id":"medical-2-745","name":"アリシアクリニック　渋谷駅前院","categoryId":"medical","categoryLabel":"医疗","lat":35.65806,"lng":139.700132,"stationId":"shibuya","note":"美容皮膚科　形成外科"},{"id":"medical-2-751","name":"アリシアクリニック表参道院","categoryId":"medical","categoryLabel":"医疗","lat":35.669432,"lng":139.705821,"stationId":"station-003844","note":"美容皮膚科　形成外科"},{"id":"medical-2-477","name":"アヴェニューセルクリニック","categoryId":"medical","categoryLabel":"医疗","lat":35.66507,"lng":139.713286,"stationId":"station-003885","note":"形成外科　内科　整形外科　皮膚科　血管外科"},{"id":"medical-2-478","name":"アヴェニュー表参道クリニック","categoryId":"medical","categoryLabel":"医疗","lat":35.66507,"lng":139.713286,"stationId":"station-003885","note":"皮膚科　形成外科"},{"id":"medical-2-409","name":"アートセルクリニック六本木","categoryId":"medical","categoryLabel":"医疗","lat":35.665562,"lng":139.728787,"stationId":"station-003868","note":"内科　皮膚科　美容皮膚科"},{"id":"medical-2-977","name":"イワタクリニック","categoryId":"medical","categoryLabel":"医疗","lat":35.660941,"lng":139.706719,"stationId":"shibuya","note":"神経科　内科　精神科　心療内科"},{"id":"medical-2-995","name":"ウィメンズクリニック南青山","categoryId":"medical","categoryLabel":"医疗","lat":35.66253,"lng":139.716324,"stationId":"station-003885","note":"婦人科"},{"id":"medical-2-997","name":"ウィメンズクリニック林","categoryId":"medical","categoryLabel":"医疗","lat":35.660217,"lng":139.696644,"stationId":"station-003938","note":"内科　産婦人科"},{"id":"medical-2-996","name":"ウイメンズクリニック南麻布","categoryId":"medical","categoryLabel":"医疗","lat":35.652807,"lng":139.722438,"stationId":"station-003969","note":"婦人科"},{"id":"medical-3-1004","name":"ウエストデンタルクリニック","categoryId":"medical","categoryLabel":"医疗","lat":35.657876,"lng":139.704509,"stationId":"shibuya","note":"歯科　矯正歯科　小児歯科　歯科口腔外科"},{"id":"medical-3-1032","name":"ウケデンタルオフィス表参道","categoryId":"medical","categoryLabel":"医疗","lat":35.665767,"lng":139.713393,"stationId":"station-003885","note":"歯科　小児歯科　矯正歯科　歯科口腔外科"},{"id":"medical-2-1039","name":"ウスイ内科クリニック","categoryId":"medical","categoryLabel":"医疗","lat":35.658461,"lng":139.727441,"stationId":"station-003897","note":"内科　消化器内科　循環器内科"},{"id":"medical-2-1076","name":"エイベックスビルクリニック","categoryId":"medical","categoryLabel":"医疗","lat":35.667625,"lng":139.715821,"stationId":"station-003834","note":"内科"},{"id":"medical-2-1108","name":"エトワール・レジーナクリニック","categoryId":"medical","categoryLabel":"医疗","lat":35.669028,"lng":139.712837,"stationId":"station-003885","note":"美容皮膚科"},{"id":"medical-2-1138","name":"エミナルクリニック渋谷院","categoryId":"medical","categoryLabel":"医疗","lat":35.658579,"lng":139.703718,"stationId":"shibuya","note":"美容皮膚科"},{"id":"medical-2-1141","name":"エミネクロス　メディカルクリニック","categoryId":"medical","categoryLabel":"医疗","lat":35.671575,"lng":139.710872,"stationId":"station-003834","note":"内科"},{"id":"medical-3-1210","name":"オオタケデンタルオフィス","categoryId":"medical","categoryLabel":"医疗","lat":35.664475,"lng":139.711528,"stationId":"station-003885","note":"歯科　矯正歯科"},{"id":"medical-3-1273","name":"オカムラ歯科医院","categoryId":"medical","categoryLabel":"医疗","lat":35.662508,"lng":139.698735,"stationId":"shibuya","note":"歯科　矯正歯科　小児歯科　歯科口腔外科"},{"id":"medical-3-1306","name":"オグマ歯科","categoryId":"medical","categoryLabel":"医疗","lat":35.650062,"lng":139.722736,"stationId":"station-003969","note":"歯科"},{"id":"medical-3-1372","name":"オリンピアクリニック宮坂歯科","categoryId":"medical","categoryLabel":"医疗","lat":35.669127,"lng":139.703405,"stationId":"station-003844","note":"歯科"},{"id":"medical-3-1257","name":"オーラルケアクリニック青山","categoryId":"medical","categoryLabel":"医疗","lat":35.665041,"lng":139.715675,"stationId":"station-003885","note":"歯科　矯正歯科　小児歯科　歯科口腔外科"},{"id":"medical-3-1441","name":"カズミ・ケイデンタルクリニック","categoryId":"medical","categoryLabel":"医疗","lat":35.650962,"lng":139.701035,"stationId":"station-003985","note":"歯科"},{"id":"medical-2-1398","name":"ガーデンクリニック広尾","categoryId":"medical","categoryLabel":"医疗","lat":35.656633,"lng":139.717882,"stationId":"station-003969","note":"皮膚科　アレルギー科"},{"id":"medical-2-1709","name":"クリニカメディカ・髪のクリニック　Ｓｅｅｄ","categoryId":"medical","categoryLabel":"医疗","lat":35.660575,"lng":139.707688,"stationId":"shibuya","note":"内科　皮膚科　心療内科"},{"id":"medical-2-1710","name":"クリニカ東京青山","categoryId":"medical","categoryLabel":"医疗","lat":35.665267,"lng":139.714602,"stationId":"station-003885","note":"内科　精神科　心療内科"},{"id":"medical-2-1714","name":"クリニック・ハイジーア","categoryId":"medical","categoryLabel":"医疗","lat":35.666324,"lng":139.707276,"stationId":"station-003844","note":"内科　婦人科　腫瘍内科"},{"id":"medical-2-1729","name":"クリニック桜丘","categoryId":"medical","categoryLabel":"医疗","lat":35.656728,"lng":139.701331,"stationId":"shibuya","note":"内科　小児科　放射線科"},{"id":"medical-3-1758","name":"クロエ　クリニック　青山","categoryId":"medical","categoryLabel":"医疗","lat":35.674246,"lng":139.72967,"stationId":"station-003817","note":"歯科　内科　皮膚科　形成外科"},{"id":"medical-3-1792","name":"ケテル齒科醫院","categoryId":"medical","categoryLabel":"医疗","lat":35.657266,"lng":139.718468,"stationId":"station-003969","note":"歯科　矯正歯科　小児歯科　歯科口腔外科"},{"id":"medical-3-1803","name":"ゲンズデンタルオフィス表参道","categoryId":"medical","categoryLabel":"医疗","lat":35.665045,"lng":139.709149,"stationId":"station-003885","note":"歯科　矯正歯科　小児歯科　歯科口腔外科"},{"id":"medical-2-1974","name":"ゴリラクリニック　渋谷院","categoryId":"medical","categoryLabel":"医疗","lat":35.660912,"lng":139.703528,"stationId":"shibuya","note":"美容皮膚科"},{"id":"medical-3-2007","name":"サイトウ歯科医院","categoryId":"medical","categoryLabel":"医疗","lat":35.657553,"lng":139.70819,"stationId":"shibuya","note":"歯科　小児歯科"},{"id":"medical-3-2019","name":"サカイデンタルクリニック","categoryId":"medical","categoryLabel":"医疗","lat":35.66299,"lng":139.699929,"stationId":"shibuya","note":"歯科"},{"id":"medical-2-2178","name":"サンクリニック原宿","categoryId":"medical","categoryLabel":"医疗","lat":35.666518,"lng":139.703317,"stationId":"station-003844","note":"胃腸科　肛門科　本来は4と23。変更　届出指導済み　内科　外科"},{"id":"medical-3-2180","name":"サンク歯科医院","categoryId":"medical","categoryLabel":"医疗","lat":35.666215,"lng":139.703035,"stationId":"station-003844","note":"歯科"},{"id":"medical-3-2195","name":"サンライズ青山メディカルデンタルクリニック","categoryId":"medical","categoryLabel":"医疗","lat":35.670838,"lng":139.720849,"stationId":"station-003834","note":"内科　麻酔科　アレルギー科　心療内科　歯科　矯正歯科　小児歯科"},{"id":"medical-3-1991","name":"ザ・デンティスト南青山","categoryId":"medical","categoryLabel":"医疗","lat":35.665918,"lng":139.720393,"stationId":"station-003868","note":"歯科　歯科口腔外科　矯正歯科"},{"id":"medical-3-2202","name":"シーエス矯正歯科クリニック","categoryId":"medical","categoryLabel":"医疗","lat":35.662098,"lng":139.699624,"stationId":"shibuya","note":"矯正歯科"},{"id":"medical-2-2307","name":"ジャガークリニック","categoryId":"medical","categoryLabel":"医疗","lat":35.65929,"lng":139.698068,"stationId":"shibuya","note":"皮膚科"},{"id":"medical-3-2306","name":"ジャーミィデント歯科","categoryId":"medical","categoryLabel":"医疗","lat":35.66322,"lng":139.710246,"stationId":"station-003885","note":"歯科　矯正歯科　小児歯科"},{"id":"medical-2-2440","name":"ストレスケア南青山","categoryId":"medical","categoryLabel":"医疗","lat":35.660863,"lng":139.715576,"stationId":"station-003885","note":"精神科　心療内科"},{"id":"medical-2-2448","name":"スマイルＡＧＡクリニック渋谷院","categoryId":"medical","categoryLabel":"医疗","lat":35.661067,"lng":139.703313,"stationId":"shibuya","note":"皮膚科　美容皮膚科"},{"id":"medical-2-2515","name":"セラピイ青山クリニック","categoryId":"medical","categoryLabel":"医疗","lat":35.666211,"lng":139.713799,"stationId":"station-003885","note":"精神科"},{"id":"medical-2-2517","name":"セルリアンタワーイセアクリニック","categoryId":"medical","categoryLabel":"医疗","lat":35.656361,"lng":139.699415,"stationId":"shibuya","note":"美容内科　美容皮膚科　整形外科　形成外科　美容外科"},{"id":"medical-3-2570","name":"タイラデンタルクリニック","categoryId":"medical","categoryLabel":"医疗","lat":35.663653,"lng":139.713258,"stationId":"station-003885","note":"歯科　矯正歯科"},{"id":"medical-3-2677","name":"タジマデンタルクリニック","categoryId":"medical","categoryLabel":"医疗","lat":35.670381,"lng":139.720275,"stationId":"station-003834","note":"歯科　矯正歯科　小児歯科　歯科口腔外科"},{"id":"medical-3-2887","name":"デンタルオフィス針谷","categoryId":"medical","categoryLabel":"医疗","lat":35.66043,"lng":139.726555,"stationId":"station-003897","note":"歯科"},{"id":"medical-3-2877","name":"デンタルオフィス８","categoryId":"medical","categoryLabel":"医疗","lat":35.662675,"lng":139.70056,"stationId":"shibuya","note":"歯科　矯正歯科　歯科口腔外科"},{"id":"medical-3-2900","name":"デンタルクリニックファインビュー","categoryId":"medical","categoryLabel":"医疗","lat":35.668164,"lng":139.726815,"stationId":"station-003868","note":"矯正歯科"},{"id":"medical-3-2901","name":"デンタルクリニックマ・メゾン","categoryId":"medical","categoryLabel":"医疗","lat":35.661631,"lng":139.700166,"stationId":"shibuya","note":"歯科　矯正歯科　小児歯科　歯科口腔外科"},{"id":"medical-3-2912","name":"デンタルクリニック大島","categoryId":"medical","categoryLabel":"医疗","lat":35.67103,"lng":139.722801,"stationId":"station-003817","note":"歯科　小児歯科　歯科口腔外科"},{"id":"medical-3-2906","name":"デンタルクリニック広尾スマイルライン","categoryId":"medical","categoryLabel":"医疗","lat":35.65021,"lng":139.720251,"stationId":"station-003969","note":"歯科　矯正歯科　小児歯科"},{"id":"medical-3-2922","name":"デンタルサロン青山","categoryId":"medical","categoryLabel":"医疗","lat":35.665918,"lng":139.720393,"stationId":"station-003868","note":"歯科　矯正歯科　小児歯科　歯科口腔外科"},{"id":"medical-2-2961","name":"ドクタークリニック","categoryId":"medical","categoryLabel":"医疗","lat":35.660815,"lng":139.702042,"stationId":"shibuya","note":"美容皮膚科　美容内科　美容外科"},{"id":"medical-3-3141","name":"ナカ歯科乃木坂診療所","categoryId":"medical","categoryLabel":"医疗","lat":35.666556,"lng":139.728445,"stationId":"station-003868","note":"歯科"},{"id":"medical-3-3100","name":"ナガタ歯科医院","categoryId":"medical","categoryLabel":"医疗","lat":35.659999,"lng":139.707297,"stationId":"shibuya","note":"歯科"},{"id":"medical-2-3152","name":"ナショナル　メディカル　クリニック　（ＮＡＴＩＯＮＡＬ　ＭＥＤＩＣＡＬ　ＣＬＩＮＩＣ）","categoryId":"medical","categoryLabel":"医疗","lat":35.651449,"lng":139.723315,"stationId":"station-003969","note":"内科　小児科　形成外科　歯科　美容外科　精神科"},{"id":"medical-3-3230","name":"ニノデンタルオフィス","categoryId":"medical","categoryLabel":"医疗","lat":35.669232,"lng":139.709998,"stationId":"station-003885","note":"歯科　矯正歯科　歯科口腔外科"},{"id":"medical-3-3577","name":"ヒロカズデンタルクリニック","categoryId":"medical","categoryLabel":"医疗","lat":35.657346,"lng":139.704291,"stationId":"shibuya","note":"歯科　矯正歯科　歯科口腔外科"},{"id":"medical-2-3612","name":"ピンクリボンブレストケアクリニック表参道","categoryId":"medical","categoryLabel":"医疗","lat":35.664475,"lng":139.711528,"stationId":"station-003885","note":"乳腺外科　婦人科　乳腺放射線診断科"},{"id":"medical-3-3632","name":"フィリオン矯正歯科東京","categoryId":"medical","categoryLabel":"医疗","lat":35.652792,"lng":139.722013,"stationId":"station-003969","note":"歯科　矯正歯科　小児歯科"},{"id":"medical-2-3753","name":"フレイアクリニック表参道院","categoryId":"medical","categoryLabel":"医疗","lat":35.66665,"lng":139.704995,"stationId":"station-003844","note":"美容皮膚科"},{"id":"medical-3-3735","name":"ブルーデンタルクリニック","categoryId":"medical","categoryLabel":"医疗","lat":35.659046,"lng":139.708393,"stationId":"shibuya","note":"歯科　小児歯科　歯科口腔外科"},{"id":"medical-2-3718","name":"プラザ形成外科","categoryId":"medical","categoryLabel":"医疗","lat":35.650506,"lng":139.721907,"stationId":"station-003969","note":"皮膚科　形成外科　美容外科"},{"id":"medical-2-3771","name":"ヘアケアクリニック六本木院","categoryId":"medical","categoryLabel":"医疗","lat":35.662913,"lng":139.729001,"stationId":"station-003897","note":"美容皮膚科　内科　皮膚科"},{"id":"medical-2-3778","name":"ペルラクリニック神宮前","categoryId":"medical","categoryLabel":"医疗","lat":35.672137,"lng":139.703423,"stationId":"station-003828","note":"皮膚科　美容外科"},{"id":"medical-3-3829","name":"ホワイトエッセンス青山","categoryId":"medical","categoryLabel":"医疗","lat":35.667468,"lng":139.714234,"stationId":"station-003885","note":"歯科　矯正歯科"},{"id":"medical-3-3837","name":"ホワイトマイスターデンタルクリニック","categoryId":"medical","categoryLabel":"医疗","lat":35.662758,"lng":139.711029,"stationId":"station-003885","note":"歯科"},{"id":"medical-3-3846","name":"マークシティ酒井歯科室","categoryId":"medical","categoryLabel":"医疗","lat":35.657849,"lng":139.69794,"stationId":"shibuya","note":"歯科　歯科口腔外科"},{"id":"medical-2-4067","name":"ミニマルクリニック表参道","categoryId":"medical","categoryLabel":"医疗","lat":35.660883,"lng":139.715458,"stationId":"station-003885","note":"美容皮膚科"},{"id":"medical-3-4072","name":"ミノル歯科","categoryId":"medical","categoryLabel":"医疗","lat":35.656193,"lng":139.725544,"stationId":"station-003969","note":"歯科"},{"id":"medical-3-4085","name":"ミヤオデンタルクリニック","categoryId":"medical","categoryLabel":"医疗","lat":35.662106,"lng":139.697782,"stationId":"shibuya","note":"歯科　歯科口腔外科"},{"id":"medical-3-4119","name":"ミライズ矯正歯科南青山","categoryId":"medical","categoryLabel":"医疗","lat":35.660116,"lng":139.715243,"stationId":"station-003885","note":"歯科　矯正歯科　歯科口腔外科"},{"id":"medical-2-4195","name":"メディカルクリニック広尾","categoryId":"medical","categoryLabel":"医疗","lat":35.650151,"lng":139.720984,"stationId":"station-003969","note":"皮膚科　アレルギー科　小児科"},{"id":"medical-2-4198","name":"メディカルスキンケアＹＯＵクリニック","categoryId":"medical","categoryLabel":"医疗","lat":35.666462,"lng":139.716859,"stationId":"station-003834","note":"皮膚科　アレルギー科　美容皮膚科　小児皮膚科"},{"id":"medical-2-4202","name":"メディカルブランチ表参道","categoryId":"medical","categoryLabel":"医疗","lat":35.664691,"lng":139.710167,"stationId":"station-003885","note":"内科　外科"},{"id":"medical-3-4218","name":"モウリデンタルクリニック","categoryId":"medical","categoryLabel":"医疗","lat":35.651762,"lng":139.721998,"stationId":"station-003969","note":"歯科　矯正歯科　小児歯科　歯科口腔外科"},{"id":"medical-2-4269","name":"ヤクルト球団診療所","categoryId":"medical","categoryLabel":"医疗","lat":35.673623,"lng":139.716616,"stationId":"station-003834","note":"内科　整形外科"},{"id":"medical-2-4373","name":"ユーロクリニーク南青山","categoryId":"medical","categoryLabel":"医疗","lat":35.670436,"lng":139.72292,"stationId":"station-003817","note":"形成外科　美容外科　麻酔科　皮膚科　内科　婦人科　泌尿器科　心療内科　眼科"},{"id":"medical-2-4514","name":"ラジュボークリニック","categoryId":"medical","categoryLabel":"医疗","lat":35.670685,"lng":139.720436,"stationId":"station-003834","note":"美容皮膚科　内科　形成外科"},{"id":"medical-3-4491","name":"ラ・ブージュ　デンタルクリニック","categoryId":"medical","categoryLabel":"医疗","lat":35.66031,"lng":139.704826,"stationId":"shibuya","note":"歯科　矯正歯科"},{"id":"medical-3-4538","name":"リキ歯科クリニック","categoryId":"medical","categoryLabel":"医疗","lat":35.650663,"lng":139.703343,"stationId":"station-003985","note":"歯科"},{"id":"medical-2-4545","name":"リッツメディカルクリニック青山","categoryId":"medical","categoryLabel":"医疗","lat":35.663805,"lng":139.710695,"stationId":"station-003885","note":"皮膚科　美容外科　美容皮膚科　美容内科"},{"id":"medical-3-4578","name":"ルネス青山デンタルクリニック","categoryId":"medical","categoryLabel":"医疗","lat":35.663033,"lng":139.705674,"stationId":"shibuya","note":"歯科　矯正歯科　小児歯科　歯科口腔外科"},{"id":"medical-3-4574","name":"ルートデンタルクリニック","categoryId":"medical","categoryLabel":"医疗","lat":35.650506,"lng":139.721907,"stationId":"station-003969","note":"歯科　矯正歯科　小児歯科　歯科口腔外科"},{"id":"medical-2-4598","name":"レジーナクリニック　表参道院","categoryId":"medical","categoryLabel":"医疗","lat":35.667695,"lng":139.705384,"stationId":"station-003844","note":"美容皮膚科"},{"id":"medical-2-10734","name":"一般社団法人のぞみ会　ＰＲＯＵＤ　ＣＬＩＮＩＣ","categoryId":"medical","categoryLabel":"医疗","lat":35.660654,"lng":139.704714,"stationId":"shibuya","note":"内科　美容皮膚科"},{"id":"medical-2-10699","name":"一般財団法人　東洋医学研究所附属クリニック","categoryId":"medical","categoryLabel":"医疗","lat":35.655637,"lng":139.699171,"stationId":"shibuya","note":"内科　整形外科　放射線科　リハビリテーション科"},{"id":"medical-2-10704","name":"一般財団法人京浜保健衛生協会　渋谷診療所","categoryId":"medical","categoryLabel":"医疗","lat":35.654325,"lng":139.699275,"stationId":"shibuya","note":"内科"},{"id":"medical-2-10710","name":"一般財団法人産業保健研究財団　聖仁会診療所","categoryId":"medical","categoryLabel":"医疗","lat":35.656596,"lng":139.697285,"stationId":"station-003938","note":"内科"},{"id":"medical-2-13477","name":"三好クリニック","categoryId":"medical","categoryLabel":"医疗","lat":35.664004,"lng":139.711124,"stationId":"station-003885","note":"内科　循環器内科"},{"id":"medical-2-19736","name":"並木橋クリニック","categoryId":"medical","categoryLabel":"医疗","lat":35.655619,"lng":139.706976,"stationId":"shibuya","note":"循環器科　内科"},{"id":"medical-2-17316","name":"中井診療所","categoryId":"medical","categoryLabel":"医疗","lat":35.668372,"lng":139.714844,"stationId":"station-003834","note":"産科　婦人科　内科"},{"id":"medical-2-17357","name":"中山医院","categoryId":"medical","categoryLabel":"医疗","lat":35.664939,"lng":139.714529,"stationId":"station-003885","note":"内科　糖尿病内科　代謝内科　内分泌内科　リウマチ科　眼科"},{"id":"medical-3-17386","name":"中川歯科クリニック","categoryId":"medical","categoryLabel":"医疗","lat":35.664004,"lng":139.711124,"stationId":"station-003885","note":"歯科"},{"id":"medical-3-17426","name":"中村歯科医院","categoryId":"medical","categoryLabel":"医疗","lat":35.659558,"lng":139.703809,"stationId":"shibuya","note":"歯科"},{"id":"medical-3-17514","name":"中野歯科医院","categoryId":"medical","categoryLabel":"医疗","lat":35.654728,"lng":139.72649,"stationId":"station-003969","note":"歯科"},{"id":"medical-3-18979","name":"乃木坂歯科クリニック","categoryId":"medical","categoryLabel":"医疗","lat":35.667705,"lng":139.72878,"stationId":"station-003868","note":"歯科　矯正歯科　小児歯科　歯科口腔外科"},{"id":"medical-3-18980","name":"乃木坂猪俣歯科","categoryId":"medical","categoryLabel":"医疗","lat":35.666556,"lng":139.728445,"stationId":"station-003868","note":"歯科　矯正歯科　小児歯科　歯科口腔外科"},{"id":"medical-2-18978","name":"乃木坂ＡＣクリニック","categoryId":"medical","categoryLabel":"医疗","lat":35.666556,"lng":139.728445,"stationId":"station-003868","note":"内科　美容外科"},{"id":"medical-3-10651","name":"井上歯科医院","categoryId":"medical","categoryLabel":"医疗","lat":35.665196,"lng":139.712957,"stationId":"station-003885","note":"歯科"},{"id":"medical-3-10663","name":"井本歯科医院","categoryId":"medical","categoryLabel":"医疗","lat":35.657734,"lng":139.723598,"stationId":"station-003969","note":"歯科　矯正歯科　小児歯科　歯科口腔外科"},{"id":"medical-2-15484","name":"仁保医院","categoryId":"medical","categoryLabel":"医疗","lat":35.668841,"lng":139.715457,"stationId":"station-003834","note":"内科　耳鼻いんこう科"},{"id":"medical-3-13142","name":"今井歯科医院","categoryId":"medical","categoryLabel":"医疗","lat":35.655489,"lng":139.695582,"stationId":"station-003938","note":"歯科"},{"id":"medical-2-16719","name":"代官山やまびこクリニック","categoryId":"medical","categoryLabel":"医疗","lat":35.653105,"lng":139.704931,"stationId":"station-003985","note":"心療内科　精神科　児童精神科"},{"id":"medical-2-16714","name":"代官山クリニック","categoryId":"medical","categoryLabel":"医疗","lat":35.650071,"lng":139.704298,"stationId":"station-003985","note":"美容皮膚　皮膚科"},{"id":"medical-3-16715","name":"代官山デンタルクリニック","categoryId":"medical","categoryLabel":"医疗","lat":35.650069,"lng":139.703834,"stationId":"station-003985","note":"歯科　矯正歯科　小児歯科　歯科口腔外科"},{"id":"medical-2-4805","name":"伊藤忠東京診療所","categoryId":"medical","categoryLabel":"医疗","lat":35.671534,"lng":139.719271,"stationId":"station-003834","note":"内科　歯科"},{"id":"medical-1-4811","name":"伊藤病院","categoryId":"medical","categoryLabel":"医疗","lat":35.66631,"lng":139.710565,"stationId":"station-003885","note":"内科　外科　放射線科　病理診断科"},{"id":"medical-3-13200","name":"佐々木歯科医院","categoryId":"medical","categoryLabel":"医疗","lat":35.657673,"lng":139.696038,"stationId":"station-003938","note":"歯科"},{"id":"medical-2-13271","name":"佐藤内科クリニック","categoryId":"medical","categoryLabel":"医疗","lat":35.655155,"lng":139.696009,"stationId":"station-003938","note":"循環器科　内科"},{"id":"medical-3-13257","name":"佐藤歯科医院","categoryId":"medical","categoryLabel":"医疗","lat":35.67076,"lng":139.726344,"stationId":"station-003817","note":"歯科　小児歯科　歯科口腔外科"},{"id":"medical-2-12423","name":"健康政策経営研究所　南青山クリニック","categoryId":"medical","categoryLabel":"医疗","lat":35.671267,"lng":139.723949,"stationId":"station-003817","note":"産婦人科　心療内科　腫瘍内科"},{"id":"medical-3-12449","name":"元麻布ファミリエデンタルクリニック","categoryId":"medical","categoryLabel":"医疗","lat":35.657681,"lng":139.727986,"stationId":"station-003897","note":"歯科　矯正歯科　小児歯科　歯科口腔外科"},{"id":"medical-2-20132","name":"免疫予防医学クリニック","categoryId":"medical","categoryLabel":"医疗","lat":35.671659,"lng":139.725428,"stationId":"station-003817","note":"脳神経外科　神経内科　内科　心療内科"},{"id":"medical-1-12657","name":"公益財団法人　心臓血管研究所付属病院","categoryId":"medical","categoryLabel":"医疗","lat":35.658945,"lng":139.72723,"stationId":"station-003897","note":"循環器内科　心臓血管外科　心臓リハビリ科　放射線科　麻酔科"},{"id":"medical-2-20689","name":"六本木　今泉スキンクリニック","categoryId":"medical","categoryLabel":"医疗","lat":35.662136,"lng":139.729214,"stationId":"station-003897","note":"皮膚科　美容皮膚科　形成外科"},{"id":"medical-3-20693","name":"六本木カマエデンタルオフィス","categoryId":"medical","categoryLabel":"医疗","lat":35.662003,"lng":139.729019,"stationId":"station-003897","note":"歯科　矯正歯科　小児歯科　歯科口腔外科"},{"id":"medical-2-20699","name":"六本木ヒルズレジデンス健康相談クリニック","categoryId":"medical","categoryLabel":"医疗","lat":35.658999,"lng":139.729993,"stationId":"station-003897","note":"内科"},{"id":"medical-2-20703","name":"六本木メンタルクリニック","categoryId":"medical","categoryLabel":"医疗","lat":35.6623,"lng":139.729679,"stationId":"station-003897","note":"心療内科　精神科"},{"id":"medical-2-20704","name":"六本木レディースクリニック","categoryId":"medical","categoryLabel":"医疗","lat":35.6623,"lng":139.729679,"stationId":"station-003897","note":"婦人科"},{"id":"medical-3-20707","name":"六本木歯科医院","categoryId":"medical","categoryLabel":"医疗","lat":35.662063,"lng":139.728762,"stationId":"station-003897","note":"歯科"},{"id":"medical-2-11991","name":"共立美容外科　渋谷院","categoryId":"medical","categoryLabel":"医疗","lat":35.660626,"lng":139.702042,"stationId":"shibuya","note":"皮膚科　泌尿器科　美容外科　形成外科"},{"id":"medical-3-18720","name":"内山歯科クリニック","categoryId":"medical","categoryLabel":"医疗","lat":35.671029,"lng":139.722192,"stationId":"station-003817","note":"歯科　歯科口腔外科　矯正歯科"},{"id":"medical-2-18730","name":"内田医院","categoryId":"medical","categoryLabel":"医疗","lat":35.661373,"lng":139.6985,"stationId":"shibuya","note":"呼吸器科　循環器科　性病科　胃腸科　内科　皮膚科　外科　形成外科　眼科"},{"id":"medical-3-18735","name":"内藤デンタルオフィス","categoryId":"medical","categoryLabel":"医疗","lat":35.656621,"lng":139.719882,"stationId":"station-003969","note":"歯科"},{"id":"medical-3-17996","name":"刀根歯科医院","categoryId":"medical","categoryLabel":"医疗","lat":35.657965,"lng":139.718483,"stationId":"station-003969","note":"歯科"},{"id":"medical-3-11154","name":"加治矯正歯科医院","categoryId":"medical","categoryLabel":"医疗","lat":35.665253,"lng":139.707086,"stationId":"station-003844","note":"歯科　矯正歯科　小児歯科　歯科口腔外科"},{"id":"medical-2-19890","name":"北西クリニック","categoryId":"medical","categoryLabel":"医疗","lat":35.655137,"lng":139.700449,"stationId":"shibuya","note":"精神科"},{"id":"medical-2-19891","name":"北青山診療所","categoryId":"medical","categoryLabel":"医疗","lat":35.664475,"lng":139.711528,"stationId":"station-003885","note":"内科　精神科　神経科　心療内科"},{"id":"medical-2-4851","name":"医療法人けんしょう会　レジーナクリニック渋谷院","categoryId":"medical","categoryLabel":"医疗","lat":35.660571,"lng":139.698851,"stationId":"shibuya","note":"美容皮膚科"},{"id":"medical-3-4854","name":"医療法人スマイル・クリエイト　ハピュアデンタルクリニック渋谷","categoryId":"medical","categoryLabel":"医疗","lat":35.655542,"lng":139.705955,"stationId":"shibuya","note":"歯科　矯正歯科　小児歯科　歯科口腔外科"},{"id":"medical-2-4887","name":"医療法人再生未来サイエンスクリニック","categoryId":"medical","categoryLabel":"医疗","lat":35.652807,"lng":139.722438,"stationId":"station-003969","note":"内科　皮膚科　美容皮膚科"},{"id":"medical-3-4881","name":"医療法人厚徳会　クオーツホワイトデンタルクリニック","categoryId":"medical","categoryLabel":"医疗","lat":35.660053,"lng":139.706371,"stationId":"shibuya","note":"歯科"},{"id":"medical-3-10590","name":"医療法人徳真会　クオーツデンタルクリニック","categoryId":"medical","categoryLabel":"医疗","lat":35.660053,"lng":139.706371,"stationId":"shibuya","note":"歯科　矯正歯科　小児歯科　歯科口腔外科"},{"id":"medical-2-10591","name":"医療法人徳真会　クオーツメディカルクリニック","categoryId":"medical","categoryLabel":"医疗","lat":35.660053,"lng":139.706371,"stationId":"shibuya","note":"内科　皮膚科"},{"id":"medical-3-10602","name":"医療法人悠生会ｆａｍｉｌｙ　ｄｅｎｔｉｓｔｒｙ　ＦＵＫＵＩ　ＤＥＮＴＡＬ　ＯＦＦＩＣＥ．（ファミリーデンティストリーフクイデンタルオフィス）","categoryId":"medical","categoryLabel":"医疗","lat":35.656738,"lng":139.717934,"stationId":"station-003969","note":"歯科　矯正歯科　小児歯科"},{"id":"medical-2-10576","name":"医療法人清和会　東京眼形成クリニック","categoryId":"medical","categoryLabel":"医疗","lat":35.663054,"lng":139.710184,"stationId":"station-003885","note":"皮膚科　形成外科　美容外科"},{"id":"medical-3-4879","name":"医療法人玄徳会　青山クオーツデンタルクリニック","categoryId":"medical","categoryLabel":"医疗","lat":35.660053,"lng":139.706371,"stationId":"shibuya","note":"歯科　矯正歯科　小児歯科　歯科口腔外科"},{"id":"medical-2-5128","name":"医療法人社団　しおざき内科","categoryId":"medical","categoryLabel":"医疗","lat":35.660718,"lng":139.706258,"stationId":"shibuya","note":"循環器科　胃腸科　内科　皮膚科　アレルギー科"},{"id":"medical-1-5111","name":"医療法人社団　オリンピア会　オリンピア眼科病院","categoryId":"medical","categoryLabel":"医疗","lat":35.672417,"lng":139.709461,"stationId":"station-003844","note":"眼科"},{"id":"medical-2-5135","name":"医療法人社団　スリープクリニック　スリープクリニック青山","categoryId":"medical","categoryLabel":"医疗","lat":35.666159,"lng":139.720344,"stationId":"station-003834","note":"精神科　心療内科　内科　耳鼻いんこう科"},{"id":"medical-2-5375","name":"医療法人社団　健豊会　つのおクリニック","categoryId":"medical","categoryLabel":"医疗","lat":35.657112,"lng":139.704837,"stationId":"shibuya","note":"内科　アレルギー科　精神科　心療内科"},{"id":"medical-2-5376","name":"医療法人社団　健豊会　西島クリニック","categoryId":"medical","categoryLabel":"医疗","lat":35.657112,"lng":139.704837,"stationId":"shibuya","note":"性病科　胃腸科　内科　婦人科"},{"id":"medical-3-5946","name":"医療法人社団　八雲会　西麻布デンタルクリニック","categoryId":"medical","categoryLabel":"医疗","lat":35.658994,"lng":139.723373,"stationId":"station-003969","note":"歯科　矯正歯科"},{"id":"medical-3-5790","name":"医療法人社団　川崎歯科診療所","categoryId":"medical","categoryLabel":"医疗","lat":35.661914,"lng":139.713588,"stationId":"station-003885","note":"歯科"},{"id":"medical-2-5349","name":"医療法人社団　慶友整形外科渋谷","categoryId":"medical","categoryLabel":"医疗","lat":35.655732,"lng":139.703922,"stationId":"shibuya","note":"整形外科　リハビリテーション科"},{"id":"medical-2-5623","name":"医療法人社団　松柏堂医院","categoryId":"medical","categoryLabel":"医疗","lat":35.661448,"lng":139.724889,"stationId":"station-003868","note":"内科　リハビリテーション科"},{"id":"medical-3-5510","name":"医療法人社団　歯科糸井医院","categoryId":"medical","categoryLabel":"医疗","lat":35.671311,"lng":139.716669,"stationId":"station-003834","note":"歯科"},{"id":"medical-2-5441","name":"医療法人社団　甲和会　渋谷ＤＳクリニック","categoryId":"medical","categoryLabel":"医疗","lat":35.656891,"lng":139.705891,"stationId":"shibuya","note":"内科　皮膚科　美容外科"},{"id":"medical-2-6106","name":"医療法人社団　眞弓会　まゆみクリニック","categoryId":"medical","categoryLabel":"医疗","lat":35.671453,"lng":139.721043,"stationId":"station-003817","note":"形成外科　皮膚科"},{"id":"medical-2-6056","name":"医療法人社団　祐優会　Ｏｋｕｎｏ　Ｃｌｉｎｉｃ．　六本木ミッドタウン前","categoryId":"medical","categoryLabel":"医疗","lat":35.66517,"lng":139.729669,"stationId":"station-003897","note":"整形外科　放射線科"},{"id":"medical-2-5669","name":"医療法人社団　神田第二クリニック","categoryId":"medical","categoryLabel":"医疗","lat":35.660202,"lng":139.72587,"stationId":"station-003897","note":"内科　産婦人科"},{"id":"medical-2-5986","name":"医療法人社団　芳信会　神南眼科医院","categoryId":"medical","categoryLabel":"医疗","lat":35.660142,"lng":139.701011,"stationId":"shibuya","note":"眼科"},{"id":"medical-2-5908","name":"医療法人社団　藤志会　よろず医療相談蕩蕩","categoryId":"medical","categoryLabel":"医疗","lat":35.655618,"lng":139.726198,"stationId":"station-003969","note":"内科"},{"id":"medical-2-6480","name":"医療法人社団こうのとり会ファティリティクリニック東京","categoryId":"medical","categoryLabel":"医疗","lat":35.650525,"lng":139.710008,"stationId":"station-003991","note":"産婦人科"},{"id":"medical-2-6522","name":"医療法人社団しらゆき　ジャスミンレディ―スクリニック渋谷","categoryId":"medical","categoryLabel":"医疗","lat":35.659798,"lng":139.702926,"stationId":"shibuya","note":"婦人科"},{"id":"medical-2-6683","name":"医療法人社団ひつじ会　宮益坂メリーレディースクリニック","categoryId":"medical","categoryLabel":"医疗","lat":35.660314,"lng":139.704504,"stationId":"shibuya","note":"女性内科　性感染症婦人科　産婦人科"},{"id":"medical-2-6802","name":"医療法人社団もくれん会　マグノリア皮膚科クリニック","categoryId":"medical","categoryLabel":"医疗","lat":35.660317,"lng":139.704985,"stationId":"shibuya","note":"皮膚科"},{"id":"medical-2-6835","name":"医療法人社団ゆみの　ゆみのハートクリニック渋谷","categoryId":"medical","categoryLabel":"医疗","lat":35.65692,"lng":139.70058,"stationId":"shibuya","note":"内科　呼吸器内科　循環器内科　リハビリテーション科"},{"id":"medical-3-6325","name":"医療法人社団アール　青山アール矯正歯科","categoryId":"medical","categoryLabel":"医疗","lat":35.669998,"lng":139.726491,"stationId":"station-003868","note":"矯正歯科"},{"id":"medical-3-6326","name":"医療法人社団アール　青山アール矯正歯科ａｎｎｅｘ","categoryId":"medical","categoryLabel":"医疗","lat":35.669998,"lng":139.726491,"stationId":"station-003868","note":"矯正歯科"},{"id":"medical-2-6382","name":"医療法人社団ウイリング　渋谷ウエストヒルズクリニック","categoryId":"medical","categoryLabel":"医疗","lat":35.657849,"lng":139.69794,"stationId":"shibuya","note":"消化器科　循環器科　内科"},{"id":"medical-2-6405","name":"医療法人社団エヌシー会　メディカルクリニック渋谷","categoryId":"medical","categoryLabel":"医疗","lat":35.655732,"lng":139.703922,"stationId":"shibuya","note":"消化器科　肛門科　内科"},{"id":"medical-2-6409","name":"医療法人社団エムエフシー　銀座ファインケアクリニック渋谷院","categoryId":"medical","categoryLabel":"医疗","lat":35.662119,"lng":139.699985,"stationId":"shibuya","note":"美容皮膚科　形成外科　美容外科"},{"id":"medical-2-6426","name":"医療法人社団オリンピア会　オリンピアクリニック井上眼科","categoryId":"medical","categoryLabel":"医疗","lat":35.669127,"lng":139.703405,"stationId":"station-003844","note":"眼科"},{"id":"medical-2-6460","name":"医療法人社団クリア・スキン　クリア・スキンクリニック西麻布","categoryId":"medical","categoryLabel":"医疗","lat":35.661645,"lng":139.727987,"stationId":"station-003897","note":"皮膚科　形成外科"},{"id":"medical-2-6465","name":"医療法人社団クレアーレ　渋谷整形外科・内科・皮膚科","categoryId":"medical","categoryLabel":"医疗","lat":35.660815,"lng":139.702042,"stationId":"shibuya","note":"内科　皮膚科　整形外科"},{"id":"medical-2-6471","name":"医療法人社団ケアリージェンシー　六本木ヒルズクリニック","categoryId":"medical","categoryLabel":"医疗","lat":35.66044,"lng":139.729372,"stationId":"station-003897","note":"内科　循環器内科　消化器内科　神経内科　呼吸器内科　心療内科　皮膚科　放射線科　整形外科　耳鼻いんこう科　婦人科　泌尿器科　精神科　乳腺外科　糖尿病内科"},{"id":"medical-3-6494","name":"医療法人社団サカイクリニック６２","categoryId":"medical","categoryLabel":"医疗","lat":35.657252,"lng":139.696647,"stationId":"station-003938","note":"美容皮膚科　矯正歯科　歯科口腔外科"},{"id":"medical-2-6513","name":"医療法人社団シーズ・メディカル　シロノクリニック恵比寿","categoryId":"medical","categoryLabel":"医疗","lat":35.650476,"lng":139.712833,"stationId":"station-003991","note":"皮膚科　美容皮膚科"},{"id":"medical-3-6546","name":"医療法人社団ステラ会インターナルアンドオーラルケアアルファクリニック渋谷","categoryId":"medical","categoryLabel":"医疗","lat":35.660433,"lng":139.697653,"stationId":"shibuya","note":"性感染症内科　性感染症泌尿器科　性感染症婦人科　歯科　歯科口腔外科"},{"id":"medical-3-6553","name":"医療法人社団スマイルクリエート　アイウィー矯正歯科","categoryId":"medical","categoryLabel":"医疗","lat":35.67075,"lng":139.707305,"stationId":"station-003844","note":"矯正歯科"},{"id":"medical-3-6554","name":"医療法人社団スマイルクリエート　アネックス神宮前矯正歯科","categoryId":"medical","categoryLabel":"医疗","lat":35.670707,"lng":139.707262,"stationId":"station-003844","note":"矯正歯科"},{"id":"medical-3-6555","name":"医療法人社団スマイルクリエート　神宮前矯正歯科","categoryId":"medical","categoryLabel":"医疗","lat":35.67075,"lng":139.707305,"stationId":"station-003844","note":"矯正歯科"},{"id":"medical-2-6579","name":"医療法人社団セイント会　セイントメディカルクリニック","categoryId":"medical","categoryLabel":"医疗","lat":35.67117,"lng":139.722988,"stationId":"station-003817","note":"婦人科　内科"},{"id":"medical-2-6582","name":"医療法人社団セレス　青山セレスクリニック","categoryId":"medical","categoryLabel":"医疗","lat":35.6716,"lng":139.717209,"stationId":"station-003834","note":"美容外科　形成外科　美容皮膚科　皮膚科　泌尿器科"},{"id":"medical-2-6657","name":"医療法人社団ハーモニー　ナチュラルハーモニークリニック表参道","categoryId":"medical","categoryLabel":"医疗","lat":35.665738,"lng":139.702851,"stationId":"station-003844","note":"美容皮膚科　婦人科　内科"},{"id":"medical-3-6660","name":"医療法人社団バイオファミリー　バイオクリニック東京","categoryId":"medical","categoryLabel":"医疗","lat":35.656299,"lng":139.70508,"stationId":"shibuya","note":"内科　外科　歯科　矯正歯科　小児歯科　歯科口腔外科"},{"id":"medical-3-6701","name":"医療法人社団フェイス会　神宮前　Ｆａｉｔｈ　Ｄｅｎｔａｌ　Ｓａｌｏｎ","categoryId":"medical","categoryLabel":"医疗","lat":35.665151,"lng":139.703259,"stationId":"station-003844","note":"歯科　矯正歯科　小児歯科　歯科口腔外科"},{"id":"medical-2-6737","name":"医療法人社団フローイースト　フローイーストクリニック","categoryId":"medical","categoryLabel":"医疗","lat":35.652582,"lng":139.722393,"stationId":"station-003969","note":"小児科　アレルギー科"},{"id":"medical-2-6718","name":"医療法人社団プラス会　赤井クリニック","categoryId":"medical","categoryLabel":"医疗","lat":35.665897,"lng":139.712675,"stationId":"station-003885","note":"形成外科　皮膚科　美容外科　内科"},{"id":"medical-2-6719","name":"医療法人社団プラタナス　女性のための統合ヘルスクリニック　イーク表参道","categoryId":"medical","categoryLabel":"医疗","lat":35.668154,"lng":139.706824,"stationId":"station-003844","note":"内科　婦人科　乳腺外科　消化器内科　胃腸内科"},{"id":"medical-3-6734","name":"医療法人社団プレゼンス　渋谷ハプラス歯科","categoryId":"medical","categoryLabel":"医疗","lat":35.661067,"lng":139.703313,"stationId":"shibuya","note":"歯科　矯正歯科　小児歯科　歯科口腔外科"},{"id":"medical-2-6745","name":"医療法人社団ベル美容外科クリニック","categoryId":"medical","categoryLabel":"医疗","lat":35.65733,"lng":139.696842,"stationId":"station-003938","note":"皮膚科　美容外科"},{"id":"medical-2-6780","name":"医療法人社団ミナガワ会　ドクターミナガワ渋谷整形","categoryId":"medical","categoryLabel":"医疗","lat":35.656683,"lng":139.701448,"stationId":"shibuya","note":"皮膚科　整形外科　形成外科　美容外科"},{"id":"medical-3-6792","name":"医療法人社団メディカルツリー　表参道ハクデンタルクリニック","categoryId":"medical","categoryLabel":"医疗","lat":35.664407,"lng":139.711523,"stationId":"station-003885","note":"歯科　矯正歯科"},{"id":"medical-2-6798","name":"医療法人社団メンタルブレイン　表参道こころのクリニック","categoryId":"medical","categoryLabel":"医疗","lat":35.66647,"lng":139.705167,"stationId":"station-003844","note":"内科　精神科　リハビリテーション科　心療内科　神経内科"},{"id":"medical-2-6983","name":"医療法人社団一信会　ティーアイクリニック","categoryId":"medical","categoryLabel":"医疗","lat":35.665897,"lng":139.712675,"stationId":"station-003885","note":"内　美皮"},{"id":"medical-2-8031","name":"医療法人社団三幸会　渋谷フェミークリニック","categoryId":"medical","categoryLabel":"医疗","lat":35.661218,"lng":139.701099,"stationId":"shibuya","note":"美容皮膚科　美容外科"},{"id":"medical-2-8035","name":"医療法人社団三昭会　渋谷新南口クリニック","categoryId":"medical","categoryLabel":"医疗","lat":35.656062,"lng":139.7043,"stationId":"shibuya","note":"皮膚泌尿器科　内科"},{"id":"medical-2-8536","name":"医療法人社団上桜会　ゆうメンタルクリニック渋谷院","categoryId":"medical","categoryLabel":"医疗","lat":35.658328,"lng":139.699915,"stationId":"shibuya","note":"精神科　心療内科　神経内科"},{"id":"medical-2-10237","name":"医療法人社団予防会　渋谷クリニック","categoryId":"medical","categoryLabel":"医疗","lat":35.659042,"lng":139.698475,"stationId":"shibuya","note":"性感染内科　婦人科"},{"id":"medical-3-7267","name":"医療法人社団京和会　渋谷ＫＵ歯科","categoryId":"medical","categoryLabel":"医疗","lat":35.655643,"lng":139.696623,"stationId":"station-003938","note":"歯科　矯正歯科　小児歯科　歯科口腔外科"},{"id":"medical-3-7268","name":"医療法人社団京和会　青山ＫＵ歯科","categoryId":"medical","categoryLabel":"医疗","lat":35.671312,"lng":139.720664,"stationId":"station-003834","note":"歯科　矯正歯科　小児歯科　歯科口腔外科"},{"id":"medical-2-8711","name":"医療法人社団仁愛会　仁愛内科クリニック","categoryId":"medical","categoryLabel":"医疗","lat":35.66251,"lng":139.698978,"stationId":"shibuya","note":"内科"},{"id":"medical-2-8710","name":"医療法人社団仁愛会　仁愛医院","categoryId":"medical","categoryLabel":"医疗","lat":35.662487,"lng":139.698758,"stationId":"shibuya","note":"内科"},{"id":"medical-3-7949","name":"医療法人社団佐藤歯科診療所","categoryId":"medical","categoryLabel":"医疗","lat":35.656886,"lng":139.697275,"stationId":"station-003938","note":"歯科　矯正歯科　小児歯科　歯科口腔外科"},{"id":"medical-3-8357","name":"医療法人社団俊英会　斉藤歯科医院","categoryId":"medical","categoryLabel":"医疗","lat":35.66298,"lng":139.702401,"stationId":"shibuya","note":"歯科　矯正歯科　小児歯科　歯科口腔外科"},{"id":"medical-2-7536","name":"医療法人社団健昌会　渋谷三丁目クリニック","categoryId":"medical","categoryLabel":"医疗","lat":35.656954,"lng":139.704024,"stationId":"shibuya","note":"男性内科　呼吸器内科　泌尿器科　麻酔科"},{"id":"medical-3-7560","name":"医療法人社団健青会　南青山デンタルクリニック","categoryId":"medical","categoryLabel":"医疗","lat":35.67128,"lng":139.720587,"stationId":"station-003834","note":"歯科　矯正歯科　小児歯科　歯科口腔外科"},{"id":"medical-3-7561","name":"医療法人社団健青会銀座青山Ｙｏｕ矯正歯科　渋谷医院","categoryId":"medical","categoryLabel":"医疗","lat":35.660171,"lng":139.70504,"stationId":"shibuya","note":"歯科　矯正歯科"},{"id":"medical-3-10125","name":"医療法人社団優創会　あおば歯科医院","categoryId":"medical","categoryLabel":"医疗","lat":35.65698,"lng":139.70498,"stationId":"shibuya","note":"歯科　矯正歯科　小児歯科　歯科口腔外科"},{"id":"medical-2-10091","name":"医療法人社団優恵会　銀座よしえクリニック表参道院","categoryId":"medical","categoryLabel":"医疗","lat":35.667419,"lng":139.711107,"stationId":"station-003885","note":"美容皮膚科　皮膚科　美容外科"},{"id":"medical-3-10108","name":"医療法人社団優新会　オリンピア　ＫＡＩ　デンタルオフィス","categoryId":"medical","categoryLabel":"医疗","lat":35.660489,"lng":139.705029,"stationId":"shibuya","note":"歯科　矯正歯科　小児歯科　歯科口腔外科"},{"id":"medical-3-7675","name":"医療法人社団光揚会　津田歯科医院","categoryId":"medical","categoryLabel":"医疗","lat":35.671172,"lng":139.720749,"stationId":"station-003834","note":"歯科"},{"id":"medical-2-7648","name":"医療法人社団光輝会　麻布光輝クリニック","categoryId":"medical","categoryLabel":"医疗","lat":35.658131,"lng":139.727282,"stationId":"station-003897","note":"内科　皮膚科"},{"id":"medical-3-9814","name":"医療法人社団副啓会　オーラルプロポーションクリニック","categoryId":"medical","categoryLabel":"医疗","lat":35.662339,"lng":139.702483,"stationId":"shibuya","note":"歯科　矯正歯科　小児歯科　歯科口腔外科"},{"id":"medical-2-9234","name":"医療法人社団創友会　ヒラハタクリニック","categoryId":"medical","categoryLabel":"医疗","lat":35.660626,"lng":139.702042,"stationId":"shibuya","note":"内科　消化器内科　胃腸内科"},{"id":"medical-2-9212","name":"医療法人社団創輝会　渋谷駅前レディースクリニック","categoryId":"medical","categoryLabel":"医疗","lat":35.659656,"lng":139.701924,"stationId":"shibuya","note":"婦人科"},{"id":"medical-2-9210","name":"医療法人社団創輝会　ＹＡＧ　ＢＥＡＵＴＹ　ＣＬＩＮＩＣ","categoryId":"medical","categoryLabel":"医疗","lat":35.659656,"lng":139.701924,"stationId":"shibuya","note":"美容皮膚科　美容内科　美容外科　婦人科"},{"id":"medical-2-9150","name":"医療法人社団千修会　日健クリニック","categoryId":"medical","categoryLabel":"医疗","lat":35.658046,"lng":139.696957,"stationId":"station-003938","note":"消化器科　循環器科　内科"},{"id":"medical-2-9166","name":"医療法人社団千翠会　細川眼科クリニック","categoryId":"medical","categoryLabel":"医疗","lat":35.650376,"lng":139.721529,"stationId":"station-003969","note":"眼科"},{"id":"medical-2-9628","name":"医療法人社団南青会　やべ耳鼻咽喉科表参道","categoryId":"medical","categoryLabel":"医疗","lat":35.662781,"lng":139.710781,"stationId":"station-003885","note":"耳鼻いんこう科　アレルギー科"},{"id":"medical-2-9629","name":"医療法人社団南青山アイクリニック　南青山アイクリニック東京","categoryId":"medical","categoryLabel":"医疗","lat":35.667965,"lng":139.71462,"stationId":"station-003885","note":"眼科"},{"id":"medical-3-9679","name":"医療法人社団博史会　神宮前堤歯科医院","categoryId":"medical","categoryLabel":"医疗","lat":35.669379,"lng":139.710903,"stationId":"station-003885","note":"歯科　矯正歯科"},{"id":"medical-3-10140","name":"医療法人社団友伸會　東京プラス歯科　矯正歯科　原宿院","categoryId":"medical","categoryLabel":"医疗","lat":35.668451,"lng":139.706052,"stationId":"station-003844","note":"歯科　矯正歯科　小児歯科　歯科口腔外科"},{"id":"medical-3-10138","name":"医療法人社団友歯会　新青山ビル・ユー歯科","categoryId":"medical","categoryLabel":"医疗","lat":35.6727,"lng":139.725444,"stationId":"station-003817","note":"歯科"},{"id":"medical-2-9592","name":"医療法人社団同心会　ＫＹＢ渋谷クリニック","categoryId":"medical","categoryLabel":"医疗","lat":35.65626,"lng":139.709371,"stationId":"shibuya","note":"内科　消化器内科　胃腸内科　精神科　婦人科"},{"id":"medical-2-10404","name":"医療法人社団和会　渋谷コアクリニック","categoryId":"medical","categoryLabel":"医疗","lat":35.660061,"lng":139.70473,"stationId":"shibuya","note":"内科　循環器内科　精神科　心療内科　乳腺外科　消化器外科　胃腸外科　婦人科"},{"id":"medical-2-9459","name":"医療法人社団哲医会西麻布クリニック","categoryId":"medical","categoryLabel":"医疗","lat":35.660128,"lng":139.725998,"stationId":"station-003897","note":"内科　外科　胃腸内科　肛門外科"},{"id":"medical-3-8096","name":"医療法人社団四誓会原宿外苑矯正歯科","categoryId":"medical","categoryLabel":"医疗","lat":35.672977,"lng":139.703701,"stationId":"station-003828","note":"矯正歯科"},{"id":"medical-3-9245","name":"医療法人社団壮健歯会　入江歯科医院","categoryId":"medical","categoryLabel":"医疗","lat":35.654764,"lng":139.720608,"stationId":"station-003969","note":"歯科　矯正歯科"},{"id":"medical-3-9361","name":"医療法人社団大坪矯正歯科医院","categoryId":"medical","categoryLabel":"医疗","lat":35.664219,"lng":139.712427,"stationId":"station-003885","note":"矯正歯科"},{"id":"medical-3-7720","name":"医療法人社団孝明会　原宿デンタルクリニック","categoryId":"medical","categoryLabel":"医疗","lat":35.667639,"lng":139.704611,"stationId":"station-003844","note":"歯科　小児歯科"},{"id":"medical-3-7714","name":"医療法人社団孝歯会　タカシデンタルクリニック","categoryId":"medical","categoryLabel":"医疗","lat":35.665401,"lng":139.71309,"stationId":"station-003885","note":"歯科　矯正歯科　小児歯科　歯科口腔外科"},{"id":"medical-2-8293","name":"医療法人社団宗友会　パークサイド広尾レディスクリニック","categoryId":"medical","categoryLabel":"医疗","lat":35.654912,"lng":139.722608,"stationId":"station-003969","note":"産婦人科　心療内科　精神科　内科　整形外科　乳腺外科　皮膚科"},{"id":"medical-3-8586","name":"医療法人社団審美会　青山審美会歯科矯正","categoryId":"medical","categoryLabel":"医疗","lat":35.660627,"lng":139.707251,"stationId":"shibuya","note":"歯科　矯正歯科"},{"id":"medical-3-8264","name":"医療法人社団寿幸会　笠原歯科","categoryId":"medical","categoryLabel":"医疗","lat":35.6623,"lng":139.729679,"stationId":"station-003897","note":"歯科　矯正歯科　小児歯科　歯科口腔外科"},{"id":"medical-3-8800","name":"医療法人社団崇敬会　辻デンタルクリニック","categoryId":"medical","categoryLabel":"医疗","lat":35.656766,"lng":139.69536,"stationId":"station-003938","note":"歯科　矯正歯科　小児歯科　歯科口腔外科"},{"id":"medical-3-7187","name":"医療法人社団希会　根間デンタルオフィス北青山","categoryId":"medical","categoryLabel":"医疗","lat":35.670797,"lng":139.718167,"stationId":"station-003834","note":"歯科　矯正歯科　歯科口腔外科"},{"id":"medical-2-7740","name":"医療法人社団幸毅会　渋谷ガーデンクリニック","categoryId":"medical","categoryLabel":"医疗","lat":35.661456,"lng":139.700538,"stationId":"shibuya","note":"内科　眼科"},{"id":"medical-3-7810","name":"医療法人社団康友会　パトリア歯科医院","categoryId":"medical","categoryLabel":"医疗","lat":35.664743,"lng":139.711796,"stationId":"station-003885","note":"歯科"},{"id":"medical-2-7784","name":"医療法人社団康梓会Ｙ’ｓサイエンスクリニック広尾","categoryId":"medical","categoryLabel":"医疗","lat":35.652079,"lng":139.722436,"stationId":"station-003969","note":"内科　心療内科　皮膚科　美容皮膚科　眼科"},{"id":"medical-2-7785","name":"医療法人社団康英会　ユナイテッドクリニック渋谷駅前院","categoryId":"medical","categoryLabel":"医疗","lat":35.659677,"lng":139.698841,"stationId":"shibuya","note":"内科"},{"id":"medical-3-7136","name":"医療法人社団快美会　松野矯正歯科クリニック","categoryId":"medical","categoryLabel":"医疗","lat":35.660061,"lng":139.70473,"stationId":"shibuya","note":"歯科　矯正歯科"},{"id":"medical-2-7400","name":"医療法人社団恵佑会　ひろクリニック","categoryId":"medical","categoryLabel":"医疗","lat":35.659085,"lng":139.69752,"stationId":"shibuya","note":"婦人科　皮膚科　泌尿器科"},{"id":"medical-3-10153","name":"医療法人社団悠温会　今村歯科矯正クリニック","categoryId":"medical","categoryLabel":"医疗","lat":35.656114,"lng":139.707932,"stationId":"shibuya","note":"矯正歯科"},{"id":"medical-2-6881","name":"医療法人社団愛燦会　青山からだのクリニック","categoryId":"medical","categoryLabel":"医疗","lat":35.666215,"lng":139.717103,"stationId":"station-003885","note":"内科　形成外科　美容外科　皮膚科　漢方内科"},{"id":"medical-2-8199","name":"医療法人社団慈有会　きくち耳鼻咽喉科","categoryId":"medical","categoryLabel":"医疗","lat":35.66298,"lng":139.702401,"stationId":"shibuya","note":"耳鼻いんこう科"},{"id":"medical-3-7461","name":"医療法人社団慧生会２４６外苑前歯科","categoryId":"medical","categoryLabel":"医疗","lat":35.670369,"lng":139.716565,"stationId":"station-003834","note":"歯科　矯正歯科　小児歯科　歯科口腔外科"},{"id":"medical-2-7425","name":"医療法人社団慶緒会　南平台緒方クリニック","categoryId":"medical","categoryLabel":"医疗","lat":35.655285,"lng":139.695928,"stationId":"station-003938","note":"外科　アレルギー科　皮膚科　形成外科　美容外科"},{"id":"medical-2-9885","name":"医療法人社団放栄会　じあいクリニック渋谷","categoryId":"medical","categoryLabel":"医疗","lat":35.655732,"lng":139.703922,"stationId":"shibuya","note":"内科　放射線科"},{"id":"medical-2-9888","name":"医療法人社団放栄会メディカルスキャニング恵比寿","categoryId":"medical","categoryLabel":"医疗","lat":35.651788,"lng":139.709307,"stationId":"station-003991","note":"内科　放射線科"},{"id":"medical-2-8613","name":"医療法人社団新宿レディースクリニック会　渋谷レディースクリニック","categoryId":"medical","categoryLabel":"医疗","lat":35.660581,"lng":139.705866,"stationId":"shibuya","note":"皮膚科　泌尿器科　産婦人科"},{"id":"medical-3-9976","name":"医療法人社団明英会　貴美島デンタルオフィス","categoryId":"medical","categoryLabel":"医疗","lat":35.655024,"lng":139.723669,"stationId":"station-003969","note":"歯科　矯正歯科　小児歯科　歯科口腔外科"},{"id":"medical-2-8862","name":"医療法人社団星美会　青山ヒフ科クリニック","categoryId":"medical","categoryLabel":"医疗","lat":35.66322,"lng":139.710246,"stationId":"station-003885","note":"皮膚科"},{"id":"medical-3-10458","name":"医療法人社団昴会　南青山林歯科クリニック","categoryId":"medical","categoryLabel":"医疗","lat":35.670049,"lng":139.718058,"stationId":"station-003834","note":"歯科"},{"id":"medical-2-8420","name":"医療法人社団曙光会　代官山内科クリニック","categoryId":"medical","categoryLabel":"医疗","lat":35.651459,"lng":139.702812,"stationId":"station-003985","note":"内科　皮膚科"},{"id":"medical-3-6916","name":"医療法人社団杏林会　青山外苑矯正歯科","categoryId":"medical","categoryLabel":"医疗","lat":35.670022,"lng":139.717392,"stationId":"station-003834","note":"歯科　矯正歯科"},{"id":"medical-2-9522","name":"医療法人社団東京桜十字　桜十字渋谷バースクリニック","categoryId":"medical","categoryLabel":"医疗","lat":35.66251,"lng":139.698978,"stationId":"shibuya","note":"内科　皮膚科　産婦人科　産婦人科　不妊治療　産婦人科　生殖医療　産婦人科　不妊治療　生殖医療"},{"id":"medical-3-9509","name":"医療法人社団東杏会　ベルエアガーデン歯科","categoryId":"medical","categoryLabel":"医疗","lat":35.666682,"lng":139.710068,"stationId":"station-003885","note":"歯科"},{"id":"medical-3-9554","name":"医療法人社団東邦竹水会　青山ウエスト歯科","categoryId":"medical","categoryLabel":"医疗","lat":35.671344,"lng":139.713215,"stationId":"station-003834","note":"歯科"},{"id":"medical-2-8502","name":"医療法人社団松六会　道玄坂糸井眼科医院","categoryId":"medical","categoryLabel":"医疗","lat":35.657458,"lng":139.698931,"stationId":"shibuya","note":"眼科"},{"id":"medical-2-8492","name":"医療法人社団松徳会　クリニックスタイル・エム","categoryId":"medical","categoryLabel":"医疗","lat":35.666682,"lng":139.710068,"stationId":"station-003885","note":"形成外科　皮膚科"},{"id":"medical-2-8493","name":"医療法人社団松徳会　松倉クリニック","categoryId":"medical","categoryLabel":"医疗","lat":35.666682,"lng":139.710068,"stationId":"station-003885","note":"内科　皮膚科　形成外科"},{"id":"medical-2-8496","name":"医療法人社団松柏会　藤田クリニック","categoryId":"medical","categoryLabel":"医疗","lat":35.670829,"lng":139.719589,"stationId":"station-003834","note":"内科　胃腸科　肛門科　小児科"},{"id":"medical-3-7305","name":"医療法人社団桐栄会　コルテス　デンティスタ表参道","categoryId":"medical","categoryLabel":"医疗","lat":35.663578,"lng":139.715329,"stationId":"station-003885","note":"歯科　矯正歯科　小児歯科　歯科口腔外科"},{"id":"medical-2-7996","name":"医療法人社団桜伸会　さくらクリニック","categoryId":"medical","categoryLabel":"医疗","lat":35.661113,"lng":139.702625,"stationId":"shibuya","note":"内科　皮膚科"},{"id":"medical-3-8005","name":"医療法人社団桜路会　ＬＵＣＡ　ｄｅｎｔａｌ　ｃｌｉｎｉｃ","categoryId":"medical","categoryLabel":"医疗","lat":35.67049,"lng":139.719624,"stationId":"station-003834","note":"歯科　矯正歯科　小児歯科　歯科口腔外科"},{"id":"medical-2-8275","name":"医療法人社団樹医会　渋谷胃腸クリニック","categoryId":"medical","categoryLabel":"医疗","lat":35.657755,"lng":139.695666,"stationId":"station-003938","note":"内科　放射線科　消化器内科　胃腸内科"},{"id":"medical-3-8881","name":"医療法人社団正衛会　田中歯科医院","categoryId":"medical","categoryLabel":"医疗","lat":35.6727,"lng":139.725444,"stationId":"station-003817","note":"歯科"},{"id":"medical-3-8136","name":"医療法人社団歯周会　六本木ヒルズ西堀歯科","categoryId":"medical","categoryLabel":"医疗","lat":35.66044,"lng":139.729372,"stationId":"station-003897","note":"歯科　矯正歯科　小児歯科　歯科口腔外科"},{"id":"medical-3-8132","name":"医療法人社団歯科タナカ　渋谷宮益坂歯科","categoryId":"medical","categoryLabel":"医疗","lat":35.659798,"lng":139.702926,"stationId":"shibuya","note":"歯科　矯正歯科　小児歯科　歯科口腔外科"},{"id":"medical-3-8133","name":"医療法人社団歯科タナカ　渋谷歯科タナカ","categoryId":"medical","categoryLabel":"医疗","lat":35.661218,"lng":139.701099,"stationId":"shibuya","note":"歯科　矯正歯科　小児歯科　歯科口腔外科"},{"id":"medical-2-8768","name":"医療法人社団水聖会　メディカルスキャニング渋谷","categoryId":"medical","categoryLabel":"医疗","lat":35.655732,"lng":139.703922,"stationId":"shibuya","note":"内科　放射線科"},{"id":"medical-3-10244","name":"医療法人社団洋空会　有栖川デンタルクリニック","categoryId":"medical","categoryLabel":"医疗","lat":35.653955,"lng":139.725961,"stationId":"station-003969","note":"歯科"},{"id":"medical-2-8954","name":"医療法人社団清洋会　八木クリニック","categoryId":"medical","categoryLabel":"医疗","lat":35.661914,"lng":139.713588,"stationId":"station-003885","note":"内科　皮膚科"},{"id":"medical-2-8946","name":"医療法人社団清藤会　渋谷道玄坂クリニック","categoryId":"medical","categoryLabel":"医疗","lat":35.659945,"lng":139.697979,"stationId":"shibuya","note":"内科　耳鼻いんこう科　皮膚科　消化器内科　胃腸内科"},{"id":"medical-3-8352","name":"医療法人社団渋谷矯正歯科","categoryId":"medical","categoryLabel":"医疗","lat":35.660317,"lng":139.704985,"stationId":"shibuya","note":"歯科　矯正歯科　内科"},{"id":"medical-2-8392","name":"医療法人社団潤平会　岡本平次クリニック","categoryId":"medical","categoryLabel":"医疗","lat":35.665228,"lng":139.702625,"stationId":"station-003844","note":"胃腸科　麻酔科"},{"id":"medical-2-7628","name":"医療法人社団玄英会　渋谷ウエストクリニック","categoryId":"medical","categoryLabel":"医疗","lat":35.657901,"lng":139.699513,"stationId":"shibuya","note":"皮膚科　泌尿器科"},{"id":"medical-3-8790","name":"医療法人社団瑞の木会　広尾ほしの矯正歯科","categoryId":"medical","categoryLabel":"医疗","lat":35.652079,"lng":139.722436,"stationId":"station-003969","note":"歯科　矯正歯科"},{"id":"medical-3-8972","name":"医療法人社団生美会　Ｓｍｉｌｅ　Ａｃｃｅｓｓ　矯正歯科","categoryId":"medical","categoryLabel":"医疗","lat":35.660294,"lng":139.705288,"stationId":"shibuya","note":"矯正歯科"},{"id":"medical-3-9722","name":"医療法人社団白正会　ティースアートデンタルクリニック","categoryId":"medical","categoryLabel":"医疗","lat":35.656361,"lng":139.699415,"stationId":"shibuya","note":"歯科　矯正歯科"},{"id":"medical-3-9715","name":"医療法人社団白研会　Ｓ　Ｄｅｎｔａｌ　Ｃｌｉｎｉｃ","categoryId":"medical","categoryLabel":"医疗","lat":35.659906,"lng":139.702612,"stationId":"shibuya","note":"歯科"},{"id":"medical-3-9738","name":"医療法人社団白翔会　渋谷メトロプラザ歯科","categoryId":"medical","categoryLabel":"医疗","lat":35.661126,"lng":139.70285,"stationId":"shibuya","note":"歯科　矯正歯科　小児歯科　歯科口腔外科"},{"id":"medical-3-9709","name":"医療法人社団白雲会　アイル歯科診療所","categoryId":"medical","categoryLabel":"医疗","lat":35.668606,"lng":139.707244,"stationId":"station-003844","note":"歯科"},{"id":"medical-3-9793","name":"医療法人社団百星会　表参道医科歯科クリニック","categoryId":"medical","categoryLabel":"医疗","lat":35.665946,"lng":139.710306,"stationId":"station-003885","note":"皮膚科　歯科"},{"id":"medical-2-9442","name":"医療法人社団直悠会　にしたんクリニック","categoryId":"medical","categoryLabel":"医疗","lat":35.660765,"lng":139.697405,"stationId":"shibuya","note":"内科"},{"id":"medical-2-10498","name":"医療法人社団眞佑会　肌クリニック表参道皮膚科","categoryId":"medical","categoryLabel":"医疗","lat":35.668451,"lng":139.706052,"stationId":"station-003844","note":"美容皮膚科　皮膚科　形成外科"},{"id":"medical-3-8674","name":"医療法人社団真友会矢野矯正歯科クリニック","categoryId":"medical","categoryLabel":"医疗","lat":35.660851,"lng":139.699001,"stationId":"shibuya","note":"矯正歯科"},{"id":"medical-3-8667","name":"医療法人社団真善美会南青山矯正歯科クリニック","categoryId":"medical","categoryLabel":"医疗","lat":35.669092,"lng":139.716322,"stationId":"station-003834","note":"歯科　矯正歯科"},{"id":"medical-3-8677","name":"医療法人社団真洋会　天野歯科","categoryId":"medical","categoryLabel":"医疗","lat":35.662781,"lng":139.710781,"stationId":"station-003885","note":"歯科"},{"id":"medical-2-8650","name":"医療法人社団真貴志会　南青山アンティーク通りクリニック","categoryId":"medical","categoryLabel":"医疗","lat":35.660765,"lng":139.713325,"stationId":"station-003885","note":"精神科　心療内科　神経科"},{"id":"medical-2-9388","name":"医療法人社団知泉会　鴨下眼科クリニック","categoryId":"medical","categoryLabel":"医疗","lat":35.662474,"lng":139.729889,"stationId":"station-003897","note":"眼科"},{"id":"medical-3-7290","name":"医療法人社団矯晶会　杉山矯正歯科医院","categoryId":"medical","categoryLabel":"医疗","lat":35.668768,"lng":139.711215,"stationId":"station-003885","note":"矯正歯科"},{"id":"medical-3-7289","name":"医療法人社団矯栄会　広瀬矯正歯科六本木クリニック","categoryId":"medical","categoryLabel":"医疗","lat":35.663277,"lng":139.728094,"stationId":"station-003897","note":"矯正歯科"},{"id":"medical-2-9122","name":"医療法人社団石禮会　石井クリニック","categoryId":"medical","categoryLabel":"医疗","lat":35.6727,"lng":139.725444,"stationId":"station-003817","note":"皮膚科"},{"id":"medical-2-7603","name":"医療法人社団研美会　青山研美会クリニック","categoryId":"medical","categoryLabel":"医疗","lat":35.671921,"lng":139.714227,"stationId":"station-003834","note":"美容皮膚科　皮膚科　形成外科　美容外科"},{"id":"medical-2-10376","name":"医療法人社団礼恵会　むすび葉ゆうクリニック","categoryId":"medical","categoryLabel":"医疗","lat":35.658129,"lng":139.719662,"stationId":"station-003969","note":"内科　整形外科　皮膚科"},{"id":"medical-2-10375","name":"医療法人社団礼恵会　むすび葉クリニック渋谷","categoryId":"medical","categoryLabel":"医疗","lat":35.654661,"lng":139.709151,"stationId":"shibuya","note":"内科　神経内科　皮膚科"},{"id":"medical-3-9817","name":"医療法人社団福啓会オーラルデザインクリニック渋谷歯科・矯正歯科","categoryId":"medical","categoryLabel":"医疗","lat":35.658213,"lng":139.696312,"stationId":"station-003938","note":"歯科　矯正歯科"},{"id":"medical-3-8982","name":"医療法人社団精密審美会　表参道しらゆり歯科","categoryId":"medical","categoryLabel":"医疗","lat":35.66609,"lng":139.708616,"stationId":"station-003885","note":"歯科　矯正歯科　小児歯科　歯科口腔外科"},{"id":"medical-2-8395","name":"医療法人社団純慶会新青山クリニック","categoryId":"medical","categoryLabel":"医疗","lat":35.6727,"lng":139.725444,"stationId":"station-003817","note":"内科　胃腸内科"},{"id":"medical-2-9942","name":"医療法人社団紡潤会　ウィルＡＧＡクリニック","categoryId":"medical","categoryLabel":"医疗","lat":35.665196,"lng":139.712957,"stationId":"station-003885","note":"皮膚科"},{"id":"medical-3-8120","name":"医療法人社団紫雄会　東急プラザ酒井歯科室","categoryId":"medical","categoryLabel":"医疗","lat":35.657665,"lng":139.700313,"stationId":"shibuya","note":"歯科　歯科口腔外科"},{"id":"medical-3-9445","name":"医療法人社団綴周会　南青山デンタルオフィス","categoryId":"medical","categoryLabel":"医疗","lat":35.671267,"lng":139.723949,"stationId":"station-003817","note":"歯科"},{"id":"medical-2-9772","name":"医療法人社団美匠会　シエルクリニック","categoryId":"medical","categoryLabel":"医疗","lat":35.66736,"lng":139.729644,"stationId":"station-003868","note":"美容外科　形成外科　皮膚科"},{"id":"medical-2-9780","name":"医療法人社団美翔会　Ｓ−Ｌａｂｏ　ｃｌｉｎｉｃ　渋谷院","categoryId":"medical","categoryLabel":"医疗","lat":35.660765,"lng":139.697405,"stationId":"shibuya","note":"美容皮膚科"},{"id":"medical-2-9768","name":"医療法人社団美高会　タカミクリニック南青山","categoryId":"medical","categoryLabel":"医疗","lat":35.665401,"lng":139.71309,"stationId":"station-003885","note":"皮膚科　美容皮膚科"},{"id":"medical-2-9769","name":"医療法人社団美高会タカミクリニックモンテプラザ","categoryId":"medical","categoryLabel":"医疗","lat":35.665093,"lng":139.713722,"stationId":"station-003885","note":"皮膚科　美容皮膚科"},{"id":"medical-3-8788","name":"医療法人社団翠琳会林デンタルオフィス","categoryId":"medical","categoryLabel":"医疗","lat":35.674952,"lng":139.706251,"stationId":"station-003780","note":"歯科"},{"id":"medical-3-9009","name":"医療法人社団聖優会　渋谷デンタルクリニック","categoryId":"medical","categoryLabel":"医疗","lat":35.659652,"lng":139.702017,"stationId":"shibuya","note":"歯科　矯正歯科　小児歯科"},{"id":"medical-3-9010","name":"医療法人社団聖優会　青山デンタルクリニック","categoryId":"medical","categoryLabel":"医疗","lat":35.672893,"lng":139.723642,"stationId":"station-003817","note":"歯科　矯正歯科　小児歯科"},{"id":"medical-3-8989","name":"医療法人社団聖雅会　原田デンタルオフィス表参道","categoryId":"medical","categoryLabel":"医疗","lat":35.667749,"lng":139.706321,"stationId":"station-003844","note":"歯科　矯正歯科　歯科口腔外科"},{"id":"medical-3-6953","name":"医療法人社団育芽会　石井歯科医院","categoryId":"medical","categoryLabel":"医疗","lat":35.660815,"lng":139.702042,"stationId":"shibuya","note":"矯正歯科　小児歯科"},{"id":"medical-2-10342","name":"医療法人社団良徳会ＲＣクリニック","categoryId":"medical","categoryLabel":"医疗","lat":35.670653,"lng":139.714021,"stationId":"station-003834","note":"内科　皮膚科"},{"id":"medical-2-7907","name":"医療法人社団荒川クリニック","categoryId":"medical","categoryLabel":"医疗","lat":35.666309,"lng":139.70887,"stationId":"station-003885","note":"胃腸科　肛門科　肛門外科"},{"id":"medical-2-7909","name":"医療法人社団行基会　川村総合診療院","categoryId":"medical","categoryLabel":"医疗","lat":35.669938,"lng":139.717155,"stationId":"station-003834","note":"心療内科　精神科　脳神経内科　内科"},{"id":"medical-2-6921","name":"医療法人社団衣明会　衣理クリニック表参道","categoryId":"medical","categoryLabel":"医疗","lat":35.665966,"lng":139.711525,"stationId":"station-003885","note":"内科　皮膚科"},{"id":"medical-3-9794","name":"医療法人社団表参道審美会表参道デンタルクリニック","categoryId":"medical","categoryLabel":"医疗","lat":35.667144,"lng":139.713528,"stationId":"station-003885","note":"歯科　矯正歯科　小児歯科　歯科口腔外科"},{"id":"medical-3-10203","name":"医療法人社団裕久会　銀座デンタルホワイト　渋谷院","categoryId":"medical","categoryLabel":"医疗","lat":35.659656,"lng":139.701924,"stationId":"shibuya","note":"歯科"},{"id":"medical-2-9036","name":"医療法人社団誠賀会　渋谷ステーションクリニック","categoryId":"medical","categoryLabel":"医疗","lat":35.65988,"lng":139.703668,"stationId":"shibuya","note":"内科　泌尿器科"},{"id":"medical-2-7214","name":"医療法人社団輝咲会　スキンリファインクリニック広尾","categoryId":"medical","categoryLabel":"医疗","lat":35.652079,"lng":139.722436,"stationId":"station-003969","note":"美容皮膚科　皮膚科　美容外科"},{"id":"medical-2-7211","name":"医療法人社団輝幸会　足のクリニック　表参道","categoryId":"medical","categoryLabel":"医疗","lat":35.663699,"lng":139.71208,"stationId":"station-003885","note":"形成外科　整形外科　皮膚科　リウマチ科"},{"id":"medical-3-6970","name":"医療法人社団郁進会　原宿駅前歯科","categoryId":"medical","categoryLabel":"医疗","lat":35.671684,"lng":139.703268,"stationId":"station-003828","note":"歯科　小児歯科　歯科口腔外科"},{"id":"medical-2-9472","name":"医療法人社団鉄結会　アイシークリニック渋谷院","categoryId":"medical","categoryLabel":"医疗","lat":35.656263,"lng":139.705081,"stationId":"shibuya","note":"形成外科"},{"id":"medical-3-7143","name":"医療法人社団開成会渋谷公園通り歯科クリニック","categoryId":"medical","categoryLabel":"医疗","lat":35.662205,"lng":139.699536,"stationId":"shibuya","note":"歯科　矯正歯科　小児歯科　歯科口腔外科"},{"id":"medical-2-10224","name":"医療法人社団雄秀会　渋谷文化村通りレディスクリニック","categoryId":"medical","categoryLabel":"医疗","lat":35.660023,"lng":139.696053,"stationId":"station-003938","note":"女性泌尿器科　内科　皮膚科　産婦人科　婦人科"},{"id":"medical-3-10217","name":"医療法人社団雄貴会　原宿石川歯科医院","categoryId":"medical","categoryLabel":"医疗","lat":35.672736,"lng":139.70395,"stationId":"station-003828","note":"歯科　矯正歯科"},{"id":"medical-2-9136","name":"医療法人社団雪焔会　トイトイトイクリニック","categoryId":"medical","categoryLabel":"医疗","lat":35.669932,"lng":139.703129,"stationId":"station-003828","note":"美容皮膚科"},{"id":"medical-3-9089","name":"医療法人社団青仁会　青山一丁目歯科クリニック","categoryId":"medical","categoryLabel":"医疗","lat":35.672383,"lng":139.722105,"stationId":"station-003817","note":"歯科　矯正歯科　小児歯科　歯科口腔外科"},{"id":"medical-3-9088","name":"医療法人社団青仁会　ＡＯ１　ＤＥＮＴＡＬ　ＣＬＩＮＩＣ","categoryId":"medical","categoryLabel":"医疗","lat":35.672821,"lng":139.723437,"stationId":"station-003817","note":"歯科　矯正歯科　小児歯科　歯科口腔外科"},{"id":"medical-2-9090","name":"医療法人社団青南会　青山内科医院","categoryId":"medical","categoryLabel":"医疗","lat":35.664219,"lng":139.712427,"stationId":"station-003885","note":"内科　消化器内科　外科　肛門科　糖尿病内科　循環器内科"},{"id":"medical-2-9095","name":"医療法人社団青友会　岡林医院","categoryId":"medical","categoryLabel":"医疗","lat":35.663891,"lng":139.712489,"stationId":"station-003885","note":"内科　皮膚科"},{"id":"medical-3-9080","name":"医療法人社団青山創心会　萬屋歯科医院","categoryId":"medical","categoryLabel":"医疗","lat":35.6727,"lng":139.725444,"stationId":"station-003817","note":"歯科"},{"id":"medical-3-9079","name":"医療法人社団青山歯科医院","categoryId":"medical","categoryLabel":"医疗","lat":35.664219,"lng":139.712427,"stationId":"station-003885","note":"歯科　小児歯科　歯科口腔外科"},{"id":"medical-2-9081","name":"医療法人社団青山通り皮フ科","categoryId":"medical","categoryLabel":"医疗","lat":35.665767,"lng":139.713393,"stationId":"station-003885","note":"皮膚科　美容皮膚科"},{"id":"medical-2-9087","name":"医療法人社団青真会　青山エルクリニック","categoryId":"medical","categoryLabel":"医疗","lat":35.662406,"lng":139.711599,"stationId":"station-003885","note":"皮膚科　形成外科"},{"id":"medical-2-9100","name":"医療法人社団青翔会　山川耳鼻咽喉科医院","categoryId":"medical","categoryLabel":"医疗","lat":35.670774,"lng":139.717061,"stationId":"station-003834","note":"耳鼻いんこう科　小児科　気管食道科　アレルギー科"},{"id":"medical-3-7619","name":"医療法人社団顕匠会　匠デンタルクリニック","categoryId":"medical","categoryLabel":"医疗","lat":35.657913,"lng":139.704986,"stationId":"shibuya","note":"歯科　矯正歯科　小児歯科　歯科口腔外科"},{"id":"medical-3-9449","name":"医療法人社団鶴寿会　えのき歯科原宿クリニック","categoryId":"medical","categoryLabel":"医疗","lat":35.670059,"lng":139.708237,"stationId":"station-003844","note":"歯科　矯正歯科　小児歯科"},{"id":"medical-2-9961","name":"医療法人社団麻心会　麻布メンタルクリニック","categoryId":"medical","categoryLabel":"医疗","lat":35.661339,"lng":139.721674,"stationId":"station-003868","note":"心療内科　精神科"},{"id":"medical-3-6132","name":"医療法人社団ＢＬＡＮＣＨＥイトウブランシェデンタルクリニック","categoryId":"medical","categoryLabel":"医疗","lat":35.658131,"lng":139.727282,"stationId":"station-003897","note":"歯科　矯正歯科　小児歯科　歯科口腔外科"},{"id":"medical-2-6134","name":"医療法人社団ＢＯＤＨＩ　ＡＭＳＥ代官山クリニック","categoryId":"medical","categoryLabel":"医疗","lat":35.651459,"lng":139.702812,"stationId":"station-003985","note":"整形外科　リハビリテーション科"},{"id":"medical-2-6135","name":"医療法人社団ＢＯＤＨＩ　Ｄｒ．ＫＡＫＵＫＯ　スポーツクリニック","categoryId":"medical","categoryLabel":"医疗","lat":35.651459,"lng":139.702812,"stationId":"station-003985","note":"整形外科　リハビリテーション科"},{"id":"medical-3-6145","name":"医療法人社団Ｃｏｓｍｅ　Ｄｅｎｔａｌ　Ｃｏｎｃｅｐｔ　青山一丁目タワーデンタルサロン","categoryId":"medical","categoryLabel":"医疗","lat":35.671659,"lng":139.725428,"stationId":"station-003817","note":"歯科　矯正歯科　小児歯科　歯科口腔外科"},{"id":"medical-2-6151","name":"医療法人社団ＤＡＰ　北青山ディークリニック","categoryId":"medical","categoryLabel":"医疗","lat":35.670405,"lng":139.713506,"stationId":"station-003834","note":"内科　外科　形成外科　脳神経外科　皮膚科　婦人科　循環器内科　消化器内科　胃腸内科"},{"id":"medical-3-6175","name":"医療法人社団ＨＤＣ広尾デンタルクリニック","categoryId":"medical","categoryLabel":"医疗","lat":35.650506,"lng":139.721907,"stationId":"station-003969","note":"歯科　矯正歯科"},{"id":"medical-3-6198","name":"医療法人社団ＫＥＩメディカル　青山外苑東通り歯科クリニック","categoryId":"medical","categoryLabel":"医疗","lat":35.671547,"lng":139.725982,"stationId":"station-003817","note":"歯科　矯正歯科　小児歯科　歯科口腔外科"},{"id":"medical-3-6217","name":"医療法人社団ＬＴ　ＬＴデンタルサロン六本木","categoryId":"medical","categoryLabel":"医疗","lat":35.66048,"lng":139.725203,"stationId":"station-003897","note":"歯科　矯正歯科　小児歯科　歯科口腔外科"},{"id":"medical-2-6222","name":"医療法人社団ＭＥＤＩＡＧＥ　メディアージュクリニック青山","categoryId":"medical","categoryLabel":"医疗","lat":35.662855,"lng":139.709468,"stationId":"station-003885","note":"内科　産婦人科　美容外科　アレルギー科　皮膚科"},{"id":"medical-2-6272","name":"医療法人社団Ｓ　Ｓ　ＢＥＡＵＴＹ　ＣＬＩＮＩＣ","categoryId":"medical","categoryLabel":"医疗","lat":35.660174,"lng":139.696281,"stationId":"station-003938","note":"美容皮膚科"},{"id":"medical-2-6285","name":"医療法人社団ＳＭＩＬＥＬＡＮＤ　ＢＩＡＮＣＡ　ＣＬＩＮＩＣ　表参道","categoryId":"medical","categoryLabel":"医疗","lat":35.661685,"lng":139.712363,"stationId":"station-003885","note":"皮膚科　形成外科　美容外科　美容皮膚科"},{"id":"medical-3-6290","name":"医療法人社団ＳＰＥＥＤあおと矯正歯科渋谷分室","categoryId":"medical","categoryLabel":"医疗","lat":35.659042,"lng":139.698475,"stationId":"shibuya","note":"歯科　矯正歯科　歯科口腔外科"},{"id":"medical-2-4919","name":"医療法人財団　順和会　山王バースセンター","categoryId":"medical","categoryLabel":"医疗","lat":35.669473,"lng":139.727033,"stationId":"station-003868","note":"産科"},{"id":"medical-2-4920","name":"医療法人財団　順和会　山王メディカルセンター","categoryId":"medical","categoryLabel":"医疗","lat":35.672334,"lng":139.72634,"stationId":"station-003817","note":"内科　呼吸器内科　消化器内科　循環器内科　アレルギー内科　脳神経内科　糖尿病内分泌代謝内科　外科　消化器外科　血管外科　乳腺外科　婦人科　放射線科　脳神経外科　腎臓内科　人工透析　リウマチ科　心療内科"},{"id":"medical-1-4921","name":"医療法人財団　順和会　山王病院","categoryId":"medical","categoryLabel":"医疗","lat":35.669473,"lng":139.727033,"stationId":"station-003868","note":"内科　呼吸器内科　消化器内科　循環器内科　小児科　脳神経内科　アレルギー科　リウマチ科　外科　消化器外科　乳腺外科　整形外科　脳神経外科　大腸肛門外科　産科　婦人科　産婦人科　不妊治療　産婦人科　生殖医療　産婦人科　内視鏡　耳鼻いんこう科　皮膚科"},{"id":"medical-2-5019","name":"医療法人財団放友クリニック","categoryId":"medical","categoryLabel":"医疗","lat":35.663321,"lng":139.696039,"stationId":"shibuya","note":"呼吸器科　消化器科　循環器科　内科　放射線科"},{"id":"medical-3-4967","name":"医療法人財団興学会青山歯科診療所","categoryId":"medical","categoryLabel":"医疗","lat":35.671216,"lng":139.718612,"stationId":"station-003834","note":"歯科　矯正歯科　小児歯科"},{"id":"medical-2-4964","name":"医療法人財団花椿会　南青山皮膚科スキンナビクリニック","categoryId":"medical","categoryLabel":"医疗","lat":35.663578,"lng":139.715329,"stationId":"station-003885","note":"皮膚科　美容皮膚科"},{"id":"medical-2-4999","name":"医療法人財団青輝会　ＡＯＨＡＬクリニック","categoryId":"medical","categoryLabel":"医疗","lat":35.659155,"lng":139.728191,"stationId":"station-003897","note":"美容皮膚科　皮膚科　形成外科　歯科　小児歯科　矯正歯科　歯科口腔外科"},{"id":"medical-2-16306","name":"千春皮フ科クリニック　広尾院","categoryId":"medical","categoryLabel":"医疗","lat":35.650552,"lng":139.721042,"stationId":"station-003969","note":"美容皮膚科　皮膚科　小児皮膚科　形成外科"},{"id":"medical-3-19170","name":"半田歯科","categoryId":"medical","categoryLabel":"医疗","lat":35.663821,"lng":139.699292,"stationId":"shibuya","note":"歯科"},{"id":"medical-2-18748","name":"南の風メンタル","categoryId":"medical","categoryLabel":"医疗","lat":35.67128,"lng":139.720587,"stationId":"station-003834","note":"精神科　心療内科　内科"},{"id":"medical-2-18747","name":"南クリニック渋谷","categoryId":"medical","categoryLabel":"医疗","lat":35.660986,"lng":139.702054,"stationId":"shibuya","note":"皮膚科　形成外科　美容外科"},{"id":"medical-3-18808","name":"南平台歯科クリニック","categoryId":"medical","categoryLabel":"医疗","lat":35.655304,"lng":139.695365,"stationId":"station-003938","note":"歯科　矯正歯科　小児歯科　歯科口腔外科"},{"id":"medical-2-18772","name":"南青山おおつかクリニック","categoryId":"medical","categoryLabel":"医疗","lat":35.666271,"lng":139.718032,"stationId":"station-003834","note":"内科　小児科　消化器科"},{"id":"medical-2-18773","name":"南青山さとう内科","categoryId":"medical","categoryLabel":"医疗","lat":35.660352,"lng":139.715231,"stationId":"station-003885","note":"内科　消化器科　外科"},{"id":"medical-3-18771","name":"南青山アイリス歯科","categoryId":"medical","categoryLabel":"医疗","lat":35.658625,"lng":139.718674,"stationId":"station-003969","note":"歯科　矯正歯科　小児歯科　歯科口腔外科"},{"id":"medical-2-18774","name":"南青山スキンケアクリニック","categoryId":"medical","categoryLabel":"医疗","lat":35.66035,"lng":139.713229,"stationId":"station-003885","note":"内科　小児科　形成外科　皮膚科　婦人科　漢方内科　アレルギー科　美容皮膚科"},{"id":"medical-2-18775","name":"南青山ホームクリニック","categoryId":"medical","categoryLabel":"医疗","lat":35.671029,"lng":139.728368,"stationId":"station-003817","note":"内科"},{"id":"medical-2-18776","name":"南青山リセ　渋谷美容外科クリニック","categoryId":"medical","categoryLabel":"医疗","lat":35.659798,"lng":139.702926,"stationId":"shibuya","note":"美容皮膚科　皮膚科　形成外科　美容外科"},{"id":"medical-3-18768","name":"南青山・添野歯科医院","categoryId":"medical","categoryLabel":"医疗","lat":35.66103,"lng":139.71436,"stationId":"station-003885","note":"歯科　小児歯科　歯科口腔外科"},{"id":"medical-2-18779","name":"南青山内科クリニック","categoryId":"medical","categoryLabel":"医疗","lat":35.658982,"lng":139.717445,"stationId":"station-003885","note":"内科　腎臓内科　人工透析内科"},{"id":"medical-2-18777","name":"南青山往診クリニック","categoryId":"medical","categoryLabel":"医疗","lat":35.661451,"lng":139.712126,"stationId":"station-003885","note":"内科　小児科"},{"id":"medical-2-18780","name":"南青山皮フ科","categoryId":"medical","categoryLabel":"医疗","lat":35.668532,"lng":139.725857,"stationId":"station-003868","note":"皮膚科　婦人科"},{"id":"medical-3-18781","name":"南青山訪問歯科オフィス（往診専門）","categoryId":"medical","categoryLabel":"医疗","lat":35.666594,"lng":139.717095,"stationId":"station-003834","note":"歯科　矯正歯科　小児歯科"},{"id":"medical-3-18778","name":"南青山貴寿デンタルオフィス","categoryId":"medical","categoryLabel":"医疗","lat":35.668236,"lng":139.726971,"stationId":"station-003868","note":"歯科　矯正歯科　小児歯科"},{"id":"medical-2-18769","name":"南青山ＨＡＡＢビューティ−クリニック","categoryId":"medical","categoryLabel":"医疗","lat":35.670829,"lng":139.719589,"stationId":"station-003834","note":"美容内科　美容皮膚科"},{"id":"medical-2-18770","name":"南青山ＴＯＫＵＮＡＫＡクリニック","categoryId":"medical","categoryLabel":"医疗","lat":35.664528,"lng":139.714714,"stationId":"station-003885","note":"皮膚科　形成外科　美容外科　眼科　外科"},{"id":"medical-3-12466","name":"原宿こども歯科","categoryId":"medical","categoryLabel":"医疗","lat":35.674952,"lng":139.706251,"stationId":"station-003780","note":"歯科　矯正歯科　小児歯科"},{"id":"medical-3-12465","name":"原宿アクア歯科","categoryId":"medical","categoryLabel":"医疗","lat":35.67169,"lng":139.704334,"stationId":"station-003828","note":"歯科　矯正歯科　小児歯科　歯科口腔外科"},{"id":"medical-2-12467","name":"原宿スターズＨＳＫクリニック","categoryId":"medical","categoryLabel":"医疗","lat":35.670646,"lng":139.705718,"stationId":"station-003844","note":"整形外科　美容皮膚科"},{"id":"medical-3-12468","name":"原宿デンタルオフィス","categoryId":"medical","categoryLabel":"医疗","lat":35.661019,"lng":139.707883,"stationId":"shibuya","note":"歯科"},{"id":"medical-3-12469","name":"原宿ファースト歯科","categoryId":"medical","categoryLabel":"医疗","lat":35.668829,"lng":139.705408,"stationId":"station-003844","note":"歯科　矯正歯科　小児歯科　歯科口腔外科"},{"id":"medical-2-12470","name":"原宿メンタルクリニック","categoryId":"medical","categoryLabel":"医疗","lat":35.669041,"lng":139.707177,"stationId":"station-003844","note":"神経科　神経内科　精神科"},{"id":"medical-1-12471","name":"原宿リハビリテーション病院","categoryId":"medical","categoryLabel":"医疗","lat":35.666913,"lng":139.702467,"stationId":"station-003844","note":"リハビリ科　循環器内科　内科　歯科"},{"id":"medical-2-12472","name":"原宿心療内科","categoryId":"medical","categoryLabel":"医疗","lat":35.672801,"lng":139.708861,"stationId":"station-003828","note":"心療内科"},{"id":"medical-2-11807","name":"吉峰内科胃腸科","categoryId":"medical","categoryLabel":"医疗","lat":35.65452,"lng":139.706977,"stationId":"shibuya","note":"呼吸器科　循環器科　胃腸科　こう門科　内科　皮膚科　アレルギー科　リウマチ科　リハビリテーション科"},{"id":"medical-3-11806","name":"吉峰歯科医院","categoryId":"medical","categoryLabel":"医疗","lat":35.65452,"lng":139.706977,"stationId":"shibuya","note":"歯科　小児歯科　歯科口腔外科"},{"id":"medical-2-11809","name":"吉本メディカルクリニック","categoryId":"medical","categoryLabel":"医疗","lat":35.667294,"lng":139.717922,"stationId":"station-003834","note":"心療内科　精神科"},{"id":"medical-2-11777","name":"吉田医院","categoryId":"medical","categoryLabel":"医疗","lat":35.659525,"lng":139.724276,"stationId":"station-003897","note":"内科　消化器内科"},{"id":"medical-3-11784","name":"吉田歯科クリニック","categoryId":"medical","categoryLabel":"医疗","lat":35.670054,"lng":139.720375,"stationId":"station-003834","note":"歯科　矯正歯科　小児歯科　歯科口腔外科"},{"id":"medical-2-11779","name":"吉田眼科","categoryId":"medical","categoryLabel":"医疗","lat":35.6727,"lng":139.725444,"stationId":"station-003817","note":"眼科"},{"id":"medical-2-19373","name":"品川スキンクリニック　表参道院","categoryId":"medical","categoryLabel":"医疗","lat":35.663805,"lng":139.710695,"stationId":"station-003885","note":"美容皮膚科　美容外科"},{"id":"medical-2-19405","name":"品川美容外科　渋谷院","categoryId":"medical","categoryLabel":"医疗","lat":35.659108,"lng":139.699906,"stationId":"shibuya","note":"美容皮膚科　美容外科"},{"id":"medical-2-11637","name":"喜島クリニック","categoryId":"medical","categoryLabel":"医疗","lat":35.652582,"lng":139.722393,"stationId":"station-003969","note":"内科　胃腸科　外科　肛門科"},{"id":"medical-2-17677","name":"坪水クリニック","categoryId":"medical","categoryLabel":"医疗","lat":35.655768,"lng":139.696836,"stationId":"station-003938","note":"消化器科　胃腸科"},{"id":"medical-2-17663","name":"塚本肛門科","categoryId":"medical","categoryLabel":"医疗","lat":35.660037,"lng":139.695205,"stationId":"station-003938","note":"こう門科"},{"id":"medical-2-11316","name":"外苑前いちょう並木クリニック","categoryId":"medical","categoryLabel":"医疗","lat":35.670719,"lng":139.719356,"stationId":"station-003834","note":"皮膚科　形成外科　アレルギー科　内科　小児皮膚科"},{"id":"medical-2-11317","name":"外苑前メディカルクリニック","categoryId":"medical","categoryLabel":"医疗","lat":35.670049,"lng":139.718058,"stationId":"station-003834","note":"内科　消化器科　外科　皮膚科"},{"id":"medical-3-16997","name":"大塚歯科医院","categoryId":"medical","categoryLabel":"医疗","lat":35.666271,"lng":139.718032,"stationId":"station-003834","note":"歯科"},{"id":"medical-3-17038","name":"大島歯科医院","categoryId":"medical","categoryLabel":"医疗","lat":35.663081,"lng":139.695779,"stationId":"station-003938","note":"歯科　小児歯科　歯科口腔外科"},{"id":"medical-2-17057","name":"大平医院","categoryId":"medical","categoryLabel":"医疗","lat":35.655606,"lng":139.69967,"stationId":"shibuya","note":"消化器科　理学診療科　内科　小児科"},{"id":"medical-3-16944","name":"大泉歯科医院","categoryId":"medical","categoryLabel":"医疗","lat":35.65633,"lng":139.704912,"stationId":"shibuya","note":"歯科"},{"id":"medical-3-16781","name":"大浦歯科","categoryId":"medical","categoryLabel":"医疗","lat":35.664939,"lng":139.705056,"stationId":"station-003844","note":"歯科"},{"id":"medical-3-17710","name":"天川デンタルオフィス外苑前","categoryId":"medical","categoryLabel":"医疗","lat":35.6705,"lng":139.717063,"stationId":"station-003834","note":"歯科　矯正歯科　小児歯科　歯科口腔外科"},{"id":"medical-2-11353","name":"学校法人東京女子医科大学附属成人医学センター","categoryId":"medical","categoryLabel":"医疗","lat":35.658725,"lng":139.705355,"stationId":"shibuya","note":"美容皮膚科　内科　呼吸器内科　循環器内科　消化器内科　胃腸内科　神経内科　糖尿病内科　代謝内科　皮膚科　乳腺外科　整形外科　眼科　婦人科　放射線科"},{"id":"medical-3-14231","name":"守屋歯科医院","categoryId":"medical","categoryLabel":"医疗","lat":35.662284,"lng":139.695048,"stationId":"station-003938","note":"歯科"},{"id":"medical-2-4741","name":"安藤眼科医院","categoryId":"medical","categoryLabel":"医疗","lat":35.659996,"lng":139.695686,"stationId":"station-003938","note":"眼科"},{"id":"medical-2-11894","name":"宮益坂クリニック","categoryId":"medical","categoryLabel":"医疗","lat":35.660707,"lng":139.705535,"stationId":"shibuya","note":"皮膚科　美容外科　形成外科"},{"id":"medical-2-11895","name":"宮益坂下眼科診療所","categoryId":"medical","categoryLabel":"医疗","lat":35.659962,"lng":139.701986,"stationId":"shibuya","note":"眼科"},{"id":"medical-2-11896","name":"宮益坂眼科","categoryId":"medical","categoryLabel":"医疗","lat":35.660039,"lng":139.703863,"stationId":"shibuya","note":"眼科"},{"id":"medical-2-19476","name":"富士フイルムグループ健康管理室","categoryId":"medical","categoryLabel":"医疗","lat":35.659872,"lng":139.719317,"stationId":"station-003885","note":"内科"},{"id":"medical-2-19479","name":"富士フイルム西麻布検診センター","categoryId":"medical","categoryLabel":"医疗","lat":35.659872,"lng":139.719317,"stationId":"station-003885","note":"内科"},{"id":"medical-3-19503","name":"富田歯科医院","categoryId":"medical","categoryLabel":"医疗","lat":35.670062,"lng":139.715282,"stationId":"station-003834","note":"歯科"},{"id":"medical-3-14495","name":"小山歯科クリニック","categoryId":"medical","categoryLabel":"医疗","lat":35.660815,"lng":139.702042,"stationId":"shibuya","note":"歯科"},{"id":"medical-3-14688","name":"小林歯科クリニック","categoryId":"medical","categoryLabel":"医疗","lat":35.668649,"lng":139.712153,"stationId":"station-003885","note":"歯科　矯正歯科　小児歯科　歯科口腔外科"},{"id":"medical-3-14712","name":"小林歯科医院","categoryId":"medical","categoryLabel":"医疗","lat":35.659915,"lng":139.72769,"stationId":"station-003897","note":"歯科　矯正歯科　小児歯科"},{"id":"medical-3-14580","name":"小沢歯科医院","categoryId":"medical","categoryLabel":"医疗","lat":35.651157,"lng":139.709485,"stationId":"station-003991","note":"歯科"},{"id":"medical-3-14482","name":"小見山歯科医院","categoryId":"medical","categoryLabel":"医疗","lat":35.669034,"lng":139.716311,"stationId":"station-003834","note":"歯科　矯正歯科　小児歯科　歯科口腔外科"},{"id":"medical-3-14583","name":"小谷松歯科医院","categoryId":"medical","categoryLabel":"医疗","lat":35.66092,"lng":139.702564,"stationId":"shibuya","note":"歯科"},{"id":"medical-2-14646","name":"小野クリニック","categoryId":"medical","categoryLabel":"医疗","lat":35.663472,"lng":139.703449,"stationId":"shibuya","note":"脳神経外科　内科　外科"},{"id":"medical-2-14650","name":"小野眼科医院","categoryId":"medical","categoryLabel":"医疗","lat":35.652727,"lng":139.709331,"stationId":"station-003991","note":"眼科"},{"id":"medical-3-13598","name":"山下歯科医院","categoryId":"medical","categoryLabel":"医疗","lat":35.665897,"lng":139.712675,"stationId":"station-003885","note":"歯科"},{"id":"medical-2-13716","name":"山内ハートクリニック","categoryId":"medical","categoryLabel":"医疗","lat":35.6727,"lng":139.725444,"stationId":"station-003817","note":"循環器内科　整形外科　外科　呼吸器内科"},{"id":"medical-3-13651","name":"山崎歯科医院","categoryId":"medical","categoryLabel":"医疗","lat":35.654384,"lng":139.708168,"stationId":"shibuya","note":"歯科　小児歯科"},{"id":"medical-2-13730","name":"山本英博クリニック","categoryId":"medical","categoryLabel":"医疗","lat":35.659017,"lng":139.697339,"stationId":"shibuya","note":"麻酔科　呼吸器外科"},{"id":"medical-3-13579","name":"山浦歯科医院","categoryId":"medical","categoryLabel":"医疗","lat":35.653843,"lng":139.706056,"stationId":"station-003985","note":"歯科"},{"id":"medical-2-13690","name":"山田光胤記念漢方内科　渋谷診療所","categoryId":"medical","categoryLabel":"医疗","lat":35.658046,"lng":139.696957,"stationId":"station-003938","note":"漢方内科　内科　呼吸器内科　循環器内科　消化器内科　胃腸内科　皮膚科　小児科　精神科　婦人科"},{"id":"medical-3-11026","name":"岡田歯科医院","categoryId":"medical","categoryLabel":"医疗","lat":35.668372,"lng":139.714844,"stationId":"station-003834","note":"歯科"},{"id":"medical-2-11035","name":"岡部医院","categoryId":"medical","categoryLabel":"医疗","lat":35.660478,"lng":139.722241,"stationId":"station-003868","note":"内科　神経内科"},{"id":"medical-3-11564","name":"岸上歯科クリニック","categoryId":"medical","categoryLabel":"医疗","lat":35.664064,"lng":139.709466,"stationId":"station-003885","note":"歯科　矯正歯科　小児歯科　歯科口腔外科"},{"id":"medical-3-19789","name":"峯歯科広尾商店街","categoryId":"medical","categoryLabel":"医疗","lat":35.650552,"lng":139.721042,"stationId":"station-003969","note":"歯科　矯正歯科　小児歯科　歯科口腔外科"},{"id":"medical-2-12721","name":"工藤眼科クリニック","categoryId":"medical","categoryLabel":"医疗","lat":35.665085,"lng":139.712917,"stationId":"station-003885","note":"眼科"},{"id":"medical-3-13833","name":"市川歯科医院","categoryId":"medical","categoryLabel":"医疗","lat":35.661205,"lng":139.725678,"stationId":"station-003897","note":"歯科"},{"id":"medical-2-19672","name":"平岡医院","categoryId":"medical","categoryLabel":"医疗","lat":35.670405,"lng":139.720886,"stationId":"station-003834","note":"内科　小児科　循環器科"},{"id":"medical-2-19688","name":"平松レディースクリニック","categoryId":"medical","categoryLabel":"医疗","lat":35.650118,"lng":139.719825,"stationId":"station-003969","note":"婦人科　放射線科"},{"id":"medical-2-19708","name":"平田肛門科医院","categoryId":"medical","categoryLabel":"医疗","lat":35.660552,"lng":139.713676,"stationId":"station-003885","note":"肛門科"},{"id":"medical-2-12737","name":"広尾　峰岸産婦人科","categoryId":"medical","categoryLabel":"医疗","lat":35.652079,"lng":139.722436,"stationId":"station-003969","note":"産婦人科"},{"id":"medical-2-12739","name":"広尾かなもりクリニック","categoryId":"medical","categoryLabel":"医疗","lat":35.652582,"lng":139.722393,"stationId":"station-003969","note":"内科　産婦人科"},{"id":"medical-2-12738","name":"広尾ガーデンヒルズクリニック","categoryId":"medical","categoryLabel":"医疗","lat":35.654124,"lng":139.72043,"stationId":"station-003969","note":"内科　呼吸器内科　皮膚科　外科"},{"id":"medical-2-12740","name":"広尾ストレスクリニック","categoryId":"medical","categoryLabel":"医疗","lat":35.652582,"lng":139.722393,"stationId":"station-003969","note":"心療内科　精神科"},{"id":"medical-2-12743","name":"広尾プラザ眼科診療所","categoryId":"medical","categoryLabel":"医疗","lat":35.65009,"lng":139.722047,"stationId":"station-003969","note":"コンタクト　眼科"},{"id":"medical-2-12745","name":"広尾メンタルクリニック","categoryId":"medical","categoryLabel":"医疗","lat":35.650376,"lng":139.721529,"stationId":"station-003969","note":"精神科　心療内科"},{"id":"medical-2-12752","name":"広尾本間クリニック","categoryId":"medical","categoryLabel":"医疗","lat":35.650397,"lng":139.720842,"stationId":"station-003969","note":"消化器科　循環器科　内科"},{"id":"medical-2-12747","name":"広尾羽澤内科眼科クリニック","categoryId":"medical","categoryLabel":"医疗","lat":35.652904,"lng":139.715694,"stationId":"station-003969","note":"内科　呼吸器内科　循環器内科　糖尿病内科　代謝内科　アレルギー科　外科　眼科"},{"id":"medical-3-12753","name":"広尾鈴木デンタルクリニック","categoryId":"medical","categoryLabel":"医疗","lat":35.652407,"lng":139.713518,"stationId":"station-003991","note":"歯科　小児歯科"},{"id":"medical-2-10944","name":"押田皮膚クリニック","categoryId":"medical","categoryLabel":"医疗","lat":35.655255,"lng":139.699391,"stationId":"shibuya","note":"美容皮膚科　皮膚科"},{"id":"medical-2-15689","name":"政策研究大学院大学保健管理センター","categoryId":"medical","categoryLabel":"医疗","lat":35.664129,"lng":139.727059,"stationId":"station-003868","note":"内科"},{"id":"medical-2-15279","name":"新六本木クリニック","categoryId":"medical","categoryLabel":"医疗","lat":35.6623,"lng":139.729679,"stationId":"station-003897","note":"内科　精神科　心療内科"},{"id":"medical-2-15158","name":"新宿クレアクリニック渋谷院","categoryId":"medical","categoryLabel":"医疗","lat":35.6608,"lng":139.705427,"stationId":"shibuya","note":"美容皮膚科"},{"id":"medical-2-18958","name":"日本放送協会健康保険組合　東京診療所","categoryId":"medical","categoryLabel":"医疗","lat":35.665048,"lng":139.696007,"stationId":"station-003845","note":"内科　皮膚科　外科　眼科　耳鼻いんこう科　歯科"},{"id":"medical-3-18907","name":"日本橋矯正歯科研究所付属デンタルクリニック","categoryId":"medical","categoryLabel":"医疗","lat":35.658725,"lng":139.705355,"stationId":"shibuya","note":"矯正歯科　歯科口腔外科"},{"id":"medical-1-18945","name":"日本赤十字社医療センター","categoryId":"medical","categoryLabel":"医疗","lat":35.654765,"lng":139.71761,"stationId":"station-003969","note":"内科　呼吸器内科　循環器内科　消化器内科　腎臓内科　神経内科　血液内科　糖尿病内分泌内科　感染症内科　腫瘍内科　緩和ケア内科　アレルギー科　リウマチ科　小児科　新生児科　精神科　外科　呼吸器外科　心臓血管外科　乳腺外科　胃食道外科　肝　胆　膵外科"},{"id":"medical-2-18946","name":"日本赤十字社総合福祉センター特別養護老人ホームレクロス広尾医務室","categoryId":"medical","categoryLabel":"医疗","lat":35.654471,"lng":139.718965,"stationId":"station-003969","note":"内科"},{"id":"medical-2-20115","name":"明治通りクリニック","categoryId":"medical","categoryLabel":"医疗","lat":35.663351,"lng":139.702451,"stationId":"shibuya","note":"外科　皮膚科　形成外科"},{"id":"medical-3-20119","name":"明石歯科医院","categoryId":"medical","categoryLabel":"医疗","lat":35.665267,"lng":139.714602,"stationId":"station-003885","note":"歯科"},{"id":"medical-2-15695","name":"星空診療所（往診専門）","categoryId":"medical","categoryLabel":"医疗","lat":35.651288,"lng":139.728764,"stationId":"station-003969","note":"内科　心療内科"},{"id":"medical-2-20434","name":"有栖川整形外科","categoryId":"medical","categoryLabel":"医疗","lat":35.652047,"lng":139.72381,"stationId":"station-003969","note":"整形外科　リハビリテーション科　内科"},{"id":"medical-3-17544","name":"朝倉歯科医院","categoryId":"medical","categoryLabel":"医疗","lat":35.671484,"lng":139.723571,"stationId":"station-003817","note":"歯科"},{"id":"medical-3-20145","name":"木下歯科医院","categoryId":"medical","categoryLabel":"医疗","lat":35.673594,"lng":139.708455,"stationId":"station-003780","note":"歯科"},{"id":"medical-3-20195","name":"木林歯科","categoryId":"medical","categoryLabel":"医疗","lat":35.672137,"lng":139.703423,"stationId":"station-003828","note":"歯科　矯正歯科"},{"id":"medical-2-20041","name":"本田技研工業株式会社本社　健康管理センター","categoryId":"medical","categoryLabel":"医疗","lat":35.672083,"lng":139.723732,"stationId":"station-003817","note":"内"},{"id":"medical-3-19991","name":"本間歯科医院","categoryId":"medical","categoryLabel":"医疗","lat":35.657516,"lng":139.707415,"stationId":"shibuya","note":"歯科"},{"id":"medical-3-16655","name":"村松歯科","categoryId":"medical","categoryLabel":"医疗","lat":35.661941,"lng":139.699854,"stationId":"shibuya","note":"歯科　矯正歯科　小児歯科"},{"id":"medical-2-18106","name":"東京ノーブル美容医療クリニック","categoryId":"medical","categoryLabel":"医疗","lat":35.654358,"lng":139.705474,"stationId":"shibuya","note":"美容皮膚科　美容外科　内科　臨床検査科　美容内科　糖尿病内科　代謝内科　内分泌内科"},{"id":"medical-2-18107","name":"東京ハートクリニック","categoryId":"medical","categoryLabel":"医疗","lat":35.661934,"lng":139.715022,"stationId":"station-003885","note":"婦人科"},{"id":"medical-2-18128","name":"東京プラチナムクリニック","categoryId":"medical","categoryLabel":"医疗","lat":35.659945,"lng":139.697979,"stationId":"shibuya","note":"美容皮膚科"},{"id":"medical-2-18139","name":"東京メディサイトクリニック","categoryId":"medical","categoryLabel":"医疗","lat":35.651788,"lng":139.709307,"stationId":"station-003991","note":"内科　糖尿病内科"},{"id":"medical-2-18145","name":"東京ロイヤルクリニック","categoryId":"medical","categoryLabel":"医疗","lat":35.651282,"lng":139.722472,"stationId":"station-003969","note":"内科"},{"id":"medical-2-18227","name":"東京中央美容外科渋谷院","categoryId":"medical","categoryLabel":"医疗","lat":35.660023,"lng":139.696053,"stationId":"station-003938","note":"形成外科　美容外科　美容皮膚科"},{"id":"medical-2-18174","name":"東京原宿医院","categoryId":"medical","categoryLabel":"医疗","lat":35.669785,"lng":139.705334,"stationId":"station-003844","note":"胃腸科　内科"},{"id":"medical-2-18296","name":"東京美容クリニック","categoryId":"medical","categoryLabel":"医疗","lat":35.663932,"lng":139.709322,"stationId":"station-003885","note":"皮膚科　産婦人科"},{"id":"medical-2-18191","name":"東京自動車サービス健康保険組合診療所","categoryId":"medical","categoryLabel":"医疗","lat":35.656718,"lng":139.705718,"stationId":"shibuya","note":"内科"},{"id":"medical-2-18151","name":"東京英語いのちの電話診療所","categoryId":"medical","categoryLabel":"医疗","lat":35.659535,"lng":139.715746,"stationId":"station-003885","note":"精神科　心療内科"},{"id":"medical-2-18246","name":"東京都赤十字血液センター　渋谷ハチ公前出張所","categoryId":"medical","categoryLabel":"医疗","lat":35.659108,"lng":139.699906,"stationId":"shibuya","note":"内科"},{"id":"medical-2-18212","name":"東京青山クリニック","categoryId":"medical","categoryLabel":"医疗","lat":35.661351,"lng":139.713532,"stationId":"station-003885","note":"美容外科　形成外科　皮膚科"},{"id":"medical-2-18063","name":"東京ＡＧＡクリニック","categoryId":"medical","categoryLabel":"医疗","lat":35.660769,"lng":139.706423,"stationId":"shibuya","note":"美容外科　皮膚科　形成外科"},{"id":"medical-2-18067","name":"東京ＧＬＰクリニック","categoryId":"medical","categoryLabel":"医疗","lat":35.664475,"lng":139.711528,"stationId":"station-003885","note":"内科"},{"id":"medical-2-18062","name":"東急本店眼科診療所","categoryId":"medical","categoryLabel":"医疗","lat":35.66075,"lng":139.695508,"stationId":"station-003938","note":"眼科"},{"id":"medical-3-14799","name":"松原歯科医院　西麻布診療所","categoryId":"medical","categoryLabel":"医疗","lat":35.660626,"lng":139.724688,"stationId":"station-003897","note":"歯科　小児歯科"},{"id":"medical-3-14835","name":"松尾歯科","categoryId":"medical","categoryLabel":"医疗","lat":35.660065,"lng":139.70439,"stationId":"shibuya","note":"歯科"},{"id":"medical-3-14840","name":"松尾歯科医院","categoryId":"medical","categoryLabel":"医疗","lat":35.660217,"lng":139.696644,"stationId":"station-003938","note":"歯科　矯正歯科　小児歯科　歯科口腔外科"},{"id":"medical-3-14841","name":"松尾歯科医院","categoryId":"medical","categoryLabel":"医疗","lat":35.655513,"lng":139.69994,"stationId":"shibuya","note":"歯科　矯正歯科　小児歯科　歯科口腔外科"},{"id":"medical-3-14772","name":"松浦歯科医院","categoryId":"medical","categoryLabel":"医疗","lat":35.662925,"lng":139.709912,"stationId":"station-003885","note":"歯科"},{"id":"medical-3-14882","name":"松濤デンタルクリニック","categoryId":"medical","categoryLabel":"医疗","lat":35.660037,"lng":139.695205,"stationId":"station-003938","note":"歯科　矯正歯科　小児歯科　歯科口腔外科"},{"id":"medical-3-19034","name":"柏村歯科医院","categoryId":"medical","categoryLabel":"医疗","lat":35.671453,"lng":139.721043,"stationId":"station-003817","note":"歯科"},{"id":"medical-3-13362","name":"桜丘歯科クリニック","categoryId":"medical","categoryLabel":"医疗","lat":35.654099,"lng":139.702693,"stationId":"shibuya","note":"歯科　小児歯科　歯科口腔外科"},{"id":"medical-2-10958","name":"横山皮フ科クリニック","categoryId":"medical","categoryLabel":"医疗","lat":35.650376,"lng":139.721529,"stationId":"station-003969","note":"皮膚科"},{"id":"medical-2-12011","name":"橋本クリニック","categoryId":"medical","categoryLabel":"医疗","lat":35.660171,"lng":139.70504,"stationId":"shibuya","note":"児童精神科　精神科　心療内科"},{"id":"medical-3-12017","name":"橋本歯科クリニック","categoryId":"medical","categoryLabel":"医疗","lat":35.660752,"lng":139.707476,"stationId":"shibuya","note":"歯科　矯正歯科　小児歯科　歯科口腔外科"},{"id":"medical-3-20771","name":"欅坂上医科歯科クリニック","categoryId":"medical","categoryLabel":"医疗","lat":35.657345,"lng":139.727376,"stationId":"station-003897","note":"歯科　歯科口腔外科　矯正歯科　循環器内科　内科"},{"id":"medical-2-19559","name":"武村医院","categoryId":"medical","categoryLabel":"医疗","lat":35.663614,"lng":139.710148,"stationId":"station-003885","note":"内科　呼吸器内科　皮膚科"},{"id":"medical-3-13885","name":"歯科矯正よごさわ","categoryId":"medical","categoryLabel":"医疗","lat":35.662678,"lng":139.715916,"stationId":"station-003885","note":"矯正歯科"},{"id":"medical-3-13884","name":"歯科矯正クイン","categoryId":"medical","categoryLabel":"医疗","lat":35.670605,"lng":139.719576,"stationId":"station-003834","note":"歯科"},{"id":"medical-3-13902","name":"歯科石上医院","categoryId":"medical","categoryLabel":"医疗","lat":35.660501,"lng":139.713356,"stationId":"station-003885","note":"歯科"},{"id":"medical-2-17247","name":"池田ゆう子クリニック","categoryId":"medical","categoryLabel":"医疗","lat":35.662269,"lng":139.701195,"stationId":"shibuya","note":"皮膚科　美容外科"},{"id":"medical-2-11248","name":"河野医院","categoryId":"medical","categoryLabel":"医疗","lat":35.650376,"lng":139.721529,"stationId":"station-003969","note":"耳鼻いんこう科"},{"id":"medical-2-16408","name":"泉ウィメンズクリニック","categoryId":"medical","categoryLabel":"医疗","lat":35.663127,"lng":139.714631,"stationId":"station-003885","note":"婦人科"},{"id":"medical-3-20470","name":"洋デンタルオフィス広尾","categoryId":"medical","categoryLabel":"医疗","lat":35.651678,"lng":139.723226,"stationId":"station-003969","note":"歯科　矯正歯科　小児歯科　歯科口腔外科"},{"id":"medical-3-16430","name":"浅川歯科医院","categoryId":"medical","categoryLabel":"医疗","lat":35.66792,"lng":139.725704,"stationId":"station-003868","note":"歯科"},{"id":"medical-3-19453","name":"浜之上デンタルオフィス","categoryId":"medical","categoryLabel":"医疗","lat":35.658614,"lng":139.698604,"stationId":"shibuya","note":"歯科　矯正歯科　小児歯科　歯科口腔外科"},{"id":"medical-3-10812","name":"浦口歯科医院","categoryId":"medical","categoryLabel":"医疗","lat":35.650266,"lng":139.709248,"stationId":"station-003991","note":"歯科"},{"id":"medical-3-15753","name":"清水歯科医院","categoryId":"medical","categoryLabel":"医疗","lat":35.655898,"lng":139.704581,"stationId":"shibuya","note":"歯科"},{"id":"medical-3-14337","name":"渋谷かたおか歯科","categoryId":"medical","categoryLabel":"医疗","lat":35.65884,"lng":139.697888,"stationId":"shibuya","note":"歯科　矯正歯科　小児歯科　歯科口腔外科"},{"id":"medical-2-14339","name":"渋谷しろくまクリニック","categoryId":"medical","categoryLabel":"医疗","lat":35.657166,"lng":139.703786,"stationId":"shibuya","note":"内科　小児科"},{"id":"medical-2-14344","name":"渋谷の森クリニック","categoryId":"medical","categoryLabel":"医疗","lat":35.664774,"lng":139.703167,"stationId":"station-003844","note":"皮膚科　美容外科　形成外科"},{"id":"medical-2-14347","name":"渋谷もりやクリニック","categoryId":"medical","categoryLabel":"医疗","lat":35.657252,"lng":139.696647,"stationId":"station-003938","note":"神経科　精神科　心療内科"},{"id":"medical-2-14336","name":"渋谷イースト・クリニック","categoryId":"medical","categoryLabel":"医疗","lat":35.659906,"lng":139.702612,"stationId":"shibuya","note":"皮膚科　形成外科"},{"id":"medical-2-14338","name":"渋谷サンクスクリニック","categoryId":"medical","categoryLabel":"医疗","lat":35.661298,"lng":139.701069,"stationId":"shibuya","note":"内科　皮膚科　整形外科"},{"id":"medical-2-14340","name":"渋谷スキンクリニック","categoryId":"medical","categoryLabel":"医疗","lat":35.664747,"lng":139.701251,"stationId":"station-003844","note":"美容皮膚科　美容婦人科　小児皮膚科　皮膚科　アレルギー科"},{"id":"medical-2-14341","name":"渋谷セントラルクリニック","categoryId":"medical","categoryLabel":"医疗","lat":35.660626,"lng":139.702042,"stationId":"shibuya","note":"内科　眼科　リハビリテーション科　麻酔科　心療内科"},{"id":"medical-3-14342","name":"渋谷セントラル矯正歯科","categoryId":"medical","categoryLabel":"医疗","lat":35.660765,"lng":139.697405,"stationId":"shibuya","note":"矯正歯科"},{"id":"medical-3-14343","name":"渋谷デンタルオフィス","categoryId":"medical","categoryLabel":"医疗","lat":35.657114,"lng":139.695659,"stationId":"station-003938","note":"歯科　小児歯科"},{"id":"medical-3-14345","name":"渋谷ビューティクリニック","categoryId":"medical","categoryLabel":"医疗","lat":35.660443,"lng":139.699099,"stationId":"shibuya","note":"歯科　矯正歯科　皮膚科　皮膚科　歯科　矯正歯科"},{"id":"medical-2-14346","name":"渋谷メンタルクリニック","categoryId":"medical","categoryLabel":"医疗","lat":35.660213,"lng":139.696534,"stationId":"station-003938","note":"精神科　心療内科"},{"id":"medical-2-14348","name":"渋谷ライフバレークリニック","categoryId":"medical","categoryLabel":"医疗","lat":35.658795,"lng":139.697049,"stationId":"station-003938","note":"美容皮膚科　内科"},{"id":"medical-2-14349","name":"渋谷リーフクリニック","categoryId":"medical","categoryLabel":"医疗","lat":35.660174,"lng":139.696281,"stationId":"station-003938","note":"内科　消化器内科　胃腸内科　泌尿器科"},{"id":"medical-3-14350","name":"渋谷ルーブル歯科・矯正歯科","categoryId":"medical","categoryLabel":"医疗","lat":35.662123,"lng":139.700234,"stationId":"shibuya","note":"歯科　矯正歯科　小児歯科　歯科口腔外科"},{"id":"medical-2-14378","name":"渋谷内科・呼吸器アレルギークリニック","categoryId":"medical","categoryLabel":"医疗","lat":35.660317,"lng":139.704985,"stationId":"shibuya","note":"内科　アレルギー科"},{"id":"medical-2-14364","name":"渋谷区保健所","categoryId":"medical","categoryLabel":"医疗","lat":35.663801,"lng":139.697915,"stationId":"shibuya","note":"内科"},{"id":"medical-2-14366","name":"渋谷区保健所中央保健相談所","categoryId":"medical","categoryLabel":"医疗","lat":35.661971,"lng":139.70373,"stationId":"shibuya","note":"内科　小児科"},{"id":"medical-2-14361","name":"渋谷区医師会区民健康センター桜丘診療所","categoryId":"medical","categoryLabel":"医疗","lat":35.655513,"lng":139.69994,"stationId":"shibuya","note":"内科　小児科"},{"id":"medical-3-14362","name":"渋谷区歯科医師会　渋谷区口腔保健支援センタープラザ歯科診療所","categoryId":"medical","categoryLabel":"医疗","lat":35.650848,"lng":139.709773,"stationId":"station-003991","note":"歯科"},{"id":"medical-2-14379","name":"渋谷南口稲見眼科","categoryId":"medical","categoryLabel":"医疗","lat":35.65806,"lng":139.700132,"stationId":"shibuya","note":"眼科"},{"id":"medical-2-14380","name":"渋谷南平台ＴＨＣクリニック","categoryId":"medical","categoryLabel":"医疗","lat":35.655549,"lng":139.696031,"stationId":"station-003938","note":"内科　皮膚科"},{"id":"medical-2-14369","name":"渋谷国際皮膚科医院","categoryId":"medical","categoryLabel":"医疗","lat":35.653993,"lng":139.707606,"stationId":"station-003985","note":"美容皮膚科　小児皮膚科　皮膚科"},{"id":"medical-3-14356","name":"渋谷宮下パーク歯科・矯正歯科","categoryId":"medical","categoryLabel":"医疗","lat":35.660561,"lng":139.702023,"stationId":"shibuya","note":"歯科　矯正歯科　小児歯科　歯科口腔外科"},