[{"id":"medical-2-376","name":"TRC内科・整形外科クリニック","categoryId":"medical","categoryLabel":"医疗","lat":35.581188,"lng":139.748218,"stationId":"station-004285","note":"内科　胃腸科　循環器科"},{"id":"medical-1-872","name":"いすゞ病院","categoryId":"medical","categoryLabel":"医疗","lat":35.589666,"lng":139.732649,"stationId":"station-004268","note":"内科　皮膚科　外科　整形外科　眼科　リハビリ科"},{"id":"medical-3-923","name":"いとひや歯科クリニック","categoryId":"medical","categoryLabel":"医疗","lat":35.597983,"lng":139.737679,"stationId":"station-004244","note":"歯科　矯正歯科　小児歯科　歯科口腔外科"},{"id":"medical-3-951","name":"いまつ歯科医院","categoryId":"medical","categoryLabel":"医疗","lat":35.59972,"lng":139.730468,"stationId":"station-004244","note":"歯科　矯正歯科　小児歯科　歯科口腔外科"},{"id":"medical-2-1200","name":"おおしまこどもクリニック","categoryId":"medical","categoryLabel":"医疗","lat":35.590059,"lng":139.733807,"stationId":"station-004268","note":"内科　小児科　アレルギー科"},{"id":"medical-3-1247","name":"おおもりＫｉｄｓ矯正歯科","categoryId":"medical","categoryLabel":"医疗","lat":35.591157,"lng":139.731726,"stationId":"station-004264","note":"矯正歯科　小児歯科"},{"id":"medical-3-1315","name":"おさて歯科医院","categoryId":"medical","categoryLabel":"医疗","lat":35.584932,"lng":139.730572,"stationId":"station-004264","note":"歯科"},{"id":"medical-2-1367","name":"おりしきみつるクリニック","categoryId":"medical","categoryLabel":"医疗","lat":35.599658,"lng":139.739716,"stationId":"station-004244","note":"内科　小児科　リハビリテーション科"},{"id":"medical-2-2362","name":"しん平和島クリニック","categoryId":"medical","categoryLabel":"医疗","lat":35.578503,"lng":139.732309,"stationId":"station-004294","note":"産婦人科"},{"id":"medical-3-2402","name":"すずき歯科","categoryId":"medical","categoryLabel":"医疗","lat":35.58602,"lng":139.731303,"stationId":"station-004268","note":"歯科　矯正歯科　小児歯科　歯科口腔外科"},{"id":"medical-3-2560","name":"そら歯科","categoryId":"medical","categoryLabel":"医疗","lat":35.598581,"lng":139.738633,"stationId":"station-004244","note":"歯科口腔外科　小児歯科　矯正歯科　歯科"},{"id":"medical-3-2670","name":"たけの歯科クリニック","categoryId":"medical","categoryLabel":"医疗","lat":35.581023,"lng":139.760031,"stationId":"station-004285","note":"歯科　小児歯科　歯科口腔外科"},{"id":"medical-3-2776","name":"ちの歯科医院","categoryId":"medical","categoryLabel":"医疗","lat":35.597853,"lng":139.750674,"stationId":"station-004244","note":"歯科　小児歯科　歯科口腔外科"},{"id":"medical-3-3277","name":"のぞみ歯科医院","categoryId":"medical","categoryLabel":"医疗","lat":35.589858,"lng":139.73528,"stationId":"station-004268","note":"歯科　矯正歯科　小児歯科　歯科口腔外科"},{"id":"medical-2-3486","name":"ひかり医院","categoryId":"medical","categoryLabel":"医疗","lat":35.589765,"lng":139.736612,"stationId":"station-004268","note":"内科　小児科"},{"id":"medical-3-3543","name":"ひまわり歯科","categoryId":"medical","categoryLabel":"医疗","lat":35.598681,"lng":139.735897,"stationId":"station-004244","note":"歯科　矯正歯科　小児歯科"},{"id":"medical-2-3708","name":"ふなはしハートヘルスクリニック","categoryId":"medical","categoryLabel":"医疗","lat":35.590905,"lng":139.732657,"stationId":"station-004268","note":"内科　循環器内科"},{"id":"medical-2-4078","name":"みはら耳鼻咽喉科・アレルギー科","categoryId":"medical","categoryLabel":"医疗","lat":35.576922,"lng":139.735702,"stationId":"station-004294","note":"内科　小児科　外科　整形外科　皮膚科"},{"id":"medical-3-4136","name":"むかさ歯科医院","categoryId":"medical","categoryLabel":"医疗","lat":35.578784,"lng":139.73309,"stationId":"station-004294","note":"歯科"},{"id":"medical-2-4167","name":"むらくに皮フ科","categoryId":"medical","categoryLabel":"医疗","lat":35.597853,"lng":139.750674,"stationId":"station-004244","note":"皮膚科"},{"id":"medical-3-4424","name":"よこた歯科","categoryId":"medical","categoryLabel":"医疗","lat":35.580754,"lng":139.731383,"stationId":"station-004294","note":"歯科　小児歯科"},{"id":"medical-3-4592","name":"れいな歯科","categoryId":"medical","categoryLabel":"医疗","lat":35.585892,"lng":139.730209,"stationId":"station-004264","note":"歯科　小児歯科　歯科口腔外科　矯正歯科"},{"id":"medical-3-753","name":"アリスバンビーニ小児歯科大森診療所","categoryId":"medical","categoryLabel":"医疗","lat":35.592238,"lng":139.733493,"stationId":"station-004268","note":"歯科　矯正歯科　小児歯科"},{"id":"medical-3-2136","name":"サトウ歯科医院","categoryId":"medical","categoryLabel":"医疗","lat":35.593662,"lng":139.733964,"stationId":"station-004244","note":"歯科　小児歯科"},{"id":"medical-2-3046","name":"トラックターミナル診療所","categoryId":"medical","categoryLabel":"医疗","lat":35.587902,"lng":139.745224,"stationId":"station-004285","note":"内科　整形外科　外科"},{"id":"medical-3-4508","name":"ラウナ南大井デンタルクリニック","categoryId":"medical","categoryLabel":"医疗","lat":35.595204,"lng":139.734259,"stationId":"station-004244","note":"小児歯科　歯科口腔外科　矯正歯科　歯科"},{"id":"medical-3-4606","name":"ロイヤルティースデンタルクリニック","categoryId":"medical","categoryLabel":"医疗","lat":35.587502,"lng":139.733949,"stationId":"station-004268","note":"歯科　小児歯科"},{"id":"medical-3-4608","name":"ロイヤル歯科医院","categoryId":"medical","categoryLabel":"医疗","lat":35.595348,"lng":139.733369,"stationId":"station-004244","note":"歯科"},{"id":"medical-3-14946","name":"上小沢歯科医院","categoryId":"medical","categoryLabel":"医疗","lat":35.586853,"lng":139.730539,"stationId":"station-004264","note":"歯科"},{"id":"medical-3-11972","name":"京急平和島歯科","categoryId":"medical","categoryLabel":"医疗","lat":35.578944,"lng":139.734343,"stationId":"station-004294","note":"歯科"},{"id":"medical-2-13209","name":"佐川医院","categoryId":"medical","categoryLabel":"医疗","lat":35.596659,"lng":139.735705,"stationId":"station-004244","note":"内科　胃腸科　小児科"},{"id":"medical-2-13272","name":"佐藤皮フ科クリニック","categoryId":"medical","categoryLabel":"医疗","lat":35.582038,"lng":139.731374,"stationId":"station-004294","note":"内科　小児科　胃腸科　リハビリテーション科"},{"id":"medical-2-19136","name":"八潮耳鼻咽喉科","categoryId":"medical","categoryLabel":"医疗","lat":35.597853,"lng":139.750674,"stationId":"station-004244","note":"耳鼻咽喉科"},{"id":"medical-3-18726","name":"内川歯科医院","categoryId":"medical","categoryLabel":"医疗","lat":35.598674,"lng":139.737975,"stationId":"station-004244","note":"歯科"},{"id":"medical-3-10575","name":"医療法人清水歯科水神デンタルクリニック","categoryId":"medical","categoryLabel":"医疗","lat":35.592274,"lng":139.734287,"stationId":"station-004268","note":"歯科　矯正歯科　小児歯科　歯科口腔外科"},{"id":"medical-2-5103","name":"医療法人社団　おおや眼科クリニック","categoryId":"medical","categoryLabel":"医疗","lat":35.578576,"lng":139.73208,"stationId":"station-004294","note":"内科　循環器内科　呼吸器内科"},{"id":"medical-3-5159","name":"医療法人社団　ファイブファウンテン　まちかど歯科医院","categoryId":"medical","categoryLabel":"医疗","lat":35.599206,"lng":139.730478,"stationId":"station-004244","note":"歯科　小児歯科　歯科口腔外科"},{"id":"medical-2-6458","name":"医療法人社団くどうちあき脳神経外科クリニック","categoryId":"medical","categoryLabel":"医疗","lat":35.584929,"lng":139.730749,"stationId":"station-004268","note":"内科　リウマチ科　整形外科　皮膚科　リハビリテーション科"},{"id":"medical-3-6607","name":"医療法人社団つばさ会　平和島駅前歯科医院","categoryId":"medical","categoryLabel":"医疗","lat":35.578675,"lng":139.734543,"stationId":"station-004294","note":"歯科　小児歯科　矯正歯科　歯科口腔外科"},{"id":"medical-2-6986","name":"医療法人社団一生会 平和島レディースクリニック","categoryId":"medical","categoryLabel":"医疗","lat":35.578503,"lng":139.732309,"stationId":"station-004294","note":"内科　消化器科　外科　整形外科　肛門科　放射線科"},{"id":"medical-3-10324","name":"医療法人社団亮和会　はまだ歯科診療所","categoryId":"medical","categoryLabel":"医疗","lat":35.577922,"lng":139.734861,"stationId":"station-004294","note":"歯科　矯正歯科　小児歯科　歯科口腔外科"},{"id":"medical-3-8707","name":"医療法人社団人成会　立会川歯科・矯正歯科　東大井おとなとこどもと歯ならびの歯医者さん","categoryId":"medical","categoryLabel":"医疗","lat":35.597956,"lng":139.738786,"stationId":"station-004244","note":"歯科　矯正歯科　小児歯科　歯科口腔外科"},{"id":"medical-2-8744","name":"医療法人社団仁平会　平和島整形外科","categoryId":"medical","categoryLabel":"医疗","lat":35.579061,"lng":139.732995,"stationId":"station-004294","note":"耳鼻咽喉科"},{"id":"medical-3-9220","name":"医療法人社団創新会　アプルビル歯科医院","categoryId":"medical","categoryLabel":"医疗","lat":35.578621,"lng":139.736737,"stationId":"station-004294","note":"歯科"},{"id":"medical-2-9157","name":"医療法人社団千秋双葉会　東京シティクリニック品川","categoryId":"medical","categoryLabel":"医疗","lat":35.599998,"lng":139.751452,"stationId":"station-004220","note":"内科　皮膚科　小児科　アレルギー科　耳鼻咽喉科"},{"id":"medical-3-9373","name":"医療法人社団卓信会　パトリアデンタルクリニック","categoryId":"medical","categoryLabel":"医疗","lat":35.599583,"lng":139.750091,"stationId":"station-004220","note":"歯科　矯正歯科　小児歯科　歯科口腔外科"},{"id":"medical-2-8552","name":"医療法人社団城南はじめ会　ひろクリニック大森","categoryId":"medical","categoryLabel":"医疗","lat":35.590378,"lng":139.732957,"stationId":"station-004268","note":"内科　外科　精神科"},{"id":"medical-3-9247","name":"医療法人社団壮心会 ウチダ歯科クリニック","categoryId":"medical","categoryLabel":"医疗","lat":35.584388,"lng":139.733288,"stationId":"station-004268","note":"歯科　小児歯科"},{"id":"medical-2-8762","name":"医療法人社団尽徳会　酒寄医院","categoryId":"medical","categoryLabel":"医疗","lat":35.597688,"lng":139.740715,"stationId":"station-004244","note":"内科　呼吸器科　小児科　神経内科"},{"id":"medical-3-7829","name":"医療法人社団弘心会　タウン歯科","categoryId":"medical","categoryLabel":"医疗","lat":35.591413,"lng":139.732054,"stationId":"station-004264","note":"歯科　矯正歯科　小児歯科　歯科口腔外科"},{"id":"medical-2-7831","name":"医療法人社団弘親会　名和医院","categoryId":"medical","categoryLabel":"医疗","lat":35.578509,"lng":139.736676,"stationId":"station-004294","note":"内科　外科"},{"id":"medical-2-8843","name":"医療法人社団成仁会　さたけクリニック","categoryId":"medical","categoryLabel":"医疗","lat":35.584528,"lng":139.730009,"stationId":"station-004264","note":"産婦人科　小児科　内科"},{"id":"medical-2-7306","name":"医療法人社団桐花会　川村内科クリニック","categoryId":"medical","categoryLabel":"医疗","lat":35.596823,"lng":139.754164,"stationId":"station-004244","note":"内科　循環器科　小児科"},{"id":"medical-2-8903","name":"医療法人社団正智会　京浜中央クリニック","categoryId":"medical","categoryLabel":"医疗","lat":35.597825,"lng":139.738123,"stationId":"station-004244","note":"内科　呼吸器科　胃腸科　循環器科　小児科　外科　整形外科　リハビリテーション科　放射線科"},{"id":"medical-3-8141","name":"医療法人社団歯仁会　伊藤歯科医院","categoryId":"medical","categoryLabel":"医疗","lat":35.598124,"lng":139.732612,"stationId":"station-004244","note":"歯科"},{"id":"medical-3-8146","name":"医療法人社団歯舞会　服部デンタルクリニック","categoryId":"medical","categoryLabel":"医疗","lat":35.588309,"lng":139.731326,"stationId":"station-004264","note":"歯科　矯正歯科　小児歯科　歯科口腔外科"},{"id":"medical-2-7049","name":"医療法人社団永仁会　永津クリニック","categoryId":"medical","categoryLabel":"医疗","lat":35.596823,"lng":139.754164,"stationId":"station-004244","note":"内科"},{"id":"medical-2-9051","name":"医療法人社団誠仁会　北條医院","categoryId":"medical","categoryLabel":"医疗","lat":35.584428,"lng":139.732461,"stationId":"station-004268","note":"内科　外科　肛門科"},{"id":"medical-3-9044","name":"医療法人社団誠勝会　南大井歯科クリニック","categoryId":"medical","categoryLabel":"医疗","lat":35.595444,"lng":139.738768,"stationId":"station-004244","note":"歯科　矯正歯科　小児歯科　歯科口腔外科"},{"id":"medical-2-18787","name":"南大井クリニック","categoryId":"medical","categoryLabel":"医疗","lat":35.588053,"lng":139.735158,"stationId":"station-004268","note":"内科　泌尿器科"},{"id":"medical-2-18788","name":"南大井ペインクリニック・整形外科","categoryId":"medical","categoryLabel":"医疗","lat":35.592115,"lng":139.733971,"stationId":"station-004268","note":"ペインクリニック整形外科　整形外科"},{"id":"medical-3-12511","name":"古川歯科","categoryId":"medical","categoryLabel":"医疗","lat":35.588869,"lng":139.730912,"stationId":"station-004264","note":"歯科"},{"id":"medical-2-19395","name":"品川区立八潮南特別養護老人ホーム医務室","categoryId":"medical","categoryLabel":"医疗","lat":35.598544,"lng":139.75272,"stationId":"station-004220","note":"内科"},{"id":"medical-2-10880","name":"園田クリニック","categoryId":"medical","categoryLabel":"医疗","lat":35.597853,"lng":139.750674,"stationId":"station-004244","note":"内科　呼吸器科　胃腸科　循環器科　小児科　外科　整形外科　肛門科"},{"id":"medical-3-17981","name":"土橋歯科医院","categoryId":"medical","categoryLabel":"医疗","lat":35.578292,"lng":139.734156,"stationId":"station-004294","note":"歯科　矯正歯科　小児歯科　歯科口腔外科"},{"id":"medical-2-16826","name":"大恵クリニック","categoryId":"medical","categoryLabel":"医疗","lat":35.579868,"lng":139.738631,"stationId":"station-004294","note":"内科　精神科"},{"id":"medical-3-16882","name":"大森みんなの歯科クリニック","categoryId":"medical","categoryLabel":"医疗","lat":35.588245,"lng":139.730537,"stationId":"station-004264","note":"歯科　小児歯科　歯科口腔外科"},{"id":"medical-2-16880","name":"大森フラワー眼科","categoryId":"medical","categoryLabel":"医疗","lat":35.586536,"lng":139.732465,"stationId":"station-004268","note":"内科"},{"id":"medical-2-16889","name":"大森海岸やまもと眼科内科","categoryId":"medical","categoryLabel":"医疗","lat":35.587502,"lng":139.733949,"stationId":"station-004268","note":"内科　眼科"},{"id":"medical-2-16910","name":"大森老人ホーム","categoryId":"medical","categoryLabel":"医疗","lat":35.580849,"lng":139.737812,"stationId":"station-004294","note":"内科　小児科　皮膚科"},{"id":"medical-3-11607","name":"岩田歯科医院","categoryId":"medical","categoryLabel":"医疗","lat":35.577925,"lng":139.735704,"stationId":"station-004294","note":"歯科"},{"id":"medical-2-19732","name":"平和島医院","categoryId":"medical","categoryLabel":"医疗","lat":35.578806,"lng":139.733954,"stationId":"station-004294","note":"内科　外科　整形外科　皮膚科　リハビリテーション科"},{"id":"medical-2-19733","name":"平和島競艇場医務室","categoryId":"medical","categoryLabel":"医疗","lat":35.586089,"lng":139.740312,"stationId":"station-004268","note":"内科"},{"id":"medical-3-16053","name":"斉藤歯科クリニック","categoryId":"medical","categoryLabel":"医疗","lat":35.582301,"lng":139.733746,"stationId":"station-004294","note":"歯科　矯正歯科　小児歯科　歯科口腔外科"},{"id":"medical-3-15276","name":"新明歯科医院","categoryId":"medical","categoryLabel":"医疗","lat":35.587717,"lng":139.733656,"stationId":"station-004268","note":"歯科　矯正歯科　小児歯科"},{"id":"medical-2-18963","name":"日立造船健康保険組合東京診療所","categoryId":"medical","categoryLabel":"医疗","lat":35.588724,"lng":139.73173,"stationId":"station-004264","note":"内科"},{"id":"medical-3-19602","name":"服部歯科医院","categoryId":"medical","categoryLabel":"医疗","lat":35.575385,"lng":139.734798,"stationId":"station-004294","note":"歯科　小児歯科　歯科口腔外科"},{"id":"medical-2-18092","name":"東京ジェンダークリニック","categoryId":"medical","categoryLabel":"医疗","lat":35.587725,"lng":139.734524,"stationId":"station-004268","note":"形成外科　泌尿器科　美容外科　精神科"},{"id":"medical-3-18317","name":"東京流通センター歯科クリニック","categoryId":"medical","categoryLabel":"医疗","lat":35.581188,"lng":139.748218,"stationId":"station-004285","note":"歯科　矯正歯科　小児歯科　歯科口腔外科"},{"id":"medical-2-18044","name":"東海クリニック","categoryId":"medical","categoryLabel":"医疗","lat":35.581023,"lng":139.760031,"stationId":"station-004285","note":"内科　小児科　消化器科　循環器科"},{"id":"medical-2-18046","name":"東海渡井クリニック","categoryId":"medical","categoryLabel":"医疗","lat":35.581023,"lng":139.760031,"stationId":"station-004285","note":"内科"},{"id":"medical-3-16467","name":"染谷歯科医院","categoryId":"medical","categoryLabel":"医疗","lat":35.580915,"lng":139.730484,"stationId":"station-004294","note":"歯科　矯正歯科　歯科口腔外科　小児歯科"},{"id":"medical-2-11450","name":"株式会社日立製作所　大森健康支援センタ","categoryId":"medical","categoryLabel":"医疗","lat":35.587848,"lng":139.730496,"stationId":"station-004264","note":"内科"},{"id":"medical-2-19524","name":"武越内科クリニック","categoryId":"medical","categoryLabel":"医疗","lat":35.58999,"lng":139.732773,"stationId":"station-004268","note":"内科　呼吸器科　消化器科　循環器科　アレルギー科　リハビリテーション科"},{"id":"medical-3-17255","name":"池田歯科医院","categoryId":"medical","categoryLabel":"医疗","lat":35.578806,"lng":139.733954,"stationId":"station-004294","note":"歯科　小児歯科　矯正歯科　歯科口腔外科"},{"id":"medical-2-17249","name":"池田眼科クリニック","categoryId":"medical","categoryLabel":"医疗","lat":35.59652,"lng":139.740213,"stationId":"station-004244","note":"眼科"},{"id":"medical-2-12834","name":"溝谷医院","categoryId":"medical","categoryLabel":"医疗","lat":35.575027,"lng":139.73498,"stationId":"station-004307","note":"内科"},{"id":"medical-2-18534","name":"特別区人事・厚生事務組合更生施設　浜川荘医務室","categoryId":"medical","categoryLabel":"医疗","lat":35.597048,"lng":139.742702,"stationId":"station-004244","note":"内科　外科"},{"id":"medical-2-17805","name":"田中医院","categoryId":"medical","categoryLabel":"医疗","lat":35.57681,"lng":139.740218,"stationId":"station-004294","note":"外科　整形外科　リハビリテーション科　放射線科"},{"id":"medical-2-17808","name":"田中外科整形外科","categoryId":"medical","categoryLabel":"医疗","lat":35.57681,"lng":139.740218,"stationId":"station-004294","note":"耳鼻いんこう科　アレルギー科　小児科"},{"id":"medical-3-17758","name":"田所歯科医院","categoryId":"medical","categoryLabel":"医疗","lat":35.578184,"lng":139.76053,"stationId":"station-004285","note":"歯科　小児歯科"},{"id":"medical-2-16088","name":"石井診療所","categoryId":"medical","categoryLabel":"医疗","lat":35.597289,"lng":139.737341,"stationId":"station-004244","note":"内科　小児科　消化器内科"},{"id":"medical-3-16139","name":"石川歯科クリニック","categoryId":"medical","categoryLabel":"医疗","lat":35.578763,"lng":139.736412,"stationId":"station-004294","note":"歯科　歯科口腔外科　矯正歯科　小児歯科"},{"id":"medical-2-17299","name":"竹内医院","categoryId":"medical","categoryLabel":"医疗","lat":35.580759,"lng":139.730807,"stationId":"station-004294","note":"内科　消化器　肝臓内科　循環器内科　小児科"},{"id":"medical-3-17304","name":"竹内歯科医院","categoryId":"medical","categoryLabel":"医疗","lat":35.597434,"lng":139.73949,"stationId":"station-004244","note":"歯科"},{"id":"medical-2-19801","name":"芳賀医院","categoryId":"medical","categoryLabel":"医疗","lat":35.582168,"lng":139.731951,"stationId":"station-004294","note":"皮膚科　アレルギー科"},{"id":"medical-2-11287","name":"賀来耳鼻咽喉科医院","categoryId":"medical","categoryLabel":"医疗","lat":35.597983,"lng":139.737679,"stationId":"station-004244","note":"耳鼻咽喉科"},{"id":"medical-3-13069","name":"轟歯科医院","categoryId":"medical","categoryLabel":"医疗","lat":35.590445,"lng":139.732068,"stationId":"station-004264","note":"歯科"},{"id":"medical-2-12149","name":"金尾診療所","categoryId":"medical","categoryLabel":"医疗","lat":35.591452,"lng":139.730562,"stationId":"station-004264","note":"内科　小児科　外科　皮膚科"},{"id":"medical-2-12954","name":"高根クリニック","categoryId":"medical","categoryLabel":"医疗","lat":35.589139,"lng":139.730437,"stationId":"station-004264","note":"内科　産婦人科　皮膚科　泌尿器科"},{"id":"public-13111-21458","name":"こらぼ大森","categoryId":"public_service","categoryLabel":"公共服务","lat":35.576816,"lng":139.730055,"stationId":"station-004294","note":"大田区大森西2-16-2"},{"id":"public-13109-21276","name":"なぎさ会館","categoryId":"public_service","categoryLabel":"公共服务","lat":35.596316,"lng":139.741733,"stationId":"station-004244","note":"品川区勝島3-1-3"},{"id":"public-13111-21468","name":"ゆうゆうくらぶ入新井","categoryId":"public_service","categoryLabel":"公共服务","lat":35.583396,"lng":139.730702,"stationId":"station-004268","note":"大田区大森北3-24-27"},{"id":"public-13111-21464","name":"ゆうゆうくらぶ大森東地域センター","categoryId":"public_service","categoryLabel":"公共服务","lat":35.576228,"lng":139.738635,"stationId":"station-004294","note":"大田区大森東1-31-3-105"},{"id":"public-13109-21287","name":"区民斎場なぎさ会館","categoryId":"public_service","categoryLabel":"公共服务","lat":35.596317,"lng":139.741733,"stationId":"station-004244","note":"品川区勝島3-1-3"},{"id":"public-13109-21337","name":"南大井シルバーセンター","categoryId":"public_service","categoryLabel":"公共服务","lat":35.591737,"lng":139.73431,"stationId":"station-004268","note":"品川区南大井3-7-13"},{"id":"public-13109-21339","name":"南大井児童センター","categoryId":"public_service","categoryLabel":"公共服务","lat":35.591729,"lng":139.734232,"stationId":"station-004268","note":"品川区南大井3-7-13シルバーセンター・図書館"},{"id":"public-13109-21335","name":"大井第一地域センター","categoryId":"public_service","categoryLabel":"公共服务","lat":35.596306,"lng":139.737598,"stationId":"station-004244","note":"品川区南大井1-12-6"},{"id":"public-13111-21460","name":"大森西特別出張所","categoryId":"public_service","categoryLabel":"公共服务","lat":35.576557,"lng":139.730254,"stationId":"station-004307","note":"大田区大森西2-16-2"},{"id":"public-13111-21505","name":"大田区青少年交流センターゆいっつ","categoryId":"public_service","categoryLabel":"公共服务","lat":35.583518,"lng":139.742987,"stationId":"station-004285","note":"大田区平和島4-2-15"},{"id":"public-13111-21456","name":"子ども交流センター","categoryId":"public_service","categoryLabel":"公共服务","lat":35.5768,"lng":139.730253,"stationId":"station-004294","note":"大田区大森西2-16-2"},{"id":"public-13111-21504","name":"平和の森会館","categoryId":"public_service","categoryLabel":"公共服务","lat":35.582621,"lng":139.739721,"stationId":"station-004294","note":"大田区平和の森公園2-3"},{"id":"public-13109-21307","name":"水神児童センター","categoryId":"public_service","categoryLabel":"公共服务","lat":35.59549,"lng":139.733864,"stationId":"station-004244","note":"品川区南大井5-13-19"},{"id":"public-13111-21463","name":"美原文化センター","categoryId":"public_service","categoryLabel":"公共服务","lat":35.577155,"lng":139.738107,"stationId":"station-004294","note":"大田区大森東1-28-9"},{"id":"public-13111-21470","name":"大森スポーツセンター","categoryId":"sports","categoryLabel":"体育设施","lat":35.580927,"lng":139.737396,"stationId":"station-004294","note":"大田区大森本町2-2-5"}]
