[{"id":"public-13103-20933","name":"三田図書館","categoryId":"library","categoryLabel":"图书馆","lat":35.64705,"lng":139.745211,"stationId":"station-004000","note":"港区芝5-36-4"},{"id":"medical-2-627","name":"あすか製薬株式会社　本社　診療室","categoryId":"medical","categoryLabel":"医疗","lat":35.645232,"lng":139.753969,"stationId":"station-004030","note":"内科　精神科"},{"id":"medical-2-739","name":"ありいずみ内科","categoryId":"medical","categoryLabel":"医疗","lat":35.642843,"lng":139.749804,"stationId":"station-004000","note":"内科　消化器科"},{"id":"medical-2-978","name":"いわたにクリニック","categoryId":"medical","categoryLabel":"医疗","lat":35.649114,"lng":139.74498,"stationId":"station-003987","note":"心療内科　神経科　精神科"},{"id":"medical-3-1006","name":"うえたに歯科医院","categoryId":"medical","categoryLabel":"医疗","lat":35.64443,"lng":139.73159,"stationId":"station-004026","note":"歯科　矯正歯科　小児歯科　歯科口腔外科"},{"id":"medical-2-1307","name":"おくむら整形外科内科クリニック","categoryId":"medical","categoryLabel":"医疗","lat":35.64755,"lng":139.745221,"stationId":"station-004000","note":"整形外科　内科　リハビリテーション科　リウマチ科　皮膚科"},{"id":"medical-3-1311","name":"おく村矯正歯科医院","categoryId":"medical","categoryLabel":"医疗","lat":35.643175,"lng":139.741745,"stationId":"station-004043","note":"歯科　矯正歯科　小児歯科"},{"id":"medical-3-1414","name":"かがみ歯科医院","categoryId":"medical","categoryLabel":"医疗","lat":35.635408,"lng":139.731014,"stationId":"station-004079","note":"歯科　矯正歯科　小児歯科　歯科口腔外科"},{"id":"medical-2-1415","name":"かがやき内科・糖尿病クリニック","categoryId":"medical","categoryLabel":"医疗","lat":35.632962,"lng":139.731228,"stationId":"station-004079","note":"糖尿病内科　内科　内分泌内科"},{"id":"medical-3-1449","name":"かたくら歯科医院","categoryId":"medical","categoryLabel":"医疗","lat":35.649139,"lng":139.752392,"stationId":"station-003987","note":"歯科　矯正歯科　小児歯科　歯科口腔外科"},{"id":"medical-2-1450","name":"かただ小児科クリニック","categoryId":"medical","categoryLabel":"医疗","lat":35.636776,"lng":139.733502,"stationId":"station-004043","note":"小児科　アレルギー科　精神科　内科"},{"id":"medical-3-1456","name":"かつらファミリー歯科","categoryId":"medical","categoryLabel":"医疗","lat":35.637883,"lng":139.733674,"stationId":"station-004043","note":"歯科　矯正歯科　小児歯科　歯科口腔外科"},{"id":"medical-3-1460","name":"かとうまみ歯科","categoryId":"medical","categoryLabel":"医疗","lat":35.646592,"lng":139.739797,"stationId":"station-004026","note":"歯科　矯正歯科　小児歯科　歯科口腔外科"},{"id":"medical-3-1476","name":"かない歯科医院","categoryId":"medical","categoryLabel":"医疗","lat":35.646674,"lng":139.73152,"stationId":"station-004026","note":"歯科　小児歯科"},{"id":"medical-2-1604","name":"きつかわクリニック","categoryId":"medical","categoryLabel":"医疗","lat":35.646624,"lng":139.746225,"stationId":"station-004000","note":"泌尿器科　内科"},{"id":"medical-3-1669","name":"くぼた歯科医院","categoryId":"medical","categoryLabel":"医疗","lat":35.644639,"lng":139.736575,"stationId":"station-004026","note":"歯科　矯正歯科　小児歯科　歯科口腔外科"},{"id":"medical-2-2100","name":"さくら内視鏡クリニック品川","categoryId":"medical","categoryLabel":"医疗","lat":35.628497,"lng":139.742611,"stationId":"shinagawa","note":"内科　消化器内科　内視鏡内科　胃腸内科　肛門外科"},{"id":"medical-2-2255","name":"しのぶ皮膚科","categoryId":"medical","categoryLabel":"医疗","lat":35.646697,"lng":139.737472,"stationId":"station-004026","note":"皮膚科"},{"id":"medical-2-2265","name":"しば胃腸こうもんクリニック","categoryId":"medical","categoryLabel":"医疗","lat":35.648184,"lng":139.751278,"stationId":"station-003987","note":"外科　消化器内科　肛門外科"},{"id":"medical-2-2300","name":"しもだ皮ふ科クリニック","categoryId":"medical","categoryLabel":"医疗","lat":35.632962,"lng":139.731228,"stationId":"station-004079","note":"皮膚科　アレルギー科　小児皮膚科　美容皮膚科"},{"id":"medical-2-2342","name":"しろかねたかなわクリニック","categoryId":"medical","categoryLabel":"医疗","lat":35.645096,"lng":139.734507,"stationId":"station-004026","note":"心療内科　精神科　児童精神科　老年精神科"},{"id":"medical-3-2696","name":"たなかデンタルオフィス","categoryId":"medical","categoryLabel":"医疗","lat":35.649401,"lng":139.745006,"stationId":"station-003987","note":"歯科　矯正歯科　小児歯科"},{"id":"medical-2-2736","name":"たまち恒清会眼科","categoryId":"medical","categoryLabel":"医疗","lat":35.644964,"lng":139.748347,"stationId":"station-004000","note":"アレルギー科　眼科"},{"id":"medical-2-3028","name":"とようら小児科","categoryId":"medical","categoryLabel":"医疗","lat":35.642851,"lng":139.750016,"stationId":"station-004000","note":"小児科"},{"id":"medical-2-3219","name":"にしや耳鼻咽喉科クリニック","categoryId":"medical","categoryLabel":"医疗","lat":35.625111,"lng":139.740688,"stationId":"station-004125","note":"耳鼻いんこう科　気管食道科　アレルギー科"},{"id":"medical-2-3424","name":"はやし耳鼻咽喉科","categoryId":"medical","categoryLabel":"医疗","lat":35.649918,"lng":139.737107,"stationId":"station-003955","note":"耳鼻いんこう科　気管食道科"},{"id":"medical-3-3581","name":"ひろこデンタルクリニック","categoryId":"medical","categoryLabel":"医疗","lat":35.648721,"lng":139.745728,"stationId":"station-003987","note":"歯科　矯正歯科　小児歯科"},{"id":"medical-3-3841","name":"ほんだ歯科クリニック田町","categoryId":"medical","categoryLabel":"医疗","lat":35.64304,"lng":139.748572,"stationId":"station-004000","note":"歯科　矯正歯科　小児歯科　口腔外科"},{"id":"medical-2-3806","name":"ぼだい樹クリニック","categoryId":"medical","categoryLabel":"医疗","lat":35.64962,"lng":139.753594,"stationId":"station-003987","note":"内科　ペインクリニック　循環器内科"},{"id":"medical-3-3922","name":"まつなが歯科医院","categoryId":"medical","categoryLabel":"医疗","lat":35.637894,"lng":139.739352,"stationId":"station-004043","note":"歯科　小児歯科　歯科口腔外科"},{"id":"medical-2-3928","name":"まつみレディースクリニック三田","categoryId":"medical","categoryLabel":"医疗","lat":35.648795,"lng":139.751266,"stationId":"station-003987","note":"産科　婦人科　産婦人科"},{"id":"medical-3-4045","name":"みどり矯正歯科","categoryId":"medical","categoryLabel":"医疗","lat":35.647477,"lng":139.754148,"stationId":"station-003987","note":"矯正歯科"},{"id":"medical-2-4053","name":"みなとウィメンズクリニック","categoryId":"medical","categoryLabel":"医疗","lat":35.641067,"lng":139.748707,"stationId":"station-004000","note":"産婦人科　内科　皮膚科"},{"id":"medical-2-4055","name":"みなと健診クリニック","categoryId":"medical","categoryLabel":"医疗","lat":35.628703,"lng":139.743056,"stationId":"shinagawa","note":"内科　消化器内科　胃腸内科　循環器内科　アレルギー科　呼吸器内科　乳腺外科　漢方内科"},{"id":"medical-2-4109","name":"みゆきクリニック","categoryId":"medical","categoryLabel":"医疗","lat":35.626002,"lng":139.736867,"stationId":"shinagawa","note":"精神科　心療内科"},{"id":"medical-2-4229","name":"もとやまクリニック","categoryId":"medical","categoryLabel":"医疗","lat":35.645834,"lng":139.731597,"stationId":"station-004026","note":"内科　循環器科"},{"id":"medical-3-4356","name":"ゆあさ歯科医院","categoryId":"medical","categoryLabel":"医疗","lat":35.64657,"lng":139.7441,"stationId":"station-004000","note":"歯科"},{"id":"medical-2-4413","name":"ゆりクリニック","categoryId":"medical","categoryLabel":"医疗","lat":35.646668,"lng":139.746305,"stationId":"station-004000","note":"整形外科　内科　美容皮膚科"},{"id":"medical-2-4527","name":"らんレディースクリニック","categoryId":"medical","categoryLabel":"医疗","lat":35.625128,"lng":139.731523,"stationId":"station-004136","note":"婦人科　内科　泌尿器科"},{"id":"medical-2-439","name":"アイデス・クリニック","categoryId":"medical","categoryLabel":"医疗","lat":35.633979,"lng":139.732198,"stationId":"station-004079","note":"内科　小児科　精神科　心療内科"},{"id":"medical-3-555","name":"アキラ歯科","categoryId":"medical","categoryLabel":"医疗","lat":35.628688,"lng":139.741974,"stationId":"shinagawa","note":"歯科"},{"id":"medical-3-1402","name":"カームデンタルクリニック高輪","categoryId":"medical","categoryLabel":"医疗","lat":35.632229,"lng":139.73797,"stationId":"shinagawa","note":"歯科　矯正歯科　小児歯科　歯科口腔外科"},{"id":"medical-3-1397","name":"ガーデンクリニック　ザ・ホワイトデンタルクリニック品川院","categoryId":"medical","categoryLabel":"医疗","lat":35.625069,"lng":139.737701,"stationId":"station-004125","note":"歯科　矯正歯科　歯科口腔外科　美容外科　形成外科　美容皮膚科　泌尿器科　整形外科"},{"id":"medical-2-1711","name":"クリニック　ドクターメンタル","categoryId":"medical","categoryLabel":"医疗","lat":35.6471,"lng":139.74619,"stationId":"station-004000","note":"心療内科　精神科"},{"id":"medical-2-1726","name":"クリニックやなぎさわ","categoryId":"medical","categoryLabel":"医疗","lat":35.627276,"lng":139.735064,"stationId":"shinagawa","note":"内科　漢方内科　心療内科"},{"id":"medical-2-1722","name":"クリニックフォア田町","categoryId":"medical","categoryLabel":"医疗","lat":35.644964,"lng":139.748347,"stationId":"station-004000","note":"内科　皮膚科　アレルギー科　美容皮膚科　糖尿病内科"},{"id":"medical-2-1690","name":"グランドプリンスホテル新高輪診療所","categoryId":"medical","categoryLabel":"医疗","lat":35.631017,"lng":139.736329,"stationId":"shinagawa","note":"内科"},{"id":"medical-3-1692","name":"グランパーク歯科クリニック","categoryId":"medical","categoryLabel":"医疗","lat":35.643678,"lng":139.745604,"stationId":"station-004000","note":"歯科　矯正歯科　小児歯科　歯科口腔外科"},{"id":"medical-2-1851","name":"コクヨ品川健康管理室","categoryId":"medical","categoryLabel":"医疗","lat":35.630039,"lng":139.743259,"stationId":"shinagawa","note":"内科"},{"id":"medical-3-1841","name":"ゴールド麻布デンタルクリニック","categoryId":"medical","categoryLabel":"医疗","lat":35.647658,"lng":139.732269,"stationId":"station-004026","note":"歯科　矯正歯科　小児歯科　歯科口腔外科"},{"id":"medical-3-2102","name":"ササガワ・エースデンタル","categoryId":"medical","categoryLabel":"医疗","lat":35.63788,"lng":139.737895,"stationId":"station-004043","note":"歯科　矯正歯科"},{"id":"medical-3-2189","name":"サンヒルズ歯科クリニック","categoryId":"medical","categoryLabel":"医疗","lat":35.645579,"lng":139.738728,"stationId":"station-004026","note":"歯科　矯正歯科　小児歯科　歯科口腔外科"},{"id":"medical-3-2198","name":"サン歯科医院","categoryId":"medical","categoryLabel":"医疗","lat":35.64864,"lng":139.745233,"stationId":"station-003987","note":"歯科"},{"id":"medical-2-2240","name":"シナネンホールディングス株式会社　健康管理室","categoryId":"medical","categoryLabel":"医疗","lat":35.6438,"lng":139.742222,"stationId":"station-004000","note":"内科"},{"id":"medical-3-2260","name":"シバウラ歯科","categoryId":"medical","categoryLabel":"医疗","lat":35.643107,"lng":139.750176,"stationId":"station-004000","note":"歯科"},{"id":"medical-2-2305","name":"シャープ健康保険組合　東京健康管理室","categoryId":"medical","categoryLabel":"医疗","lat":35.649289,"lng":139.75612,"stationId":"station-003979","note":"内科"},{"id":"medical-2-2543","name":"ソニーピープルソリューションズ株式会社　本社診療所","categoryId":"medical","categoryLabel":"医疗","lat":35.631187,"lng":139.743881,"stationId":"shinagawa","note":"内科"},{"id":"medical-2-2984","name":"トッパングループ健康保険組合　芝浦診療所","categoryId":"medical","categoryLabel":"医疗","lat":35.641644,"lng":139.749794,"stationId":"station-004000","note":"内科"},{"id":"medical-2-3038","name":"トヨタモビリティ東京株式会社診療所","categoryId":"medical","categoryLabel":"医疗","lat":35.639386,"lng":139.745648,"stationId":"station-004043","note":"内科"},{"id":"medical-2-2962","name":"ドクターゴールドマンクリニック東京高輪院","categoryId":"medical","categoryLabel":"医疗","lat":35.635462,"lng":139.738258,"stationId":"station-004061","note":"美容外科　形成外科　皮膚科　泌尿器科　性病科"},{"id":"medical-2-3194","name":"ニコン本社健康支援室","categoryId":"medical","categoryLabel":"医疗","lat":35.626454,"lng":139.741919,"stationId":"shinagawa","note":"内科　精神科　循環器内科"},{"id":"medical-2-3323","name":"バイオタッチメディカルクリニック","categoryId":"medical","categoryLabel":"医疗","lat":35.639142,"lng":139.738694,"stationId":"station-004043","note":"皮膚科　美容皮膚科　美容外科　形成外科"},{"id":"medical-3-3557","name":"ピュアリオ歯科・矯正歯科","categoryId":"medical","categoryLabel":"医疗","lat":35.648103,"lng":139.744863,"stationId":"station-004000","note":"歯科　矯正歯科　小児歯科　歯科口腔外科"},{"id":"medical-2-3630","name":"フィデスレディースクリニック田町","categoryId":"medical","categoryLabel":"医疗","lat":35.646927,"lng":139.746263,"stationId":"station-004000","note":"婦人科"},{"id":"medical-3-3724","name":"プラナス矯正歯科","categoryId":"medical","categoryLabel":"医疗","lat":35.641736,"lng":139.74873,"stationId":"station-004000","note":"矯正歯科"},{"id":"medical-3-3742","name":"プルチーノ歯科・矯正歯科　東京","categoryId":"medical","categoryLabel":"医疗","lat":35.64546,"lng":139.750415,"stationId":"station-004000","note":"歯科　矯正歯科　小児歯科　歯科口腔外科"},{"id":"medical-3-3847","name":"マーサ白金オーラルクリニック","categoryId":"medical","categoryLabel":"医疗","lat":35.644452,"lng":139.730408,"stationId":"station-004026","note":"歯科　矯正歯科　小児歯科　歯科口腔外科"},{"id":"medical-2-4192","name":"メディカル　インスペクション　芝浦","categoryId":"medical","categoryLabel":"医疗","lat":35.64194,"lng":139.750528,"stationId":"station-004000","note":"内科　消化器科"},{"id":"medical-2-4536","name":"リウマチ・ひざ研究所クバさんクリニック","categoryId":"medical","categoryLabel":"医疗","lat":35.625502,"lng":139.736132,"stationId":"station-004125","note":"リウマチ科"},{"id":"medical-3-4580","name":"ルピナス矯正歯科〜高輪〜","categoryId":"medical","categoryLabel":"医疗","lat":35.634736,"lng":139.732084,"stationId":"station-004079","note":"矯正歯科"},{"id":"medical-3-4582","name":"ルフレ矯正歯科クリニック","categoryId":"medical","categoryLabel":"医疗","lat":35.646162,"lng":139.744671,"stationId":"station-004000","note":"歯科　矯正歯科"},{"id":"medical-2-4617","name":"ワールドシティ益子クリニック","categoryId":"medical","categoryLabel":"医疗","lat":35.62761,"lng":139.750744,"stationId":"station-004123","note":"内科　小児科"},{"id":"medical-2-10702","name":"一般財団法人関東電気保安協会　健康相談室","categoryId":"medical","categoryLabel":"医疗","lat":35.640245,"lng":139.747998,"stationId":"station-004000","note":"内科　精神科"},{"id":"medical-3-13451","name":"三慶歯科クリニック","categoryId":"medical","categoryLabel":"医疗","lat":35.647074,"lng":139.744122,"stationId":"station-004000","note":"歯科　矯正歯科　小児歯科"},{"id":"medical-3-13525","name":"三田クリニック歯科口腔外科","categoryId":"medical","categoryLabel":"医疗","lat":35.647451,"lng":139.750229,"stationId":"station-003987","note":"歯科　矯正歯科　歯科口腔外科"},{"id":"medical-2-13526","name":"三田ハウス内科クリニック","categoryId":"medical","categoryLabel":"医疗","lat":35.646697,"lng":139.737472,"stationId":"station-004026","note":"内科　循環器内科　整形外科　皮膚科　形成外科　小児科"},{"id":"medical-2-13527","name":"三田医院","categoryId":"medical","categoryLabel":"医疗","lat":35.649728,"lng":139.745813,"stationId":"station-003987","note":"内科"},{"id":"medical-2-13531","name":"三田施薬院診療所","categoryId":"medical","categoryLabel":"医疗","lat":35.646494,"lng":139.73729,"stationId":"station-004026","note":"漢方内科"},{"id":"medical-2-13535","name":"三田皮膚科","categoryId":"medical","categoryLabel":"医疗","lat":35.648795,"lng":139.751266,"stationId":"station-003987","note":"皮膚科"},{"id":"medical-2-13528","name":"三田眼科","categoryId":"medical","categoryLabel":"医疗","lat":35.647331,"lng":139.747745,"stationId":"station-003987","note":"眼科"},{"id":"medical-2-13536","name":"三田麻酔科クリニック（往診専門）","categoryId":"medical","categoryLabel":"医疗","lat":35.640909,"lng":139.738741,"stationId":"station-004043","note":"内科　麻酔科"},{"id":"medical-3-13549","name":"三穂デンタルクリニック","categoryId":"medical","categoryLabel":"医疗","lat":35.647435,"lng":139.744293,"stationId":"station-004000","note":"歯科　矯正歯科　小児歯科　歯科口腔外科"},{"id":"medical-2-13545","name":"三菱自動車工業株式会社　本社診療所","categoryId":"medical","categoryLabel":"医疗","lat":35.644948,"lng":139.749221,"stationId":"station-004000","note":"内科　精神科"},{"id":"medical-2-13546","name":"三菱重工業株式会社　本社健康管理センター","categoryId":"medical","categoryLabel":"医疗","lat":35.626151,"lng":139.740931,"stationId":"shinagawa","note":"内科　精神科　歯科"},{"id":"medical-3-17387","name":"中川歯科クリニック","categoryId":"medical","categoryLabel":"医疗","lat":35.641203,"lng":139.748167,"stationId":"station-004000","note":"歯科　矯正歯科　小児歯科　歯科口腔外科"},{"id":"medical-3-10624","name":"井手歯科医院","categoryId":"medical","categoryLabel":"医疗","lat":35.640039,"lng":139.746012,"stationId":"station-004043","note":"歯科　小児歯科"},{"id":"medical-3-10658","name":"井瀬歯科","categoryId":"medical","categoryLabel":"医疗","lat":35.645836,"lng":139.744525,"stationId":"station-004000","note":"歯科　小児歯科　歯科口腔外科"},{"id":"medical-2-11987","name":"京野アートクリニック高輪","categoryId":"medical","categoryLabel":"医疗","lat":35.631017,"lng":139.736329,"stationId":"shinagawa","note":"婦人科　生殖医療　泌尿器科　不妊治療"},{"id":"medical-3-4761","name":"伊皿子おおね歯科医院","categoryId":"medical","categoryLabel":"医疗","lat":35.640974,"lng":139.737582,"stationId":"station-004043","note":"歯科　矯正歯科　小児歯科　歯科口腔外科"},{"id":"medical-2-4762","name":"伊皿子坂医院","categoryId":"medical","categoryLabel":"医疗","lat":35.639316,"lng":139.738824,"stationId":"station-004043","note":"内科　循環器科　小児科　アレルギー科"},{"id":"medical-2-12432","name":"兼松株式会社診療センター","categoryId":"medical","categoryLabel":"医疗","lat":35.649961,"lng":139.756913,"stationId":"station-003979","note":"内科　外科"},{"id":"medical-2-20530","name":"劉内科整形外科","categoryId":"medical","categoryLabel":"医疗","lat":35.649923,"lng":139.736471,"stationId":"station-003955","note":"内科　整形外科　リハビリテーション科"},{"id":"medical-2-20679","name":"労働衛生調査分析センター　健康管理室","categoryId":"medical","categoryLabel":"医疗","lat":35.645234,"lng":139.745858,"stationId":"station-004000","note":"内科"},{"id":"medical-3-19928","name":"北沢歯科クリニック","categoryId":"medical","categoryLabel":"医疗","lat":35.639763,"lng":139.747106,"stationId":"station-004000","note":"歯科"},{"id":"medical-2-4861","name":"医療法人マリアの会　北方クリニック","categoryId":"medical","categoryLabel":"医疗","lat":35.649698,"lng":139.751728,"stationId":"station-003987","note":"内科　整形外科　リウマチ科"},{"id":"medical-3-10600","name":"医療法人優祉会　芝浦アイランド歯科","categoryId":"medical","categoryLabel":"医疗","lat":35.641106,"lng":139.752742,"stationId":"station-004030","note":"歯科　矯正歯科　小児歯科"},{"id":"medical-3-10561","name":"医療法人樹英会　イーストワンデンタルクリニック","categoryId":"medical","categoryLabel":"医疗","lat":35.627744,"lng":139.740671,"stationId":"shinagawa","note":"歯科　矯正歯科　小児歯科　歯科口腔外科"},{"id":"medical-3-5705","name":"医療法人社団　世航会　芝浦デンタルオフィス東京","categoryId":"medical","categoryLabel":"医疗","lat":35.644964,"lng":139.748347,"stationId":"station-004000","note":"歯科　矯正歯科　小児歯科　歯科口腔外科"},{"id":"medical-2-5371","name":"医療法人社団　健翠会　カピバラあかちゃんこどもクリニック","categoryId":"medical","categoryLabel":"医疗","lat":35.644045,"lng":139.733531,"stationId":"station-004026","note":"小児科　アレルギー科"},{"id":"medical-2-5372","name":"医療法人社団　健翠会　白金眼科クリニック","categoryId":"medical","categoryLabel":"医疗","lat":35.644361,"lng":139.733852,"stationId":"station-004026","note":"眼科"},{"id":"medical-2-5932","name":"医療法人社団　如水会　芝浦皮膚科","categoryId":"medical","categoryLabel":"医疗","lat":35.643578,"lng":139.748952,"stationId":"station-004000","note":"皮膚科"},{"id":"medical-3-5290","name":"医療法人社団　桔梗会　堤歯科","categoryId":"medical","categoryLabel":"医疗","lat":35.643313,"lng":139.748382,"stationId":"station-004000","note":"歯科"},{"id":"medical-3-6104","name":"医療法人社団　澤歯科医院","categoryId":"medical","categoryLabel":"医疗","lat":35.634182,"lng":139.731639,"stationId":"station-004079","note":"歯科"},{"id":"medical-3-6395","name":"医療法人社団うつみ歯科　高輪うつみ歯科","categoryId":"medical","categoryLabel":"医疗","lat":35.635967,"lng":139.733328,"stationId":"station-004079","note":"歯科　矯正歯科　小児歯科　歯科口腔外科"},{"id":"medical-2-6454","name":"医療法人社団くちばクリニック　口羽医院","categoryId":"medical","categoryLabel":"医疗","lat":35.632881,"lng":139.732265,"stationId":"station-004079","note":"内科"},{"id":"medical-2-6347","name":"医療法人社団アズロード高輪台整形外科クリニック","categoryId":"medical","categoryLabel":"医疗","lat":35.632962,"lng":139.731228,"stationId":"station-004079","note":"整形外科　リハビリテーション科"},{"id":"medical-2-6543","name":"医療法人社団スターセルアライアンススタークリニック","categoryId":"medical","categoryLabel":"医疗","lat":35.645291,"lng":139.758649,"stationId":"station-004030","note":"内科　形成外科　美容皮膚科"},{"id":"medical-3-6557","name":"医療法人社団スマイルステーション　高輪矯正歯科医院","categoryId":"medical","categoryLabel":"医疗","lat":35.630276,"lng":139.73782,"stationId":"shinagawa","note":"歯科　矯正歯科"},{"id":"medical-2-6663","name":"医療法人社団ハクナマタタぽれぽれクリニック","categoryId":"medical","categoryLabel":"医疗","lat":35.640974,"lng":139.737582,"stationId":"station-004043","note":"小児科　漢方内科　アレルギー科"},{"id":"medical-2-6731","name":"医療法人社団ブレストサージャリークリニック","categoryId":"medical","categoryLabel":"医疗","lat":35.636383,"lng":139.739261,"stationId":"station-004061","note":"形成外科　美容外科"},{"id":"medical-2-6732","name":"医療法人社団ブレストサージャリークリニック　千晶医院","categoryId":"medical","categoryLabel":"医疗","lat":35.636383,"lng":139.739261,"stationId":"station-004061","note":"皮膚科"},{"id":"medical-2-6806","name":"医療法人社団モルゲンロート　有明みんなクリニック田町芝浦院","categoryId":"medical","categoryLabel":"医疗","lat":35.644741,"lng":139.750659,"stationId":"station-004000","note":"小児科　耳鼻いんこう科"},{"id":"medical-2-8539","name":"医療法人社団上桜会　ゆうメンタルクリニック品川院","categoryId":"medical","categoryLabel":"医疗","lat":35.629235,"lng":139.742978,"stationId":"shinagawa","note":"心療内科　精神科　神経内科"},{"id":"medical-2-7242","name":"医療法人社団久信会　品川駅前皮膚科","categoryId":"medical","categoryLabel":"医疗","lat":35.628688,"lng":139.741974,"stationId":"shinagawa","note":"皮膚科"},{"id":"medical-3-8736","name":"医療法人社団仁心会　野尻歯科","categoryId":"medical","categoryLabel":"医疗","lat":35.64143,"lng":139.747721,"stationId":"station-004000","note":"歯科　矯正歯科　小児歯科"},{"id":"medical-2-7950","name":"医療法人社団佐伯耳鼻咽喉科","categoryId":"medical","categoryLabel":"医疗","lat":35.648721,"lng":139.745728,"stationId":"station-003987","note":"耳鼻いんこう科　小児科　アレルギー科"},{"id":"medical-3-7115","name":"医療法人社団佳明会　高島デンタルオフィス　アレア品川","categoryId":"medical","categoryLabel":"医疗","lat":35.630009,"lng":139.741299,"stationId":"shinagawa","note":"歯科　矯正歯科　小児歯科　歯科口腔外科"},{"id":"medical-2-7116","name":"医療法人社団佳有会　品川イーストクリニック","categoryId":"medical","categoryLabel":"医疗","lat":35.626454,"lng":139.741919,"stationId":"shinagawa","note":"内科　眼科　感染症内科　循環器内科　呼吸器内科"},{"id":"medical-2-7547","name":"医療法人社団健人会　横倉クリニック","categoryId":"medical","categoryLabel":"医疗","lat":35.64902,"lng":139.744974,"stationId":"station-003987","note":"心療内科　内科　婦人科"},{"id":"medical-2-7535","name":"医療法人社団健勝会　港三田クリニック","categoryId":"medical","categoryLabel":"医疗","lat":35.648721,"lng":139.745728,"stationId":"station-003987","note":"内科　婦人科　小児科　循環器内科　消化器内科　心療内科　リハビリテーション科　胃腸内科　内視鏡内科"},{"id":"medical-3-7525","name":"医療法人社団健耕会　麻布なかすじデンタルクリニック","categoryId":"medical","categoryLabel":"医疗","lat":35.647913,"lng":139.736239,"stationId":"station-004026","note":"歯科　矯正歯科　小児歯科　歯科口腔外科"},{"id":"medical-3-10120","name":"医療法人社団優誠秀会　田町芝浦歯科","categoryId":"medical","categoryLabel":"医疗","lat":35.643731,"lng":139.749378,"stationId":"station-004000","note":"歯科　矯正歯科　小児歯科　歯科口腔外科"},{"id":"medical-3-7674","name":"医療法人社団光揚会　ワールドシティデンタルクリニック","categoryId":"medical","categoryLabel":"医疗","lat":35.62761,"lng":139.750744,"stationId":"station-004123","note":"歯科"},{"id":"medical-3-7681","name":"医療法人社団光雙会市川歯科医院","categoryId":"medical","categoryLabel":"医疗","lat":35.625111,"lng":139.740688,"stationId":"station-004125","note":"歯科　矯正歯科　小児歯科　歯科口腔外科"},{"id":"medical-2-8427","name":"医療法人社団勝優会たまちホームクリニック","categoryId":"medical","categoryLabel":"医疗","lat":35.64771,"lng":139.743363,"stationId":"station-004000","note":"内科　消化器内科　胃腸内科　泌尿器科"},{"id":"medical-2-9176","name":"医療法人社団千和会白金タワークリニック","categoryId":"medical","categoryLabel":"医疗","lat":35.644531,"lng":139.733395,"stationId":"station-004026","note":"内科　外科　小児科　肛門外科　肛門内科　胃腸内科"},{"id":"medical-2-9155","name":"医療法人社団千秋双葉会　東京シティクリニック三田","categoryId":"medical","categoryLabel":"医疗","lat":35.648795,"lng":139.751266,"stationId":"station-003987","note":"小児科　アレルギー科　内科"},{"id":"medical-3-7234","name":"医療法人社団吉晟会　ＫＩＳＳＥＩ　ＤＥＮＴＡＬ　ＣＡＲＥ","categoryId":"medical","categoryLabel":"医疗","lat":35.640037,"lng":139.739213,"stationId":"station-004043","note":"歯科　矯正歯科　小児歯科　歯科口腔外科"},{"id":"medical-2-9595","name":"医療法人社団同友会　品川クリニック","categoryId":"medical","categoryLabel":"医疗","lat":35.626491,"lng":139.740845,"stationId":"shinagawa","note":"内科"},{"id":"medical-2-8550","name":"医療法人社団城南すこやか会　城南レディスクリニック品川","categoryId":"medical","categoryLabel":"医疗","lat":35.625069,"lng":139.737701,"stationId":"station-004125","note":"産婦人科　婦人科　不妊治療"},{"id":"medical-2-8266","name":"医療法人社団寿勝会　篠原医院","categoryId":"medical","categoryLabel":"医疗","lat":35.647991,"lng":139.746881,"stationId":"station-003987","note":"内科　皮膚科　外科"},{"id":"medical-3-8430","name":"医療法人社団将森会さくらデンタルクリニック","categoryId":"medical","categoryLabel":"医疗","lat":35.649961,"lng":139.756913,"stationId":"station-003979","note":"歯科　矯正歯科　小児歯科　歯科口腔外科"},{"id":"medical-2-8444","name":"医療法人社団小日向会　芝浦こどもクリニック","categoryId":"medical","categoryLabel":"医疗","lat":35.638881,"lng":139.751815,"stationId":"station-004030","note":"小児科　アレルギー科　内科　形成外科　皮膚科"},{"id":"medical-3-8078","name":"医療法人社団山優会高輪デンタルクリニック","categoryId":"medical","categoryLabel":"医疗","lat":35.636989,"lng":139.73849,"stationId":"station-004043","note":"矯正歯科　歯科　小児歯科　歯科口腔外科"},{"id":"medical-2-7778","name":"医療法人社団広進会　芝浦アイランド皮フ科","categoryId":"medical","categoryLabel":"医疗","lat":35.638881,"lng":139.751815,"stationId":"station-004030","note":"皮膚科　小児皮膚科　美容皮膚科　アレルギー科"},{"id":"medical-2-7794","name":"医療法人社団康寿会　堀産婦人科","categoryId":"medical","categoryLabel":"医疗","lat":35.632746,"lng":139.732339,"stationId":"station-004079","note":"産科　婦人科　産婦人科"},{"id":"medical-2-7414","name":"医療法人社団慶響会　東京ボイスクリニック品川耳鼻いんこう科","categoryId":"medical","categoryLabel":"医疗","lat":35.628497,"lng":139.742611,"stationId":"shinagawa","note":"耳鼻いんこう科"},{"id":"medical-2-7488","name":"医療法人社団敬友会　敬友クリニック高輪","categoryId":"medical","categoryLabel":"医疗","lat":35.635462,"lng":139.738258,"stationId":"station-004061","note":"内科　循環器科"},{"id":"medical-3-6915","name":"医療法人社団杏里会　杏里会歯科","categoryId":"medical","categoryLabel":"医疗","lat":35.640319,"lng":139.74001,"stationId":"station-004043","note":"歯科"},{"id":"medical-3-7991","name":"医療法人社団桜輝会　山の手デンタルオフィス田町三田","categoryId":"medical","categoryLabel":"医疗","lat":35.647963,"lng":139.750086,"stationId":"station-003987","note":"歯科　矯正歯科　小児歯科　歯科口腔外科"},{"id":"medical-3-8277","name":"医療法人社団樹英会　品川駅前歯科医院","categoryId":"medical","categoryLabel":"医疗","lat":35.626454,"lng":139.741919,"stationId":"shinagawa","note":"歯科　矯正歯科　小児歯科　歯科口腔外科"},{"id":"medical-3-8883","name":"医療法人社団正基会　かたおか歯科医院","categoryId":"medical","categoryLabel":"医疗","lat":35.642013,"lng":139.749532,"stationId":"station-004000","note":"歯科　小児歯科"},{"id":"medical-2-7039","name":"医療法人社団永康会　田町腎クリニック","categoryId":"medical","categoryLabel":"医疗","lat":35.647963,"lng":139.750086,"stationId":"station-003987","note":"人工透析内科"},{"id":"medical-3-9188","name":"医療法人社団泉生会　都ホテル東京宮本歯科クリニック","categoryId":"medical","categoryLabel":"医疗","lat":35.639507,"lng":139.730779,"stationId":"station-004044","note":"歯科　小児歯科　矯正歯科"},{"id":"medical-3-8929","name":"医療法人社団清慈会　三田パーク歯科クリニック","categoryId":"medical","categoryLabel":"医疗","lat":35.64471,"lng":139.745054,"stationId":"station-004000","note":"歯科　矯正歯科　小児歯科　歯科口腔外科"},{"id":"medical-2-7968","name":"医療法人社団済仁会品川港南クリニック","categoryId":"medical","categoryLabel":"医疗","lat":35.628657,"lng":139.744686,"stationId":"shinagawa","note":"内科　外科　消化器内科　泌尿器科　呼吸器内科　胃腸内科　胃腸外科　アレルギー科　リウマチ科　小児科　神経内科　整形外科　肛門内科　肛門外科　皮膚科　放射線科　心療内科　小児外科　性感染症内科　性感染症外科　循環器内科"},{"id":"medical-2-7888","name":"医療法人社団港風会　みなと整形外科内科クリニック","categoryId":"medical","categoryLabel":"医疗","lat":35.644822,"lng":139.751929,"stationId":"station-004000","note":"整形外科　内科　皮膚科"},{"id":"medical-2-8256","name":"医療法人社団珠玉会　芝皮フ科クリニック","categoryId":"medical","categoryLabel":"医疗","lat":35.648721,"lng":139.745728,"stationId":"station-003987","note":"皮膚科　形成外科"},{"id":"medical-3-8796","name":"医療法人社団瑞鶴会　鶴木クリニック医科歯科　三田分院","categoryId":"medical","categoryLabel":"医疗","lat":35.647703,"lng":139.742189,"stationId":"station-004000","note":"歯科　矯正歯科　歯科口腔外科　形成外科　美容外科　皮膚科　美容皮膚科　小児歯科　外科"},{"id":"medical-3-10056","name":"医療法人社団癒合会　高輪クリニック","categoryId":"medical","categoryLabel":"医疗","lat":35.626016,"lng":139.737583,"stationId":"shinagawa","note":"歯科　内科"},{"id":"medical-3-10059","name":"医療法人社団癒合会高輪和合クリニック","categoryId":"medical","categoryLabel":"医疗","lat":35.625871,"lng":139.73741,"stationId":"shinagawa","note":"歯科　内科　皮膚科"},{"id":"medical-3-9737","name":"医療法人社団白翔会　ＳＨＩＮＡＧＡＷＡ歯科ｉｎ品川プリンスホテル","categoryId":"medical","categoryLabel":"医疗","lat":35.627613,"lng":139.736493,"stationId":"shinagawa","note":"歯科　矯正歯科　小児歯科　歯科口腔外科"},{"id":"medical-3-9713","name":"医療法人社団白金高輪健美歯会　宮下歯科クリニック","categoryId":"medical","categoryLabel":"医疗","lat":35.637283,"lng":139.733316,"stationId":"station-004043","note":"歯科"},{"id":"medical-3-10492","name":"医療法人社団皓和会　とがし歯科医院","categoryId":"medical","categoryLabel":"医疗","lat":35.646724,"lng":139.746317,"stationId":"station-004000","note":"歯科口腔外科　矯正歯科　歯科"},{"id":"medical-2-7605","name":"医療法人社団研友会　都ホテル東京メディカルクリニック","categoryId":"medical","categoryLabel":"医疗","lat":35.639507,"lng":139.730779,"stationId":"station-004044","note":"内科　小児科　外科　整形外科　皮膚科"},{"id":"medical-2-9761","name":"医療法人社団美加未会　芝浦ホームクリニック","categoryId":"medical","categoryLabel":"医疗","lat":35.639763,"lng":139.747106,"stationId":"station-004000","note":"内科　外科　整形外科"},{"id":"medical-2-9920","name":"医療法人社団豊穣会　品川ベイ・サイド眼科","categoryId":"medical","categoryLabel":"医疗","lat":35.627744,"lng":139.740671,"stationId":"shinagawa","note":"眼科"},{"id":"medical-2-8356","name":"医療法人社団重宣会　鈴木胃腸消化器クリニック","categoryId":"medical","categoryLabel":"医疗","lat":35.647086,"lng":139.745717,"stationId":"station-004000","note":"内科　消化器内科　胃腸内科　循環器内科　外科　肛門外科　婦人科"},{"id":"medical-3-7941","name":"医療法人社団高輪会　高輪歯科医院","categoryId":"medical","categoryLabel":"医疗","lat":35.637935,"lng":139.738833,"stationId":"station-004043","note":"歯科"},{"id":"medical-2-6183","name":"医療法人社団ＩＨＬ　品川イーストワンメディカルクリニック","categoryId":"medical","categoryLabel":"医疗","lat":35.627744,"lng":139.740671,"stationId":"shinagawa","note":"内科　循環器内科　消化器内科　整形外科　放射線科　胃腸内科　婦人科"},{"id":"medical-3-6187","name":"医療法人社団ＩＴＳ　品川シーズンテラス歯科","categoryId":"medical","categoryLabel":"医疗","lat":35.63265,"lng":139.743141,"stationId":"station-004061","note":"歯科口腔外科　小児歯科　矯正歯科　歯科"},{"id":"medical-2-6273","name":"医療法人社団Ｓ＆Ｙ　高輪台レディースクリニック","categoryId":"medical","categoryLabel":"医疗","lat":35.632962,"lng":139.731228,"stationId":"station-004079","note":"産科　婦人科"},{"id":"medical-3-6276","name":"医療法人社団ＳＤＣ　オーラルビューティークリニック白金","categoryId":"medical","categoryLabel":"医疗","lat":35.645286,"lng":139.733904,"stationId":"station-004026","note":"歯科　矯正歯科　小児歯科　歯科口腔外科"},{"id":"medical-3-6277","name":"医療法人社団ＳＤＣ　白金こどものはいしゃさん","categoryId":"medical","categoryLabel":"医疗","lat":35.644045,"lng":139.733531,"stationId":"station-004026","note":"歯科　矯正歯科　小児歯科"},{"id":"medical-2-6249","name":"医療法人社団ｎａｏ田町芝浦耳鼻咽喉科","categoryId":"medical","categoryLabel":"医疗","lat":35.641486,"lng":139.74872,"stationId":"station-004000","note":"アレルギー科　耳鼻咽喉科"},{"id":"medical-3-10594","name":"医療法人美生会　赤桐美生子歯科医院","categoryId":"medical","categoryLabel":"医疗","lat":35.644546,"lng":139.731604,"stationId":"station-004026","note":"歯科　矯正歯科　小児歯科　歯科口腔外科"},{"id":"medical-1-4909","name":"医療法人財団　厚生会　古川橋病院","categoryId":"medical","categoryLabel":"医疗","lat":35.647882,"lng":139.735143,"stationId":"station-004026","note":"内科　呼吸器内科　消化器内科　循環器内科　外科　整形外科　肛門外科　脳神経外科"},{"id":"medical-2-4900","name":"医療法人財団　玉川会　エムオーエー新高輪クリニック","categoryId":"medical","categoryLabel":"医疗","lat":35.62871,"lng":139.735027,"stationId":"shinagawa","note":"内科　心療内科　精神科"},{"id":"medical-2-4969","name":"医療法人財団玉川会　エム・オー・エー高輪クリニック","categoryId":"medical","categoryLabel":"医疗","lat":35.628967,"lng":139.734661,"stationId":"shinagawa","note":"心療内科　内科　小児科　循環器内科　精神科"},{"id":"medical-2-4949","name":"医療法人財団Ｃｈｉｒｏｎ　芝浦アイランド内科クリニック","categoryId":"medical","categoryLabel":"医疗","lat":35.638881,"lng":139.751815,"stationId":"station-004030","note":"内科　リウマチ科"},{"id":"medical-2-10599","name":"医療法人邦寿会東京皮膚科・形成外科　品川院","categoryId":"medical","categoryLabel":"医疗","lat":35.627744,"lng":139.740671,"stationId":"shinagawa","note":"皮膚科　形成外科　美容外科"},{"id":"medical-3-17126","name":"卓也デンタルクリニック","categoryId":"medical","categoryLabel":"医疗","lat":35.64977,"lng":139.736284,"stationId":"station-003955","note":"歯科　矯正歯科"},{"id":"medical-2-11802","name":"吉田整形外科","categoryId":"medical","categoryLabel":"医疗","lat":35.647526,"lng":139.733182,"stationId":"station-004026","note":"整形外科　リウマチ科　リハビリテーション科"},{"id":"medical-3-20725","name":"和子・品川歯科医院","categoryId":"medical","categoryLabel":"医疗","lat":35.629348,"lng":139.742361,"stationId":"shinagawa","note":"歯科　矯正歯科　小児歯科　歯科口腔外科"},{"id":"medical-2-19366","name":"品川こころのクリニック","categoryId":"medical","categoryLabel":"医疗","lat":35.63812,"lng":139.738537,"stationId":"station-004043","note":"心療内科　精神科"},{"id":"medical-2-19370","name":"品川シーズンテラス健診クリニック","categoryId":"medical","categoryLabel":"医疗","lat":35.63265,"lng":139.743141,"stationId":"station-004061","note":"内科　婦人科"},{"id":"medical-2-19371","name":"品川シーズンテラス港南口クリニック","categoryId":"medical","categoryLabel":"医疗","lat":35.63265,"lng":139.743141,"stationId":"station-004061","note":"内科"},{"id":"medical-2-19374","name":"品川スキンクリニック　品川本院","categoryId":"medical","categoryLabel":"医疗","lat":35.628703,"lng":139.743056,"stationId":"shinagawa","note":"美容皮膚科　美容外科　美容内科　内科　ペインクリニック整形外科"},{"id":"medical-3-19377","name":"品川デンタルケアクリニック　品川院","categoryId":"medical","categoryLabel":"医疗","lat":35.62872,"lng":139.742613,"stationId":"shinagawa","note":"歯科"},{"id":"medical-2-19378","name":"品川ハートメディカルクリニック","categoryId":"medical","categoryLabel":"医疗","lat":35.637261,"lng":139.739039,"stationId":"station-004043","note":"内科　血管外科　循環器内科　外科"},{"id":"medical-2-19380","name":"品川ブレストクリニック","categoryId":"medical","categoryLabel":"医疗","lat":35.631372,"lng":139.73045,"stationId":"station-004079","note":"乳腺外科　放射線科"},{"id":"medical-2-19379","name":"品川プリンスホテル医務室","categoryId":"medical","categoryLabel":"医疗","lat":35.627613,"lng":139.736493,"stationId":"shinagawa","note":"内科"},{"id":"medical-2-19401","name":"品川心療内科","categoryId":"medical","categoryLabel":"医疗","lat":35.628688,"lng":139.741974,"stationId":"shinagawa","note":"精神科　心療内科　神経内科　内科"},{"id":"medical-3-19404","name":"品川東口歯科","categoryId":"medical","categoryLabel":"医疗","lat":35.628657,"lng":139.744686,"stationId":"shinagawa","note":"歯科"},{"id":"medical-2-19407","name":"品川美容外科　品川本院","categoryId":"medical","categoryLabel":"医疗","lat":35.628703,"lng":139.743056,"stationId":"shinagawa","note":"美容外科　美容皮膚科　歯科　麻酔科　ペインクリニック整形外科"},{"id":"medical-2-19382","name":"品川胃腸肛門内視鏡クリニック","categoryId":"medical","categoryLabel":"医疗","lat":35.632962,"lng":139.731228,"stationId":"station-004079","note":"内科　消化器内科　胃腸内科　肛門内科　内視鏡内科"},{"id":"medical-2-19403","name":"品川腎クリニック","categoryId":"medical","categoryLabel":"医疗","lat":35.628765,"lng":139.74239,"stationId":"shinagawa","note":"内科"},{"id":"medical-2-19384","name":"品川駅前メンタルクリニック","categoryId":"medical","categoryLabel":"医疗","lat":35.628497,"lng":139.742611,"stationId":"shinagawa","note":"精神科　内科　神経内科"},{"id":"medical-2-19365","name":"品川Ｖタワー整形外科","categoryId":"medical","categoryLabel":"医疗","lat":35.625111,"lng":139.740688,"stationId":"station-004125","note":"整形外科　リハビリテーション科"},{"id":"medical-3-19972","name":"堀江歯科医院","categoryId":"medical","categoryLabel":"医疗","lat":35.639481,"lng":139.736296,"stationId":"station-004043","note":"歯科"},{"id":"medical-3-16951","name":"大倉歯科","categoryId":"medical","categoryLabel":"医疗","lat":35.6477,"lng":139.744353,"stationId":"station-004000","note":"歯科"},{"id":"medical-2-17045","name":"大同品川ビル診療所","categoryId":"medical","categoryLabel":"医疗","lat":35.630881,"lng":139.745667,"stationId":"shinagawa","note":"内科"},{"id":"medical-2-17000","name":"大塚製薬株式会社　健康管理室","categoryId":"medical","categoryLabel":"医疗","lat":35.626573,"lng":139.740396,"stationId":"shinagawa","note":"内科"},{"id":"medical-3-17064","name":"大木歯科医院","categoryId":"medical","categoryLabel":"医疗","lat":35.647271,"lng":139.7437,"stationId":"station-004000","note":"歯科"},{"id":"medical-2-10780","name":"宇部興産株式会社　東京本社医務室","categoryId":"medical","categoryLabel":"医疗","lat":35.649961,"lng":139.756913,"stationId":"station-003979","note":"内科"},{"id":"medical-3-4721","name":"安斎歯科","categoryId":"medical","categoryLabel":"医疗","lat":35.626491,"lng":139.740845,"stationId":"shinagawa","note":"歯科　矯正歯科　小児歯科　歯科口腔外科"},{"id":"medical-2-19494","name":"富士通ラーニングメディア診療所","categoryId":"medical","categoryLabel":"医疗","lat":35.62771,"lng":139.745254,"stationId":"shinagawa","note":"内科"},{"id":"medical-3-19501","name":"富沢歯科医院","categoryId":"medical","categoryLabel":"医疗","lat":35.632503,"lng":139.730612,"stationId":"station-004079","note":"歯科　矯正歯科"},{"id":"medical-3-14528","name":"小森歯科医院","categoryId":"medical","categoryLabel":"医疗","lat":35.638514,"lng":139.734304,"stationId":"station-004043","note":"歯科"},{"id":"medical-2-13582","name":"山王クリニック品川","categoryId":"medical","categoryLabel":"医疗","lat":35.627744,"lng":139.740671,"stationId":"shinagawa","note":"内科　脳神経外科"},{"id":"medical-3-11005","name":"岡崎歯科医院","categoryId":"medical","categoryLabel":"医疗","lat":35.642171,"lng":139.746719,"stationId":"station-004000","note":"歯科"},{"id":"medical-3-11027","name":"岡田歯科医院","categoryId":"medical","categoryLabel":"医疗","lat":35.648432,"lng":139.749697,"stationId":"station-003987","note":"歯科"},{"id":"medical-2-12372","name":"慶應義塾三田診療所","categoryId":"medical","categoryLabel":"医疗","lat":35.648419,"lng":139.743107,"stationId":"station-004000","note":"内科　精神　神経科　小児科"},{"id":"medical-2-12374","name":"敬和国際医院","categoryId":"medical","categoryLabel":"医疗","lat":35.643967,"lng":139.73152,"stationId":"station-004026","note":"内科　外科"},{"id":"medical-3-16065","name":"斉藤歯科医院","categoryId":"medical","categoryLabel":"医疗","lat":35.626215,"lng":139.737539,"stationId":"shinagawa","note":"歯科"},{"id":"medical-3-16066","name":"斉藤歯科医院","categoryId":"medical","categoryLabel":"医疗","lat":35.626454,"lng":139.741919,"stationId":"shinagawa","note":"歯科　矯正歯科　小児歯科　歯科口腔外科"},{"id":"medical-2-15266","name":"新田町ビル診療所","categoryId":"medical","categoryLabel":"医疗","lat":35.646034,"lng":139.74659,"stationId":"station-004000","note":"内科　呼吸器内科　消化器内科　循環器内科　皮膚科　放射線科"},{"id":"medical-2-18956","name":"日本電気株式会社本社健康管理センター","categoryId":"medical","categoryLabel":"医疗","lat":35.649416,"lng":139.747958,"stationId":"station-003987","note":"内科　精神科"},{"id":"medical-2-18961","name":"日野原記念クリニック","categoryId":"medical","categoryLabel":"医疗","lat":35.642324,"lng":139.74241,"stationId":"station-004043","note":"内科　循環器内科　消化器内科　乳腺内科　婦人科"},{"id":"medical-2-20110","name":"明治学院大学健康支援センター","categoryId":"medical","categoryLabel":"医疗","lat":35.637429,"lng":139.731162,"stationId":"station-004044","note":"内科　婦人科　精神科"},{"id":"medical-2-15697","name":"星子クリニック","categoryId":"medical","categoryLabel":"医疗","lat":35.626074,"lng":139.734239,"stationId":"shinagawa","note":"内科　皮膚科　心療内科"},{"id":"medical-2-16659","name":"村上クリニック","categoryId":"medical","categoryLabel":"医疗","lat":35.632607,"lng":139.736078,"stationId":"shinagawa","note":"内科"},{"id":"medical-2-18073","name":"東京インターナショナルクリニック","categoryId":"medical","categoryLabel":"医疗","lat":35.625618,"lng":139.734205,"stationId":"shinagawa","note":"内科　外科"},{"id":"medical-2-18193","name":"東京出入国在留管理局診療所","categoryId":"medical","categoryLabel":"医疗","lat":35.628054,"lng":139.756826,"stationId":"station-004123","note":"内科"},{"id":"medical-2-18157","name":"東京海洋大学保健管理センター品川地区","categoryId":"medical","categoryLabel":"医疗","lat":35.62818,"lng":139.74803,"stationId":"station-004123","note":"内科"},{"id":"medical-2-18179","name":"東京港診療所","categoryId":"medical","categoryLabel":"医疗","lat":35.639666,"lng":139.75462,"stationId":"station-004030","note":"内科　眼科"},{"id":"medical-3-18180","name":"東京港診療所　西原歯科医院","categoryId":"medical","categoryLabel":"医疗","lat":35.639666,"lng":139.75462,"stationId":"station-004030","note":"歯科　小児歯科"},{"id":"medical-2-18229","name":"東京点滴クリニック（往診専門）","categoryId":"medical","categoryLabel":"医疗","lat":35.627686,"lng":139.751753,"stationId":"station-004123","note":"皮膚科　婦人科　内科"},{"id":"medical-2-11453","name":"株式会社報知新聞社診療所","categoryId":"medical","categoryLabel":"医疗","lat":35.626995,"lng":139.75069,"stationId":"station-004123","note":"内科"},{"id":"medical-2-11440","name":"株式会社大林組　健康管理センター","categoryId":"medical","categoryLabel":"医疗","lat":35.626454,"lng":139.741919,"stationId":"shinagawa","note":"内科　歯科"},{"id":"medical-2-11427","name":"株式会社関電工診療所","categoryId":"medical","categoryLabel":"医疗","lat":35.638291,"lng":139.745443,"stationId":"station-004043","note":"内科"},{"id":"medical-2-11381","name":"梶田眼科","categoryId":"medical","categoryLabel":"医疗","lat":35.643525,"lng":139.748873,"stationId":"station-004000","note":"眼科"},{"id":"medical-2-15289","name":"森永健康管理室","categoryId":"medical","categoryLabel":"医疗","lat":35.646599,"lng":139.747734,"stationId":"station-004000","note":"内科"},{"id":"medical-3-13345","name":"榊原デンタルクリニック","categoryId":"medical","categoryLabel":"医疗","lat":35.649126,"lng":139.737156,"stationId":"station-004026","note":"歯科　矯正歯科　小児歯科"},{"id":"medical-2-10972","name":"横尾内科医院","categoryId":"medical","categoryLabel":"医疗","lat":35.633851,"lng":139.731421,"stationId":"station-004079","note":"内科　消化器内科"},{"id":"medical-2-10948","name":"横河ブリッジホールディングス診療所","categoryId":"medical","categoryLabel":"医疗","lat":35.641994,"lng":139.745284,"stationId":"station-004000","note":"内科　外科"},{"id":"medical-2-12006","name":"橋口麻酔科クリニック　（往診専門）","categoryId":"medical","categoryLabel":"医疗","lat":35.63314,"lng":139.737588,"stationId":"station-004061","note":"麻酔科"},{"id":"medical-3-13890","name":"歯科山の手","categoryId":"medical","categoryLabel":"医疗","lat":35.647828,"lng":139.749941,"stationId":"station-003987","note":"歯科　矯正歯科　小児歯科　歯科口腔外科"},{"id":"medical-3-15536","name":"水野歯科","categoryId":"medical","categoryLabel":"医疗","lat":35.629204,"lng":139.742015,"stationId":"shinagawa","note":"歯科　歯科口腔外科"},{"id":"medical-2-11063","name":"沖電気工業株式会社　芝浦診療所","categoryId":"medical","categoryLabel":"医疗","lat":35.641407,"lng":139.747554,"stationId":"station-004000","note":"内科　外科"},{"id":"medical-2-16446","name":"浅田レディース品川クリニック","categoryId":"medical","categoryLabel":"医疗","lat":35.629083,"lng":139.743174,"stationId":"shinagawa","note":"婦人科　生殖医療　不妊治療　泌尿器科"},{"id":"medical-3-16447","name":"浅田歯科クリニック","categoryId":"medical","categoryLabel":"医疗","lat":35.648184,"lng":139.751278,"stationId":"station-003987","note":"歯科　小児歯科　歯科口腔外科"},{"id":"medical-3-11298","name":"海岸歯科クリニック","categoryId":"medical","categoryLabel":"医疗","lat":35.643832,"lng":139.756248,"stationId":"station-004030","note":"歯科　矯正歯科　小児歯科　歯科口腔外科"},{"id":"medical-2-12828","name":"港区立特別養護老人ホーム　「港南の郷」","categoryId":"medical","categoryLabel":"医疗","lat":35.633244,"lng":139.749175,"stationId":"station-004061","note":"内科"},{"id":"medical-3-12831","name":"港南三丁目歯科医院","categoryId":"medical","categoryLabel":"医疗","lat":35.632731,"lng":139.747329,"stationId":"station-004061","note":"歯科　矯正歯科　小児歯科"},{"id":"medical-2-14922","name":"湘南美容クリニック品川院","categoryId":"medical","categoryLabel":"医疗","lat":35.628604,"lng":139.744425,"stationId":"shinagawa","note":"美容外科　美容皮膚科"},{"id":"medical-1-18682","name":"独立行政法人　地域医療機能推進機構　東京高輪病院","categoryId":"medical","categoryLabel":"医疗","lat":35.631489,"lng":139.732048,"stationId":"station-004079","note":"内科　循環器内科　呼吸器内科　消化器内科　糖尿病代謝内科　脳神経内科　腎臓内科　人工透析　小児科　外科　整形外科　脳神経外科　心臓血管外科　消化器外科　胃　大腸　肝　胆　膵外科　乳腺外科　内視鏡外科　歯科口腔外科　婦人科　眼科　耳鼻いんこう科　皮膚科"},{"id":"medical-2-17850","name":"田町メンタルクリニック","categoryId":"medical","categoryLabel":"医疗","lat":35.646034,"lng":139.74659,"stationId":"station-004000","note":"心療内科　精神科"},{"id":"medical-2-17853","name":"田町三田やまうち眼科","categoryId":"medical","categoryLabel":"医疗","lat":35.647774,"lng":139.744142,"stationId":"station-004000","note":"眼科"},{"id":"medical-2-17852","name":"田町眼科クリニック","categoryId":"medical","categoryLabel":"医疗","lat":35.64696,"lng":139.74612,"stationId":"station-004000","note":"眼科"},{"id":"medical-3-17851","name":"田町駅前歯科クリニック","categoryId":"medical","categoryLabel":"医疗","lat":35.646927,"lng":139.746263,"stationId":"station-004000","note":"歯科　小児歯科　歯科口腔外科　矯正歯科"},{"id":"medical-3-19049","name":"白金しらゆり歯科","categoryId":"medical","categoryLabel":"医疗","lat":35.643765,"lng":139.73564,"stationId":"station-004026","note":"歯科　矯正歯科　小児歯科　歯科口腔外科"},{"id":"medical-2-19052","name":"白金メンタルクリニック","categoryId":"medical","categoryLabel":"医疗","lat":35.643736,"lng":139.73294,"stationId":"station-004026","note":"精神科"},{"id":"medical-2-19057","name":"白金三光クリニック","categoryId":"medical","categoryLabel":"医疗","lat":35.64443,"lng":139.73159,"stationId":"station-004026","note":"内科　外科　皮膚科　麻酔科"},{"id":"medical-3-19058","name":"白金山内歯科室","categoryId":"medical","categoryLabel":"医疗","lat":35.645388,"lng":139.731308,"stationId":"station-004026","note":"歯科　矯正歯科　小児歯科　歯科口腔外科"},{"id":"medical-3-19060","name":"白金歯科医院","categoryId":"medical","categoryLabel":"医疗","lat":35.646075,"lng":139.731425,"stationId":"station-004026","note":"歯科"},{"id":"medical-3-19053","name":"白金高輪リューズ歯科","categoryId":"medical","categoryLabel":"医疗","lat":35.644361,"lng":139.733852,"stationId":"station-004026","note":"歯科　矯正歯科　小児歯科　歯科口腔外科"},{"id":"medical-3-19056","name":"白金高輪姫歯科室","categoryId":"medical","categoryLabel":"医疗","lat":35.646936,"lng":139.734581,"stationId":"station-004026","note":"歯科　矯正歯科　小児歯科"},{"id":"medical-2-19054","name":"白金高輪海老根ウィメンズクリニック","categoryId":"medical","categoryLabel":"医疗","lat":35.644371,"lng":139.735335,"stationId":"station-004026","note":"小児科　産婦人科　婦人科　泌尿器科　乳腺外科　内科"},{"id":"medical-3-19055","name":"白金高輪矯正歯科","categoryId":"medical","categoryLabel":"医疗","lat":35.643184,"lng":139.733667,"stationId":"station-004026","note":"矯正歯科"},{"id":"medical-2-19275","name":"皮膚科クリニックいとう","categoryId":"medical","categoryLabel":"医疗","lat":35.625111,"lng":139.740688,"stationId":"station-004125","note":"皮膚科"},{"id":"medical-1-14108","name":"社会福祉法人　恩賜財団母子愛育会　総合母子保健センター　愛育病院","categoryId":"medical","categoryLabel":"医疗","lat":35.645961,"lng":139.752452,"stationId":"station-003987","note":"産婦人科　小児科　小児外科　女性内科　女性外科　麻酔科　放射線科　児童精神科　内科　乳腺外科"},{"id":"medical-3-15413","name":"神津デンタルオフィス","categoryId":"medical","categoryLabel":"医疗","lat":35.644423,"lng":139.732491,"stationId":"station-004026","note":"歯科　矯正歯科　小児歯科　歯科口腔外科"},{"id":"medical-2-12285","name":"窪田医院","categoryId":"medical","categoryLabel":"医疗","lat":35.638288,"lng":139.740082,"stationId":"station-004043","note":"内科　小児科　皮膚科"},{"id":"medical-3-20512","name":"立花デンタルクリニック","categoryId":"medical","categoryLabel":"医疗","lat":35.648643,"lng":139.746966,"stationId":"station-003987","note":"歯科　矯正歯科　小児歯科"},{"id":"medical-2-13978","name":"耳鼻咽喉科望月医院","categoryId":"medical","categoryLabel":"医疗","lat":35.644977,"lng":139.730809,"stationId":"station-004026","note":"耳鼻いんこう科"},{"id":"medical-2-12439","name":"肩こり・腰の痛みクリニック　品川院","categoryId":"medical","categoryLabel":"医疗","lat":35.62872,"lng":139.742613,"stationId":"shinagawa","note":"ペインクリニック整形外科　美容皮膚科"},{"id":"medical-3-14056","name":"芝ガーデン歯科クリニック","categoryId":"medical","categoryLabel":"医疗","lat":35.6471,"lng":139.74619,"stationId":"station-004000","note":"歯科　矯正歯科　小児歯科　歯科口腔外科"},{"id":"medical-2-14060","name":"芝浦クリニック","categoryId":"medical","categoryLabel":"医疗","lat":35.642215,"lng":139.749711,"stationId":"station-004000","note":"内科　整形外科　皮膚科　精神科　小児科"},{"id":"medical-2-14061","name":"芝浦ゲートウェイクリニック","categoryId":"medical","categoryLabel":"医疗","lat":35.641486,"lng":139.74872,"stationId":"station-004000","note":"内科"},{"id":"medical-3-14063","name":"芝浦桂歯科診療所","categoryId":"medical","categoryLabel":"医疗","lat":35.642843,"lng":139.749804,"stationId":"station-004000","note":"歯科　矯正歯科　歯科口腔外科"},{"id":"medical-3-14064","name":"芝浦歯科診療所","categoryId":"medical","categoryLabel":"医疗","lat":35.645662,"lng":139.754457,"stationId":"station-004030","note":"歯科　小児歯科"},{"id":"medical-2-14222","name":"若田クリニック　シティタワー品川","categoryId":"medical","categoryLabel":"医疗","lat":35.631023,"lng":139.748417,"stationId":"station-004061","note":"内科　小児科　皮膚科　神経内科　整形外科"},{"id":"medical-2-15610","name":"菅沼三田診療所","categoryId":"medical","categoryLabel":"医疗","lat":35.647601,"lng":139.747883,"stationId":"station-003987","note":"内科　外科　皮膚科　泌尿器科　整形外科"},{"id":"medical-2-17561","name":"蝶理株式会社東京診療所","categoryId":"medical","categoryLabel":"医疗","lat":35.626454,"lng":139.741919,"stationId":"shinagawa","note":"内科"},{"id":"medical-3-15927","name":"西辻歯科医院","categoryId":"medical","categoryLabel":"医疗","lat":35.63232,"lng":139.732142,"stationId":"station-004079","note":"歯科"},{"id":"medical-2-19834","name":"豊田通商健康管理室","categoryId":"medical","categoryLabel":"医疗","lat":35.629083,"lng":139.743174,"stationId":"shinagawa","note":"内科"},{"id":"medical-3-11472","name":"釜我歯科","categoryId":"medical","categoryLabel":"医疗","lat":35.647234,"lng":139.743507,"stationId":"station-004000","note":"歯科"},{"id":"medical-3-20636","name":"鈴木歯科医院","categoryId":"medical","categoryLabel":"医疗","lat":35.637946,"lng":139.733563,"stationId":"station-004043","note":"歯科"},{"id":"medical-3-17589","name":"長坂歯科","categoryId":"medical","categoryLabel":"医疗","lat":35.646034,"lng":139.74659,"stationId":"station-004000","note":"歯科　矯正歯科　小児歯科　歯科口腔外科"},{"id":"medical-2-4655","name":"阿含宗関東別院救護室","categoryId":"medical","categoryLabel":"医疗","lat":35.646337,"lng":139.742241,"stationId":"station-004000","note":"内科"},{"id":"medical-3-19596","name":"風見歯科医院","categoryId":"medical","categoryLabel":"医疗","lat":35.64755,"lng":139.745221,"stationId":"station-004000","note":"歯科　歯科口腔外科"},{"id":"medical-2-13062","name":"高櫻内科・脳神経クリニック","categoryId":"medical","categoryLabel":"医疗","lat":35.642851,"lng":139.750016,"stationId":"station-004000","note":"内科　脳神経内科"},{"id":"medical-2-13048","name":"高輪こころのクリニック","categoryId":"medical","categoryLabel":"医疗","lat":35.631483,"lng":139.737919,"stationId":"shinagawa","note":"心療内科　精神科　神経科"},{"id":"medical-3-13049","name":"高輪こども矯正歯科オーラルケア","categoryId":"medical","categoryLabel":"医疗","lat":35.632179,"lng":139.732299,"stationId":"station-004079","note":"歯科　矯正歯科　小児歯科　歯科口腔外科"},{"id":"medical-2-13050","name":"高輪スキンクリニック","categoryId":"medical","categoryLabel":"医疗","lat":35.625542,"lng":139.736484,"stationId":"station-004125","note":"皮膚科　形成外科　美容外科　内科"},{"id":"medical-2-13051","name":"高輪ハッピークリニック","categoryId":"medical","categoryLabel":"医疗","lat":35.640588,"lng":139.737909,"stationId":"station-004043","note":"内科"},{"id":"medical-2-13058","name":"高輪内科クリニック","categoryId":"medical","categoryLabel":"医疗","lat":35.640009,"lng":139.733739,"stationId":"station-004026","note":"内科"},{"id":"medical-3-13059","name":"高輪南町歯科医院","categoryId":"medical","categoryLabel":"医疗","lat":35.626677,"lng":139.734859,"stationId":"shinagawa","note":"歯科"},{"id":"medical-2-13056","name":"高輪台出川循環器・内科クリニック","categoryId":"medical","categoryLabel":"医疗","lat":35.632503,"lng":139.730612,"stationId":"station-004079","note":"内科　循環器内科"},{"id":"medical-2-13057","name":"高輪台皮フ科","categoryId":"medical","categoryLabel":"医疗","lat":35.63179,"lng":139.731407,"stationId":"station-004079","note":"皮膚科"},{"id":"medical-2-13055","name":"高輪台眼科クリニック","categoryId":"medical","categoryLabel":"医疗","lat":35.632962,"lng":139.731228,"stationId":"station-004079","note":"眼科"},{"id":"medical-2-13054","name":"高輪整形外科クリニック","categoryId":"medical","categoryLabel":"医疗","lat":35.637537,"lng":139.738799,"stationId":"station-004043","note":"整形外科　リハビリテーション科"},{"id":"medical-3-13053","name":"高輪歯科","categoryId":"medical","categoryLabel":"医疗","lat":35.639593,"lng":139.738759,"stationId":"station-004043","note":"歯科"},{"id":"medical-2-13052","name":"高輪眼科医院","categoryId":"medical","categoryLabel":"医疗","lat":35.637935,"lng":139.738833,"stationId":"station-004043","note":"眼科"},{"id":"medical-3-17638","name":"鳥和歯科医院","categoryId":"medical","categoryLabel":"医疗","lat":35.644445,"lng":139.743785,"stationId":"station-004000","note":"歯科"},{"id":"medical-3-17108","name":"鷹岡歯科医院","categoryId":"medical","categoryLabel":"医疗","lat":35.636382,"lng":139.738294,"stationId":"station-004043","note":"歯科　矯正歯科"},{"id":"medical-3-20073","name":"麻布南デンタルクリニック","categoryId":"medical","categoryLabel":"医疗","lat":35.648409,"lng":139.735849,"stationId":"station-004026","note":"歯科　矯正歯科　小児歯科　歯科口腔外科"},{"id":"medical-2-102","name":"ＡＧＡスキンクリニック品川院","categoryId":"medical","categoryLabel":"医疗","lat":35.629204,"lng":139.742015,"stationId":"shinagawa","note":"頭部皮膚科"},{"id":"medical-2-106","name":"ＡＩＭ　ｂｅａｕｔｙ　ｍｅｄｉｃａｌ　ｃｌｉｎｉｃ","categoryId":"medical","categoryLabel":"医疗","lat":35.640069,"lng":139.741042,"stationId":"station-004043","note":"美容皮膚科"},{"id":"medical-3-190","name":"Ｈａｒｕｋａ　Ｄｅｎｔａｌ　Ｃｌｉｎｉｃ","categoryId":"medical","categoryLabel":"医疗","lat":35.632139,"lng":139.730339,"stationId":"station-004079","note":"歯科　矯正歯科　歯科口腔外科"},{"id":"medical-3-224","name":"Ｋ’ｓ歯科クリニック","categoryId":"medical","categoryLabel":"医疗","lat":35.64902,"lng":139.744974,"stationId":"station-003987","note":"歯科　矯正歯科　小児歯科　歯科口腔外科"},{"id":"medical-2-290","name":"Ｎ２クリニック","categoryId":"medical","categoryLabel":"医疗","lat":35.642348,"lng":139.73557,"stationId":"station-004026","note":"形成外科"},{"id":"medical-2-297","name":"ＮＴＴコムウェア品川健康管理センタ","categoryId":"medical","categoryLabel":"医疗","lat":35.63138,"lng":139.742651,"stationId":"shinagawa","note":"内科　外科"},{"id":"medical-2-314","name":"ＲＥＮＡＴＵＳクリニック","categoryId":"medical","categoryLabel":"医疗","lat":35.646927,"lng":139.746263,"stationId":"station-004000","note":"美容外科　皮膚科　婦人科　美容皮膚科"},{"id":"public-13103-20932","name":"三田いきいきプラザ","categoryId":"public_service","categoryLabel":"公共服务","lat":35.648882,"lng":139.749788,"stationId":"station-003987","note":"港区芝4-1-17"},{"id":"public-13103-20930","name":"港南いきいきプラザ","categoryId":"public_service","categoryLabel":"公共服务","lat":35.629393,"lng":139.747063,"stationId":"shinagawa","note":"港区港南4-2-1"},{"id":"public-13103-20958","name":"男女平等参画センター","categoryId":"public_service","categoryLabel":"公共服务","lat":35.646638,"lng":139.752022,"stationId":"station-003987","note":"港区芝浦1-16-1みなとパ-ク芝浦"},{"id":"public-13103-20960","name":"白金いきいきプラザ","categoryId":"public_service","categoryLabel":"公共服务","lat":35.644897,"lng":139.731005,"stationId":"station-004026","note":"港区白金3-10-12"},{"id":"public-13103-20935","name":"芝浦アイランド児童高齢者交流プラザ","categoryId":"public_service","categoryLabel":"公共服务","lat":35.64048,"lng":139.752581,"stationId":"station-004030","note":"港区芝浦4-20-1"},{"id":"public-13103-20936","name":"芝浦江南地区総合支所","categoryId":"public_service","categoryLabel":"公共服务","lat":35.646822,"lng":139.751681,"stationId":"station-003987","note":"港区芝浦1-16-1"},{"id":"public-13103-20938","name":"芝浦港南区民センター","categoryId":"public_service","categoryLabel":"公共服务","lat":35.64057,"lng":139.748637,"stationId":"station-004000","note":"港区芝浦4-13-1"},{"id":"public-13103-20963","name":"豊岡いきいきプラザ","categoryId":"public_service","categoryLabel":"公共服务","lat":35.646541,"lng":139.739642,"stationId":"station-004026","note":"港区三田5-7-7"},{"id":"public-13103-20931","name":"高輪いきいきプラザ","categoryId":"public_service","categoryLabel":"公共服务","lat":35.633191,"lng":139.735584,"stationId":"station-004061","note":"港区高輪3-18-15"},{"id":"public-13103-20926","name":"高輪区民センター","categoryId":"public_service","categoryLabel":"公共服务","lat":35.641956,"lng":139.734105,"stationId":"station-004026","note":"港区高輪1-16-25"},{"id":"public-13103-20927","name":"高輪地区総合支所","categoryId":"public_service","categoryLabel":"公共服务","lat":35.641956,"lng":139.734085,"stationId":"station-004026","note":"港区高輪1-16-25"},{"id":"public-13103-20934","name":"港区スポーツセンター","categoryId":"sports","categoryLabel":"体育设施","lat":35.6455,"lng":139.750033,"stationId":"station-004000","note":"港区芝浦1-16-1"}]
