[{"id":"public-13106-21102","name":"谷中区民館","categoryId":"community","categoryLabel":"社区设施","lat":35.72545,"lng":139.766203,"stationId":"station-003434","note":"台東区谷中5-6-5"},{"id":"public-13106-21073","name":"金杉区民館下谷分館","categoryId":"community","categoryLabel":"社区设施","lat":35.725733,"lng":139.787357,"stationId":"station-003399","note":"台東区下谷3-14-3"},{"id":"medical-3-489","name":"あおい歯科クリニック","categoryId":"medical","categoryLabel":"医疗","lat":35.743759,"lng":139.782929,"stationId":"station-003306","note":"歯科　小児歯科　歯科口腔外科"},{"id":"medical-3-696","name":"あまがい歯科","categoryId":"medical","categoryLabel":"医疗","lat":35.729757,"lng":139.770565,"stationId":"station-003414","note":"歯科　矯正歯科　小児歯科　歯科口腔外科"},{"id":"medical-2-718","name":"あやめ診療所","categoryId":"medical","categoryLabel":"医疗","lat":35.726892,"lng":139.794702,"stationId":"station-003399","note":"内科　循環器内科　心療内科　精神科"},{"id":"medical-2-732","name":"あらかわレディースクリニック","categoryId":"medical","categoryLabel":"医疗","lat":35.745655,"lng":139.782999,"stationId":"station-003299","note":"産婦人科"},{"id":"medical-3-733","name":"あらかわ歯科","categoryId":"medical","categoryLabel":"医疗","lat":35.737938,"lng":139.772748,"stationId":"station-003339","note":"歯科　矯正歯科　小児歯科　歯科口腔外科"},{"id":"medical-2-932","name":"いなみ整形外科クリニック","categoryId":"medical","categoryLabel":"医疗","lat":35.731312,"lng":139.790249,"stationId":"station-003370","note":"整形外科　リハビリテーション科"},{"id":"medical-3-970","name":"いわさき歯科クリニック","categoryId":"medical","categoryLabel":"医疗","lat":35.741914,"lng":139.765019,"stationId":"station-003298","note":"歯科"},{"id":"medical-3-1060","name":"うめざわ歯科医院","categoryId":"medical","categoryLabel":"医疗","lat":35.749247,"lng":139.799735,"stationId":"kitasenju","note":"歯科　矯正歯科　小児歯科"},{"id":"medical-2-1118","name":"えのもとファミリークリニック","categoryId":"medical","categoryLabel":"医疗","lat":35.742412,"lng":139.795421,"stationId":"station-003301","note":"内科　皮膚科　胃腸内科　小児科　アレルギー科　外科　美容皮膚科"},{"id":"medical-2-1175","name":"おいぬま内科","categoryId":"medical","categoryLabel":"医疗","lat":35.735357,"lng":139.772703,"stationId":"station-003339","note":"内科　呼吸器内科　消化器　肝臓内科　循環器内科　小児科"},{"id":"medical-3-1279","name":"おかもと歯科医院","categoryId":"medical","categoryLabel":"医疗","lat":35.74099,"lng":139.769114,"stationId":"station-003298","note":"歯科　小児歯科"},{"id":"medical-3-1458","name":"かつ歯科医院","categoryId":"medical","categoryLabel":"医疗","lat":35.726765,"lng":139.798828,"stationId":"station-003399","note":"歯科　小児歯科"},{"id":"medical-2-1503","name":"かのう耳鼻咽喉科","categoryId":"medical","categoryLabel":"医疗","lat":35.743569,"lng":139.780899,"stationId":"station-003299","note":"耳鼻咽喉科"},{"id":"medical-3-1605","name":"きっかわ歯科医院","categoryId":"medical","categoryLabel":"医疗","lat":35.749478,"lng":139.784064,"stationId":"station-003299","note":"歯科"},{"id":"medical-2-1646","name":"くきどめ整形外科","categoryId":"medical","categoryLabel":"医疗","lat":35.736821,"lng":139.794917,"stationId":"station-003363","note":"整形外科"},{"id":"medical-3-1676","name":"くまのまえ　鈴木歯科","categoryId":"medical","categoryLabel":"医疗","lat":35.749488,"lng":139.768788,"stationId":"station-003266","note":"歯科　矯正歯科　小児歯科　歯科口腔外科"},{"id":"medical-3-1833","name":"こうへい歯科クリニック","categoryId":"medical","categoryLabel":"医疗","lat":35.743103,"lng":139.766873,"stationId":"station-003298","note":"歯科　小児歯科　歯科口腔外科"},{"id":"medical-2-1916","name":"ことり訪問診療所","categoryId":"medical","categoryLabel":"医疗","lat":35.727338,"lng":139.772448,"stationId":"station-003414","note":"内科　心療内科　精神科　感染症内科　腎臓内科"},{"id":"medical-3-1931","name":"こばやし歯科クリニック","categoryId":"medical","categoryLabel":"医疗","lat":35.7455,"lng":139.782196,"stationId":"station-003299","note":"歯科　矯正歯科　小児歯科　歯科口腔外科"},{"id":"medical-2-1966","name":"こもれびの診療所","categoryId":"medical","categoryLabel":"医疗","lat":35.733741,"lng":139.796335,"stationId":"station-003363","note":"内科"},{"id":"medical-3-2052","name":"さくま歯科クリニック","categoryId":"medical","categoryLabel":"医疗","lat":35.743738,"lng":139.776464,"stationId":"station-003291","note":"歯科　小児歯科　歯科口腔外科"},{"id":"medical-2-2169","name":"さわい整形外科クリニック","categoryId":"medical","categoryLabel":"医疗","lat":35.726882,"lng":139.790582,"stationId":"station-003399","note":"リハビリテーション科　整形外科"},{"id":"medical-2-2298","name":"しもじま内科クリニック","categoryId":"medical","categoryLabel":"医疗","lat":35.726882,"lng":139.790582,"stationId":"station-003399","note":"内科　糖尿病内科　代謝内科"},{"id":"medical-3-2374","name":"すがや歯科クリニック","categoryId":"medical","categoryLabel":"医疗","lat":35.734692,"lng":139.789872,"stationId":"station-003357","note":"歯科　矯正歯科　小児歯科　歯科口腔外科"},{"id":"medical-2-2397","name":"すずきクリニック","categoryId":"medical","categoryLabel":"医疗","lat":35.743103,"lng":139.766873,"stationId":"station-003298","note":"心療内科　精神科"},{"id":"medical-2-2420","name":"すずき小児科医院","categoryId":"medical","categoryLabel":"医疗","lat":35.744146,"lng":139.775596,"stationId":"station-003291","note":"小児科　アレルギー科　放射線科"},{"id":"medical-2-2443","name":"すばる子どもクリニック","categoryId":"medical","categoryLabel":"医疗","lat":35.732776,"lng":139.778228,"stationId":"station-003359","note":"小児科"},{"id":"medical-2-2573","name":"たいら整形外科","categoryId":"medical","categoryLabel":"医疗","lat":35.740267,"lng":139.769028,"stationId":"station-003298","note":"整形外科　リハビリテーション科　リウマチ科"},{"id":"medical-3-2634","name":"たかふじ歯科","categoryId":"medical","categoryLabel":"医疗","lat":35.734017,"lng":139.770034,"stationId":"station-003368","note":"歯科　小児歯科"},{"id":"medical-2-2755","name":"だんのうえ眼科　熊野前院","categoryId":"medical","categoryLabel":"医疗","lat":35.747563,"lng":139.770075,"stationId":"station-003266","note":"眼科　小児眼科"},{"id":"medical-3-2935","name":"とうま歯科医院","categoryId":"medical","categoryLabel":"医疗","lat":35.735758,"lng":139.79648,"stationId":"station-003363","note":"歯科"},{"id":"medical-2-2944","name":"とかの医院","categoryId":"medical","categoryLabel":"医疗","lat":35.738718,"lng":139.777468,"stationId":"station-003339","note":"耳鼻咽喉科　アレルギー科　眼科　小児眼科　内科　消化器内科　気管食道外科　循環器内科　内分泌内科　皮膚科"},{"id":"medical-3-3051","name":"とりすデンタルクリニック","categoryId":"medical","categoryLabel":"医疗","lat":35.734484,"lng":139.784816,"stationId":"station-003350","note":"歯科　矯正歯科　小児歯科　歯科口腔外科"},{"id":"medical-3-3129","name":"なかむら歯科クリニック","categoryId":"medical","categoryLabel":"医疗","lat":35.745328,"lng":139.782448,"stationId":"station-003299","note":"歯科　矯正歯科　小児歯科　歯科口腔外科"},{"id":"medical-3-3170","name":"ならしま歯科クリニック","categoryId":"medical","categoryLabel":"医疗","lat":35.739443,"lng":139.776363,"stationId":"station-003339","note":"歯科　矯正歯科　小児歯科　歯科口腔外科"},{"id":"medical-2-3224","name":"にっぽりこころの診療所","categoryId":"medical","categoryLabel":"医疗","lat":35.728904,"lng":139.76692,"stationId":"station-003414","note":"精神科　心療内科"},{"id":"medical-3-3225","name":"にっぽり歯科クリニック","categoryId":"medical","categoryLabel":"医疗","lat":35.728151,"lng":139.772214,"stationId":"station-003414","note":"歯科"},{"id":"medical-2-3226","name":"にっぽり消化器内科","categoryId":"medical","categoryLabel":"医疗","lat":35.729971,"lng":139.771346,"stationId":"station-003414","note":"消化器内科"},{"id":"medical-3-3418","name":"はやしべ歯科医院","categoryId":"medical","categoryLabel":"医疗","lat":35.735064,"lng":139.784723,"stationId":"station-003350","note":"歯科　矯正歯科　小児歯科"},{"id":"medical-3-3417","name":"はやしデンタルクリニック","categoryId":"medical","categoryLabel":"医疗","lat":35.73715,"lng":139.774338,"stationId":"station-003339","note":"歯科　矯正歯科　小児歯科　歯科口腔外科"},{"id":"medical-2-3425","name":"はやし診療所","categoryId":"medical","categoryLabel":"医疗","lat":35.733319,"lng":139.76778,"stationId":"station-003368","note":"内科　精神科　心療内科"},{"id":"medical-2-3502","name":"ひぐらし整形外科内科","categoryId":"medical","categoryLabel":"医疗","lat":35.728406,"lng":139.775157,"stationId":"station-003414","note":"内科　整形外科　リハビリテーション科"},{"id":"medical-2-3587","name":"ひろせ内科外科クリニック","categoryId":"medical","categoryLabel":"医疗","lat":35.734091,"lng":139.770459,"stationId":"station-003368","note":"内科　循環器科　外科"},{"id":"medical-3-3905","name":"まちや歯科医院","categoryId":"medical","categoryLabel":"医疗","lat":35.748047,"lng":139.784323,"stationId":"station-003299","note":"歯科　矯正歯科　小児歯科"},{"id":"medical-2-3906","name":"まちや耳鼻咽喉科クリニック","categoryId":"medical","categoryLabel":"医疗","lat":35.747444,"lng":139.783307,"stationId":"station-003299","note":"耳鼻咽喉科　小児耳鼻咽喉科　アレルギー科"},{"id":"medical-2-3911","name":"まつおかこどもクリニック","categoryId":"medical","categoryLabel":"医疗","lat":35.735582,"lng":139.782244,"stationId":"station-003350","note":"小児科　アレルギー科"},{"id":"medical-2-3985","name":"みうら眼科・皮フ科クリニック","categoryId":"medical","categoryLabel":"医疗","lat":35.726882,"lng":139.790582,"stationId":"station-003399","note":"眼科　皮膚科"},{"id":"medical-2-3994","name":"みかわしまタワークリニック","categoryId":"medical","categoryLabel":"医疗","lat":35.732776,"lng":139.778228,"stationId":"station-003359","note":"内科　呼吸器内科　外科　循環器内科　消化器内科　糖尿病内科　甲状腺内分泌内科　婦人科"},{"id":"medical-2-4073","name":"みのわこどもクリニック","categoryId":"medical","categoryLabel":"医疗","lat":35.726882,"lng":139.790582,"stationId":"station-003399","note":"小児科"},{"id":"medical-2-4222","name":"もざわ眼科","categoryId":"medical","categoryLabel":"医疗","lat":35.729823,"lng":139.79937,"stationId":"station-003363","note":"眼科"},{"id":"medical-2-4247","name":"もりのひと心の医療科クリニック","categoryId":"medical","categoryLabel":"医疗","lat":35.749004,"lng":139.765216,"stationId":"station-003259","note":"精神科　心療内科"},{"id":"medical-3-4445","name":"よしだ歯科クリニック","categoryId":"medical","categoryLabel":"医疗","lat":35.733782,"lng":139.793509,"stationId":"station-003370","note":"歯科　矯正歯科　小児歯科"},{"id":"medical-3-4470","name":"よし歯科医院","categoryId":"medical","categoryLabel":"医疗","lat":35.734331,"lng":139.780488,"stationId":"station-003359","note":"歯科　矯正歯科　小児歯科　歯科口腔外科"},{"id":"medical-3-562","name":"アクア歯科医院","categoryId":"medical","categoryLabel":"医疗","lat":35.732249,"lng":139.791091,"stationId":"station-003370","note":"歯科　矯正歯科　小児歯科　歯科口腔外科"},{"id":"medical-3-799","name":"イーストヒル歯科","categoryId":"medical","categoryLabel":"医疗","lat":35.741746,"lng":139.782449,"stationId":"station-003306","note":"歯科"},{"id":"medical-2-1077","name":"エイラク眼科","categoryId":"medical","categoryLabel":"医疗","lat":35.739201,"lng":139.781477,"stationId":"station-003322","note":"眼科"},{"id":"medical-3-1150","name":"エムズ歯科矯正歯科クリニック","categoryId":"medical","categoryLabel":"医疗","lat":35.733706,"lng":139.796656,"stationId":"station-003363","note":"歯科　矯正歯科　小児歯科　歯科口腔外科"},{"id":"medical-2-1652","name":"クズウクリニック","categoryId":"medical","categoryLabel":"医疗","lat":35.743752,"lng":139.781006,"stationId":"station-003299","note":"精神科　心療内科"},{"id":"medical-3-1918","name":"コハクラ歯科医院","categoryId":"medical","categoryLabel":"医疗","lat":35.748368,"lng":139.78377,"stationId":"station-003299","note":"歯科"},{"id":"medical-2-2199","name":"サン内科循環器クリニック","categoryId":"medical","categoryLabel":"医疗","lat":35.735735,"lng":139.781747,"stationId":"station-003350","note":"内科　循環器内科"},{"id":"medical-3-1994","name":"サークル歯科クリニック日暮里","categoryId":"medical","categoryLabel":"医疗","lat":35.72861,"lng":139.771918,"stationId":"station-003414","note":"歯科　矯正歯科　小児歯科　歯科口腔外科"},{"id":"medical-2-2390","name":"スキンシアクリニック","categoryId":"medical","categoryLabel":"医疗","lat":35.728569,"lng":139.772496,"stationId":"station-003414","note":"美容皮膚科　内科　婦人科"},{"id":"medical-3-2910","name":"デンタルクリニック山田","categoryId":"medical","categoryLabel":"医疗","lat":35.733427,"lng":139.767817,"stationId":"station-003368","note":"歯科　矯正歯科　小児歯科　歯科口腔外科"},{"id":"medical-3-2909","name":"デンタルクリニック根岸","categoryId":"medical","categoryLabel":"医疗","lat":35.727123,"lng":139.788196,"stationId":"station-003399","note":"歯科"},{"id":"medical-3-2971","name":"トコイ歯科クリニック","categoryId":"medical","categoryLabel":"医疗","lat":35.743546,"lng":139.781356,"stationId":"station-003299","note":"歯科　矯正歯科　小児歯科"},{"id":"medical-3-3161","name":"ナナイロ歯科クリニック","categoryId":"medical","categoryLabel":"医疗","lat":35.740938,"lng":139.797796,"stationId":"station-003301","note":"歯科　小児歯科　矯正歯科　歯科口腔外科"},{"id":"medical-2-3223","name":"ニッピ診療所","categoryId":"medical","categoryLabel":"医疗","lat":35.743478,"lng":139.79372,"stationId":"station-003301","note":"内科　外科"},{"id":"medical-3-3245","name":"ネクスト・デンタル","categoryId":"medical","categoryLabel":"医疗","lat":35.73261,"lng":139.767761,"stationId":"station-003368","note":"歯科"},{"id":"medical-2-3720","name":"プラストクリニック","categoryId":"medical","categoryLabel":"医疗","lat":35.730214,"lng":139.771603,"stationId":"station-003414","note":"美容外科　形成外科　美容皮膚科　泌尿器科"},{"id":"medical-3-3780","name":"ホウキ歯科医院","categoryId":"medical","categoryLabel":"医疗","lat":35.735609,"lng":139.780877,"stationId":"station-003359","note":"歯科"},{"id":"medical-3-4179","name":"メグミ歯科クリニック","categoryId":"medical","categoryLabel":"医疗","lat":35.733279,"lng":139.784452,"stationId":"station-003350","note":"歯科　矯正歯科　小児歯科　歯科口腔外科"},{"id":"medical-3-4184","name":"メサキ歯科医院","categoryId":"medical","categoryLabel":"医疗","lat":35.727646,"lng":139.794365,"stationId":"station-003399","note":"歯科"},{"id":"medical-2-4408","name":"ユミ眼科クリニック","categoryId":"medical","categoryLabel":"医疗","lat":35.745479,"lng":139.774957,"stationId":"station-003284","note":"眼科"},{"id":"medical-3-4595","name":"レオーネキッズデンタルクリニック","categoryId":"medical","categoryLabel":"医疗","lat":35.732462,"lng":139.78861,"stationId":"station-003357","note":"矯正歯科　小児歯科"},{"id":"medical-3-13411","name":"三ノ輪口腔ケアセンター","categoryId":"medical","categoryLabel":"医疗","lat":35.7292,"lng":139.792056,"stationId":"station-003399","note":"歯科"},{"id":"medical-1-13412","name":"三ノ輪病院","categoryId":"medical","categoryLabel":"医疗","lat":35.730685,"lng":139.790258,"stationId":"station-003399","note":"内科　消化器科　外科　整形外科"},{"id":"medical-2-13410","name":"三ノ輪紀レディースクリニック","categoryId":"medical","categoryLabel":"医疗","lat":35.72916,"lng":139.792487,"stationId":"station-003399","note":"産婦人科"},{"id":"medical-3-13476","name":"三光歯科医院","categoryId":"medical","categoryLabel":"医疗","lat":35.743049,"lng":139.780509,"stationId":"station-003299","note":"歯科"},{"id":"medical-3-13442","name":"三河島歯科クリニック","categoryId":"medical","categoryLabel":"医疗","lat":35.733362,"lng":139.7789,"stationId":"station-003359","note":"歯科　矯正歯科　小児歯科　歯科口腔外科"},{"id":"medical-3-13427","name":"三浦歯科","categoryId":"medical","categoryLabel":"医疗","lat":35.734664,"lng":139.794282,"stationId":"station-003370","note":"歯科　小児歯科"},{"id":"medical-2-14948","name":"上杉医院","categoryId":"medical","categoryLabel":"医疗","lat":35.729757,"lng":139.770565,"stationId":"station-003414","note":"耳鼻咽喉科"},{"id":"medical-2-15023","name":"上野小児科医院","categoryId":"medical","categoryLabel":"医疗","lat":35.732249,"lng":139.791091,"stationId":"station-003370","note":"小児科"},{"id":"medical-2-11863","name":"久富整形外科クリニック","categoryId":"medical","categoryLabel":"医疗","lat":35.729148,"lng":139.776555,"stationId":"station-003359","note":"整形外科　リハビリテーション科"},{"id":"medical-3-11860","name":"久田デンタルクリニック","categoryId":"medical","categoryLabel":"医疗","lat":35.746649,"lng":139.782777,"stationId":"station-003299","note":"歯科"},{"id":"medical-3-11887","name":"久野歯科医院","categoryId":"medical","categoryLabel":"医疗","lat":35.73041,"lng":139.79049,"stationId":"station-003399","note":"歯科"},{"id":"medical-3-10650","name":"井上歯科医院","categoryId":"medical","categoryLabel":"医疗","lat":35.742586,"lng":139.780003,"stationId":"station-003302","note":"歯科　小児歯科"},{"id":"medical-3-10618","name":"井口歯科医院","categoryId":"medical","categoryLabel":"医疗","lat":35.741293,"lng":139.769648,"stationId":"station-003298","note":"歯科"},{"id":"medical-3-4792","name":"伊藤歯科医院","categoryId":"medical","categoryLabel":"医疗","lat":35.725614,"lng":139.765973,"stationId":"station-003434","note":"歯科"},{"id":"medical-3-18967","name":"入江歯科　熊野前","categoryId":"medical","categoryLabel":"医疗","lat":35.747441,"lng":139.770103,"stationId":"station-003266","note":"歯科　矯正歯科　小児歯科　歯科口腔外科"},{"id":"medical-2-12659","name":"公益財団法人　鉄道弘済会　義肢装具サポートセンター付属診療所","categoryId":"medical","categoryLabel":"医疗","lat":35.732568,"lng":139.799178,"stationId":"station-003363","note":"整形外科　リハビリ科"},{"id":"medical-2-12682","name":"公益財団法人城北労働・福祉センター健康相談室","categoryId":"medical","categoryLabel":"医疗","lat":35.727977,"lng":139.798999,"stationId":"station-003363","note":"内科　呼吸器内科　精神科　外科"},{"id":"medical-2-19506","name":"冨田医院","categoryId":"medical","categoryLabel":"医疗","lat":35.749555,"lng":139.766658,"stationId":"station-003259","note":"内科　神経内科"},{"id":"medical-3-19507","name":"冨田歯科医院","categoryId":"medical","categoryLabel":"医疗","lat":35.74998,"lng":139.766422,"stationId":"station-003259","note":"歯科　矯正歯科　小児歯科　歯科口腔外科"},{"id":"medical-2-5465","name":"医療法人社団 細井胃腸科クリニック","categoryId":"medical","categoryLabel":"医疗","lat":35.734532,"lng":139.771256,"stationId":"station-003339","note":"内科　胃腸科　外科　放射線科"},{"id":"medical-3-6144","name":"医療法人社団Cosme Dental Concept マークスデンタルクリニック","categoryId":"medical","categoryLabel":"医疗","lat":35.741911,"lng":139.780515,"stationId":"station-003302","note":"歯科　矯正歯科　小児歯科　歯科口腔外科"},{"id":"medical-2-6219","name":"医療法人社団M.S.ハーベスト　いしかわ日暮里クリニック","categoryId":"medical","categoryLabel":"医疗","lat":35.730211,"lng":139.770954,"stationId":"station-003414","note":"内科　放射線科　内分泌内科　乳腺外科"},{"id":"medical-2-5211","name":"医療法人社団　一順会　田村胃腸科外科","categoryId":"medical","categoryLabel":"医疗","lat":35.726195,"lng":139.791964,"stationId":"station-003399","note":"内科　消化器内科　小児科　外科　整形外科　リハビリテ　−ション科　放射線科"},{"id":"medical-2-5456","name":"医療法人社団　佐藤クリニック","categoryId":"medical","categoryLabel":"医疗","lat":35.736842,"lng":139.785673,"stationId":"station-003350","note":"内科　麻酔科"},{"id":"medical-2-5250","name":"医療法人社団　加藤産婦人科医院","categoryId":"medical","categoryLabel":"医疗","lat":35.743903,"lng":139.779393,"stationId":"station-003299","note":"産科　婦人科"},{"id":"medical-1-5914","name":"医療法人社団　同善会　同善病院","categoryId":"medical","categoryLabel":"医疗","lat":35.729479,"lng":139.793926,"stationId":"station-003399","note":"内科　精神科　リハビリ科"},{"id":"medical-1-5181","name":"医療法人社団　愛和会　南千住病院","categoryId":"medical","categoryLabel":"医疗","lat":35.733901,"lng":139.794234,"stationId":"station-003370","note":"内科　消化器内科　人工透析内科　外科　整形外科　泌尿器科"},{"id":"medical-2-5520","name":"医療法人社団　慈航会　阿部メディカルクリニック","categoryId":"medical","categoryLabel":"医疗","lat":35.742899,"lng":139.799059,"stationId":"station-003301","note":"内科　神経内科　心療内科　外科　脳神経外科　リハビリテーション科"},{"id":"medical-1-5710","name":"医療法人社団　成守会　はせがわ病院","categoryId":"medical","categoryLabel":"医疗","lat":35.728352,"lng":139.774469,"stationId":"station-003414","note":"腎臓内科　泌尿器科"},{"id":"medical-2-5194","name":"医療法人社団　杏和会　寺田クリニック","categoryId":"medical","categoryLabel":"医疗","lat":35.749452,"lng":139.784564,"stationId":"station-003299","note":"内科　眼科　リハビリテーション科"},{"id":"medical-1-5190","name":"医療法人社団　杏精会　岡田病院","categoryId":"medical","categoryLabel":"医疗","lat":35.737431,"lng":139.775764,"stationId":"station-003339","note":"内科　外科　整形外科　脳神経外科　肛門科　放射線科　婦人科"},{"id":"medical-2-5620","name":"医療法人社団　松田会　荒川外科肛門医院","categoryId":"medical","categoryLabel":"医疗","lat":35.736277,"lng":139.780162,"stationId":"station-003359","note":"内科　胃腸内科　肛門内科　外科　胃腸外科　肛門外科　消化器内科　消化器外科"},{"id":"medical-1-5954","name":"医療法人社団　美誠会　荒川病院","categoryId":"medical","categoryLabel":"医疗","lat":35.747018,"lng":139.787646,"stationId":"station-003306","note":"内科　リハビリ科"},{"id":"medical-1-5272","name":"医療法人社団　関川会　関川病院","categoryId":"medical","categoryLabel":"医疗","lat":35.73456,"lng":139.777629,"stationId":"station-003359","note":"内科　耳鼻いんこう科　皮膚科　人工透析内科　腎臓内科　形成外科　脳神経内科　整形外科　呼吸器内科　糖尿病内科　消化器内科"},{"id":"medical-2-6431","name":"医療法人社団かすが会　くれ内科医院","categoryId":"medical","categoryLabel":"医疗","lat":35.731717,"lng":139.779015,"stationId":"station-003359","note":"内科　消化器内科　循環器内科"},{"id":"medical-2-6453","name":"医療法人社団くすのき会　わかすぎ小児科クリニック","categoryId":"medical","categoryLabel":"医疗","lat":35.741911,"lng":139.780515,"stationId":"station-003302","note":"小児科　アレルギー科"},{"id":"medical-2-6527","name":"医療法人社団しんけん会　東尾久耳鼻咽喉科・アレルギー科","categoryId":"medical","categoryLabel":"医疗","lat":35.745885,"lng":139.768027,"stationId":"station-003298","note":"耳鼻咽喉科　アレルギー科"},{"id":"medical-2-6598","name":"医療法人社団たか博会　リーデンスタワークリニック","categoryId":"medical","categoryLabel":"医疗","lat":35.726196,"lng":139.776096,"stationId":"station-003414","note":"内科　消化器科　小児科　精神科　整形外科　皮膚科　リハビリテーション科"},{"id":"medical-2-6706","name":"医療法人社団ふかい整形外科医院","categoryId":"medical","categoryLabel":"医疗","lat":35.741911,"lng":139.780515,"stationId":"station-003302","note":"外科　整形外科　リハビリテーション科"},{"id":"medical-3-6768","name":"医療法人社団みすず会　第一歯科医院","categoryId":"medical","categoryLabel":"医疗","lat":35.734467,"lng":139.77843,"stationId":"station-003359","note":"歯科　矯正歯科　小児歯科　歯科口腔外科"},{"id":"medical-2-6801","name":"医療法人社団もえぎ会　町屋駅前クリニック","categoryId":"medical","categoryLabel":"医疗","lat":35.743843,"lng":139.781057,"stationId":"station-003299","note":"内科"},{"id":"medical-3-6653","name":"医療法人社団ハーティ･ライフ･クリエイト　ふかい歯科・矯正歯科","categoryId":"medical","categoryLabel":"医疗","lat":35.727351,"lng":139.774688,"stationId":"station-003414","note":"歯科　矯正歯科　小児歯科"},{"id":"medical-3-6799","name":"医療法人社団モアフロストアクレスティ南千住アプル歯科医院","categoryId":"medical","categoryLabel":"医疗","lat":35.733045,"lng":139.798189,"stationId":"station-003363","note":"歯科　矯正歯科　小児歯科　歯科口腔外科"},{"id":"medical-2-8028","name":"医療法人社団三光会　東日暮里クリニック","categoryId":"medical","categoryLabel":"医疗","lat":35.730577,"lng":139.780227,"stationId":"station-003359","note":"内科　アレルギー科"},{"id":"medical-2-8029","name":"医療法人社団三光会　東日暮里整形外科","categoryId":"medical","categoryLabel":"医疗","lat":35.730486,"lng":139.778979,"stationId":"station-003359","note":"整形外科　リハビリテーション科"},{"id":"medical-2-8019","name":"医療法人社団三河島眼科医院　西日暮里眼科","categoryId":"medical","categoryLabel":"医疗","lat":35.736258,"lng":139.775263,"stationId":"station-003339","note":"眼科"},{"id":"medical-2-8057","name":"医療法人社団三雍会　古賀整形外科","categoryId":"medical","categoryLabel":"医疗","lat":35.746526,"lng":139.769951,"stationId":"station-003266","note":"整形外科　リハビリテーション科"},{"id":"medical-2-9416","name":"医療法人社団中村内科小児科医院","categoryId":"medical","categoryLabel":"医疗","lat":35.743545,"lng":139.767842,"stationId":"station-003298","note":"内科　循環器科　小児科"},{"id":"medical-2-7248","name":"医療法人社団久悠眞会　山本医院","categoryId":"medical","categoryLabel":"医疗","lat":35.746863,"lng":139.776061,"stationId":"station-003284","note":"内科　消化器科　小児科　外科　皮膚科　泌尿器科"},{"id":"medical-2-7245","name":"医療法人社団久木留医院","categoryId":"medical","categoryLabel":"医疗","lat":35.736821,"lng":139.794917,"stationId":"station-003363","note":"内科　呼吸器内科　消化器　胃腸内科"},{"id":"medical-3-8722","name":"医療法人社団仁宏会　じんデンタルクリニック","categoryId":"medical","categoryLabel":"医疗","lat":35.726533,"lng":139.775583,"stationId":"station-003414","note":"歯科　矯正歯科　小児歯科　歯科口腔外科"},{"id":"medical-2-8750","name":"医療法人社団仁癒会　南千住つのだ医院","categoryId":"medical","categoryLabel":"医疗","lat":35.737414,"lng":139.794485,"stationId":"station-003301","note":"内科　循環器内科　小児科"},{"id":"medical-2-9422","name":"医療法人社団仲村医心会荒川整形外科リハビリテーションクリニック","categoryId":"medical","categoryLabel":"医疗","lat":35.735612,"lng":139.787293,"stationId":"station-003350","note":"整形外科　リハビリテーション科　麻酔科"},{"id":"medical-2-7521","name":"医療法人社団健康会　高橋医院","categoryId":"medical","categoryLabel":"医疗","lat":35.746129,"lng":139.781742,"stationId":"station-003299","note":"内科　消化器内科　整形外科　外科　皮膚科　眼科　耳鼻咽喉科"},{"id":"medical-3-10093","name":"医療法人社団優光会　Mファミリー歯科・矯正歯科","categoryId":"medical","categoryLabel":"医疗","lat":35.745288,"lng":139.767405,"stationId":"station-003298","note":"歯科　矯正歯科　小児歯科　歯科口腔外科"},{"id":"medical-2-9746","name":"医療法人社団八光会　菅原眼科クリニック","categoryId":"medical","categoryLabel":"医疗","lat":35.732136,"lng":139.791291,"stationId":"station-003370","note":"眼科"},{"id":"medical-2-7684","name":"医療法人社団公尽会　さいとうクリニック","categoryId":"medical","categoryLabel":"医疗","lat":35.744397,"lng":139.781067,"stationId":"station-003299","note":"内科　脳神経外科　リハビリテーション科　神経内科"},{"id":"medical-2-10399","name":"医療法人社団六瓢会　小原医院","categoryId":"medical","categoryLabel":"医疗","lat":35.745881,"lng":139.774265,"stationId":"station-003284","note":"内科　小児科"},{"id":"medical-3-6927","name":"医療法人社団医恵会　森本歯科医院","categoryId":"medical","categoryLabel":"医疗","lat":35.745975,"lng":139.782255,"stationId":"station-003299","note":"歯科"},{"id":"medical-3-9174","name":"医療法人社団千蘭会　千住大橋歯科","categoryId":"medical","categoryLabel":"医疗","lat":35.742154,"lng":139.797587,"stationId":"station-003301","note":"歯科　小児歯科　歯科口腔外科　矯正歯科"},{"id":"medical-2-9686","name":"医療法人社団博信会　布川医院","categoryId":"medical","categoryLabel":"医疗","lat":35.748381,"lng":139.79662,"stationId":"station-003301","note":"内科　小児科　神経内科"},{"id":"medical-3-10152","name":"医療法人社団友和会　太陽歯科診療所","categoryId":"medical","categoryLabel":"医疗","lat":35.73261,"lng":139.767761,"stationId":"station-003368","note":"歯科　矯正歯科　小児歯科　歯科口腔外科"},{"id":"medical-3-9341","name":"医療法人社団大伸会　にっぽり三国歯科","categoryId":"medical","categoryLabel":"医疗","lat":35.728959,"lng":139.77172,"stationId":"station-003414","note":"歯科　矯正歯科　小児歯科　歯科口腔外科"},{"id":"medical-3-9343","name":"医療法人社団大伸会　みのわ三国歯科","categoryId":"medical","categoryLabel":"医疗","lat":35.726882,"lng":139.790582,"stationId":"station-003399","note":"歯科　矯正歯科　小児歯科　歯科口腔外科"},{"id":"medical-3-9352","name":"医療法人社団大生会　町屋歯科クリニック","categoryId":"medical","categoryLabel":"医疗","lat":35.749741,"lng":139.778176,"stationId":"station-003284","note":"歯科　矯正歯科　小児歯科　歯科口腔外科"},{"id":"medical-3-9799","name":"医療法人社団富士美会　東日暮里歯科医院","categoryId":"medical","categoryLabel":"医疗","lat":35.726752,"lng":139.778452,"stationId":"station-003460","note":"歯科　矯正歯科　小児歯科　歯科口腔外科"},{"id":"medical-3-10448","name":"医療法人社団將幸会　冠新道歯科医院","categoryId":"medical","categoryLabel":"医疗","lat":35.736925,"lng":139.770728,"stationId":"station-003339","note":"歯科"},{"id":"medical-2-8441","name":"医療法人社団小島医院","categoryId":"medical","categoryLabel":"医疗","lat":35.735738,"lng":139.767669,"stationId":"station-003368","note":"内科　消化器内科　糖尿病代謝内科　老年内科"},{"id":"medical-3-8432","name":"医療法人社団小形歯科医院","categoryId":"medical","categoryLabel":"医疗","lat":35.743141,"lng":139.774619,"stationId":"station-003291","note":"歯科"},{"id":"medical-2-9845","name":"医療法人社団平永会　日下診療所","categoryId":"medical","categoryLabel":"医疗","lat":35.733741,"lng":139.796335,"stationId":"station-003363","note":"内科　泌尿器科"},{"id":"medical-3-7797","name":"医療法人社団康真会　アクロシティ歯科クリニック","categoryId":"medical","categoryLabel":"医疗","lat":35.739224,"lng":139.790802,"stationId":"station-003322","note":"歯科　矯正歯科　小児歯科"},{"id":"medical-2-7839","name":"医療法人社団弘明会　石橋内科歯科医院","categoryId":"medical","categoryLabel":"医疗","lat":35.732899,"lng":139.788282,"stationId":"station-003357","note":"内科　消化器科　歯科"},{"id":"medical-3-9610","name":"医療法人社団徳誠会　三ノ輪歯科","categoryId":"medical","categoryLabel":"医疗","lat":35.730894,"lng":139.791822,"stationId":"station-003370","note":"歯科　歯科口腔外科"},{"id":"medical-3-8107","name":"医療法人社団志宏会まなべ歯科医院","categoryId":"medical","categoryLabel":"医疗","lat":35.748098,"lng":139.770877,"stationId":"station-003266","note":"歯科　小児歯科　矯正歯科"},{"id":"medical-3-7100","name":"医療法人社団応佳会　市來歯科医院","categoryId":"medical","categoryLabel":"医疗","lat":35.729162,"lng":139.771973,"stationId":"station-003414","note":"歯科　矯正歯科　小児歯科"},{"id":"medical-3-7377","name":"医療法人社団恵進会　新三河島歯科医院","categoryId":"medical","categoryLabel":"医疗","lat":35.737802,"lng":139.77372,"stationId":"station-003339","note":"歯科　矯正歯科　小児歯科"},{"id":"medical-2-6895","name":"医療法人社団愛和会　愛和クリニック","categoryId":"medical","categoryLabel":"医疗","lat":35.733963,"lng":139.786921,"stationId":"station-003357","note":"内科　人工透析内科"},{"id":"medical-2-6896","name":"医療法人社団愛和会　熊の前腎クリニック","categoryId":"medical","categoryLabel":"医疗","lat":35.745567,"lng":139.769734,"stationId":"station-003298","note":"内科　人工透析内科"},{"id":"medical-2-6877","name":"医療法人社団愛幸会　倉岡クリニック","categoryId":"medical","categoryLabel":"医疗","lat":35.731713,"lng":139.765002,"stationId":"station-003368","note":"内科　精神科　神経科"},{"id":"medical-3-8605","name":"医療法人社団慎和会　黒瀬デンタルクリニ勤ク","categoryId":"medical","categoryLabel":"医疗","lat":35.742857,"lng":139.796563,"stationId":"station-003301","note":"歯科　小児歯科"},{"id":"medical-3-7460","name":"医療法人社団慧生会　日暮里ステーションタワー歯科","categoryId":"medical","categoryLabel":"医疗","lat":35.729107,"lng":139.770522,"stationId":"station-003414","note":"歯科　矯正歯科　小児歯科　歯科口腔外科"},{"id":"medical-2-7431","name":"医療法人社団慶新会　菊池皮膚科医院","categoryId":"medical","categoryLabel":"医疗","lat":35.728557,"lng":139.77109,"stationId":"station-003414","note":"皮膚科"},{"id":"medical-2-7438","name":"医療法人社団慶津会　日暮里ホームクリニック","categoryId":"medical","categoryLabel":"医疗","lat":35.728876,"lng":139.782458,"stationId":"station-003359","note":"内科　精神科　心療内科"},{"id":"medical-2-8628","name":"医療法人社団新穂会　町屋皮フ科クリニック","categoryId":"medical","categoryLabel":"医疗","lat":35.743134,"lng":139.781356,"stationId":"station-003299","note":"アレルギー科　皮膚科"},{"id":"medical-2-9656","name":"医療法人社団日暮里医院","categoryId":"medical","categoryLabel":"医疗","lat":35.728594,"lng":139.772715,"stationId":"station-003414","note":"内科　消化器科　循環器科　小児科　外科　皮膚科"},{"id":"medical-2-9659","name":"医療法人社団日野クリニック","categoryId":"medical","categoryLabel":"医疗","lat":35.74127,"lng":139.779685,"stationId":"station-003302","note":"内科　循環器内科　代謝内科　心療内科"},{"id":"medical-2-9993","name":"医療法人社団明高会高杉医院","categoryId":"medical","categoryLabel":"医疗","lat":35.738149,"lng":139.768382,"stationId":"station-003339","note":"消化器内科　循環器内科　内科　小児科"},{"id":"medical-3-9941","name":"医療法人社団望洋会　髙木歯科医院","categoryId":"medical","categoryLabel":"医疗","lat":35.745907,"lng":139.793121,"stationId":"station-003301","note":"歯科　矯正歯科　小児歯科　歯科口腔外科"},{"id":"medical-2-6910","name":"医療法人社団杏音会　土屋クリニック","categoryId":"medical","categoryLabel":"医疗","lat":35.735963,"lng":139.797554,"stationId":"station-003363","note":"内科　消化器科　放射線科"},{"id":"medical-2-7498","name":"医療法人社団桂文会　堀メディカルクリニック","categoryId":"medical","categoryLabel":"医疗","lat":35.743134,"lng":139.781356,"stationId":"station-003299","note":"内科　外科　消化器内科　乳腺外科　肛門外科"},{"id":"medical-2-7499","name":"医療法人社団桂文会　堀整形外科医院","categoryId":"medical","categoryLabel":"医疗","lat":35.743134,"lng":139.781356,"stationId":"station-003299","note":"リウマチ科　整形外科　リハビリテーション科"},{"id":"medical-3-10469","name":"医療法人社団櫻雅会　オリオン歯科アトラスブランズタワー三河島クリニック","categoryId":"medical","categoryLabel":"医疗","lat":35.732776,"lng":139.778228,"stationId":"station-003359","note":"歯科　矯正歯科　小児歯科　歯科口腔外科"},{"id":"medical-2-9808","name":"医療法人社団武田内科小児科クリニック","categoryId":"medical","categoryLabel":"医疗","lat":35.747475,"lng":139.785205,"stationId":"station-003306","note":"内科　小児科　呼吸器内科　循環器内科　感染症内科　アレルギー科　消化器内科"},{"id":"medical-2-8770","name":"医療法人社団水聖会　メディカルスキャニング日暮里","categoryId":"medical","categoryLabel":"医疗","lat":35.729107,"lng":139.770522,"stationId":"station-003414","note":"内科　放射線科"},{"id":"medical-2-8774","name":"医療法人社団水野クリニック","categoryId":"medical","categoryLabel":"医疗","lat":35.734376,"lng":139.785062,"stationId":"station-003350","note":"内科　小児科"},{"id":"medical-2-7054","name":"医療法人社団永優会　鈴木内科胃腸クリニック","categoryId":"medical","categoryLabel":"医疗","lat":35.7458,"lng":139.79413,"stationId":"station-003301","note":"内科　消化器内科　胃腸内科　内視鏡内科"},{"id":"medical-2-9307","name":"医療法人社団泰仁会　北川医院","categoryId":"medical","categoryLabel":"医疗","lat":35.742241,"lng":139.798465,"stationId":"station-003301","note":"内科　小児科　精神科　神経内科　心療内科　皮膚科　リハビリテーション科　整形外科"},{"id":"medical-3-7158","name":"医療法人社団活生会　安寿歯科","categoryId":"medical","categoryLabel":"医疗","lat":35.73232,"lng":139.79227,"stationId":"station-003370","note":"歯科　小児歯科"},{"id":"medical-2-7138","name":"医療法人社団海山会　鈴木整形外科","categoryId":"medical","categoryLabel":"医疗","lat":35.745479,"lng":139.774957,"stationId":"station-003284","note":"整形外科　リハビリテーション科"},{"id":"medical-2-8939","name":"医療法人社団清心会　清水医院","categoryId":"medical","categoryLabel":"医疗","lat":35.735482,"lng":139.786289,"stationId":"station-003350","note":"内科　循環器内科"},{"id":"medical-2-8814","name":"医療法人社団澄心会　中山医院","categoryId":"medical","categoryLabel":"医疗","lat":35.731995,"lng":139.788933,"stationId":"station-003357","note":"皮膚科"},{"id":"medical-2-7328","name":"医療法人社団熊野前医院","categoryId":"medical","categoryLabel":"医疗","lat":35.747387,"lng":139.771157,"stationId":"station-003266","note":"内科　胃腸科　小児科"},{"id":"medical-2-8791","name":"医療法人社団瑞英会　野近眼科医院","categoryId":"medical","categoryLabel":"医疗","lat":35.73398,"lng":139.79645,"stationId":"station-003363","note":"眼科"},{"id":"medical-2-9429","name":"医療法人社団町屋五丁目整形外科クリニック","categoryId":"medical","categoryLabel":"医疗","lat":35.749794,"lng":139.781237,"stationId":"station-003299","note":"内科　リウマチ科　リハビリテーション科　整形外科"},{"id":"medical-3-8670","name":"医療法人社団真峰会　千寿歯科・矯正歯科","categoryId":"medical","categoryLabel":"医疗","lat":35.742412,"lng":139.795421,"stationId":"station-003301","note":"歯科　矯正歯科　小児歯科　歯科口腔外科"},{"id":"medical-3-10191","name":"医療法人社団祐一会　JR西日暮里・改札口歯科","categoryId":"medical","categoryLabel":"医疗","lat":35.732267,"lng":139.767543,"stationId":"station-003368","note":"歯科　矯正歯科　小児歯科　歯科口腔外科"},{"id":"medical-2-9826","name":"医療法人社団福寿会　日暮里リウマチクリニック","categoryId":"medical","categoryLabel":"医疗","lat":35.727708,"lng":139.771974,"stationId":"station-003414","note":"リウマチ科　整形外科"},{"id":"medical-2-8338","name":"医療法人社団秀洋会　白十字診療所","categoryId":"medical","categoryLabel":"医疗","lat":35.728859,"lng":139.770738,"stationId":"station-003414","note":"内科　心療内科　産婦人科　皮膚科　泌尿器科　性感染症内科　精神科"},{"id":"medical-2-10358","name":"医療法人社団緑紋会　小泉医院","categoryId":"medical","categoryLabel":"医疗","lat":35.746807,"lng":139.775071,"stationId":"station-003284","note":"耳鼻咽喉科　気管食道科"},{"id":"medical-3-8988","name":"医療法人社団聖医会　田中歯科クリニック","categoryId":"medical","categoryLabel":"医疗","lat":35.747596,"lng":139.768384,"stationId":"station-003266","note":"歯科　矯正歯科　小児歯科"},{"id":"medical-3-9014","name":"医療法人社団聖陵会　町屋くま歯科","categoryId":"medical","categoryLabel":"医疗","lat":35.746124,"lng":139.773932,"stationId":"station-003284","note":"歯科　矯正歯科　小児歯科　歯科口腔外科"},{"id":"medical-2-10338","name":"医療法人社団良仁会　佐久間耳鼻科クリニック","categoryId":"medical","categoryLabel":"医疗","lat":35.743907,"lng":139.77618,"stationId":"station-003291","note":"耳鼻咽喉科"},{"id":"medical-2-7121","name":"医療法人社団花水木会　はたの耳鼻咽喉科","categoryId":"medical","categoryLabel":"医疗","lat":35.733045,"lng":139.798189,"stationId":"station-003363","note":"アレルギー科　耳鼻咽喉科　小児耳鼻咽喉科"},{"id":"medical-2-8250","name":"医療法人社団若杉会　東京人間ドッククリニック","categoryId":"medical","categoryLabel":"医疗","lat":35.739278,"lng":139.768939,"stationId":"station-003298","note":"内科　消化器内科　放射線診断科"},{"id":"medical-3-7069","name":"医療法人社団英聖会　西日暮里歯科クリニック","categoryId":"medical","categoryLabel":"医疗","lat":35.732987,"lng":139.767683,"stationId":"station-003368","note":"歯科　矯正歯科　小児歯科　歯科口腔外科"},{"id":"medical-2-7908","name":"医療法人社団荒川名倉整形　荒川名倉整形","categoryId":"medical","categoryLabel":"医疗","lat":35.735821,"lng":139.777348,"stationId":"station-003359","note":"内科　整形外科　リハビリテーション科"},{"id":"medical-3-7126","name":"医療法人社団華清会　清水歯科クリニック日暮里","categoryId":"medical","categoryLabel":"医疗","lat":35.72858,"lng":139.772334,"stationId":"station-003414","note":"歯科　矯正歯科　小児歯科　歯科口腔外科"},{"id":"medical-2-10388","name":"医療法人社団蓮沼医院","categoryId":"medical","categoryLabel":"医疗","lat":35.730146,"lng":139.773669,"stationId":"station-003414","note":"内科　消化器科　循環器科　小児科　放射線科"},{"id":"medical-2-7333","name":"医療法人社団薫光会　加藤小児科内科医院","categoryId":"medical","categoryLabel":"医疗","lat":35.72803,"lng":139.774743,"stationId":"station-003414","note":"内科　循環器科　小児科　皮膚科"},{"id":"medical-3-9575","name":"医療法人社団藤弘会　日暮里駅前デンタルクリニック","categoryId":"medical","categoryLabel":"医疗","lat":35.728557,"lng":139.77109,"stationId":"station-003414","note":"歯科　矯正歯科　小児歯科　歯科口腔外科"},{"id":"medical-3-9574","name":"医療法人社団藤弘会　西日暮里駅前デンタルクリニック","categoryId":"medical","categoryLabel":"医疗","lat":35.731774,"lng":139.765951,"stationId":"station-003368","note":"歯科　歯科口腔外科　矯正歯科　小児歯科"},{"id":"medical-3-10211","name":"医療法人社団裕慈会　宮の前歯科クリニック","categoryId":"medical","categoryLabel":"医疗","lat":35.749808,"lng":139.765374,"stationId":"station-003259","note":"歯科　矯正歯科　小児歯科　歯科口腔外科"},{"id":"medical-2-9024","name":"医療法人社団西松医院","categoryId":"medical","categoryLabel":"医疗","lat":35.729651,"lng":139.789004,"stationId":"station-003399","note":"内科　循環器科　小児科　皮膚科"},{"id":"medical-2-8083","name":"医療法人社団讃友会　あべクリニック","categoryId":"medical","categoryLabel":"医疗","lat":35.728802,"lng":139.77247,"stationId":"station-003414","note":"精神科　心療内科"},{"id":"medical-3-7609","name":"医療法人社団賢信会　ときわ歯科","categoryId":"medical","categoryLabel":"医疗","lat":35.732198,"lng":139.778899,"stationId":"station-003359","note":"歯科　矯正歯科　小児歯科　歯科口腔外科"},{"id":"medical-2-10047","name":"医療法人社団躍心会　くまのまえ皮フ科","categoryId":"medical","categoryLabel":"医疗","lat":35.748996,"lng":139.768523,"stationId":"station-003266","note":"内科　外科　皮膚科　アレルギー科　形成外科"},{"id":"medical-2-10043","name":"医療法人社団野原医院","categoryId":"medical","categoryLabel":"医疗","lat":35.744493,"lng":139.766153,"stationId":"station-003298","note":"内科"},{"id":"medical-3-10299","name":"医療法人社団隆恵会　磯歯科医院","categoryId":"medical","categoryLabel":"医疗","lat":35.745908,"lng":139.768719,"stationId":"station-003298","note":"歯科　矯正歯科"},{"id":"medical-2-10219","name":"医療法人社団雄昂会　やたがいクリニック","categoryId":"medical","categoryLabel":"医疗","lat":35.726082,"lng":139.781446,"stationId":"station-003460","note":"内科　消化器内科　循環器内科　呼吸器内科　麻酔科"},{"id":"medical-2-10227","name":"医療法人社団雄照会　はちすか整形外科","categoryId":"medical","categoryLabel":"医疗","lat":35.733045,"lng":139.798189,"stationId":"station-003363","note":"整形外科　リハビリテーション科"},{"id":"medical-3-9104","name":"医療法人社団静勝会　亀沢歯科医院","categoryId":"medical","categoryLabel":"医疗","lat":35.728678,"lng":139.789333,"stationId":"station-003399","note":"歯科"},{"id":"medical-2-8764","name":"医療法人社団靭生会　入谷クリニック","categoryId":"medical","categoryLabel":"医疗","lat":35.726418,"lng":139.78854,"stationId":"station-003399","note":"泌尿器科"},{"id":"medical-2-8404","name":"医療法人社団順康会こばやし眼科クリニック","categoryId":"medical","categoryLabel":"医疗","lat":35.744679,"lng":139.797521,"stationId":"station-003301","note":"眼科"},{"id":"medical-2-10319","name":"医療法人社団龍門会　町屋整形外科","categoryId":"medical","categoryLabel":"医疗","lat":35.747444,"lng":139.783307,"stationId":"station-003299","note":"リウマチ科　整形外科　リハビリテーション科"},{"id":"medical-2-6206","name":"医療法人社団ＫＳハートメディカル　ハートクリニック南千住","categoryId":"medical","categoryLabel":"医疗","lat":35.733045,"lng":139.798189,"stationId":"station-003363","note":"内科　皮膚科　婦人科　循環器内科"},{"id":"medical-2-16301","name":"千住・胃と腸のクリニック","categoryId":"medical","categoryLabel":"医疗","lat":35.748591,"lng":139.799498,"stationId":"kitasenju","note":"消化器内科　内視鏡内科　胃腸内科"},{"id":"medical-2-16305","name":"千住町眼科","categoryId":"medical","categoryLabel":"医疗","lat":35.742412,"lng":139.795421,"stationId":"station-003301","note":"眼科　アレルギー科　小児眼科"},{"id":"medical-2-16299","name":"千寿皮膚科医院","categoryId":"medical","categoryLabel":"医疗","lat":35.749247,"lng":139.799735,"stationId":"kitasenju","note":"皮膚科"},{"id":"medical-2-18784","name":"南千住こどもクリニック","categoryId":"medical","categoryLabel":"医疗","lat":35.733045,"lng":139.798189,"stationId":"station-003363","note":"小児科　アレルギー科"},{"id":"medical-2-18785","name":"南千住内科クリニック","categoryId":"medical","categoryLabel":"医疗","lat":35.732258,"lng":139.796483,"stationId":"station-003363","note":"内科　循環器科　神経内科"},{"id":"medical-2-11776","name":"吉田医院","categoryId":"medical","categoryLabel":"医疗","lat":35.725631,"lng":139.779106,"stationId":"station-003460","note":"内科　婦人科　産科"},{"id":"medical-3-11795","name":"吉田歯科医院","categoryId":"medical","categoryLabel":"医疗","lat":35.737019,"lng":139.782873,"stationId":"station-003322","note":"歯科"},{"id":"medical-2-11824","name":"吉野内科小児科医院","categoryId":"medical","categoryLabel":"医疗","lat":35.733037,"lng":139.795049,"stationId":"station-003370","note":"内科　小児科"},{"id":"medical-2-20713","name":"和　クリニック","categoryId":"medical","categoryLabel":"医疗","lat":35.743398,"lng":139.779204,"stationId":"station-003299","note":"内科"},{"id":"medical-3-17063","name":"大木歯科医院","categoryId":"medical","categoryLabel":"医疗","lat":35.749359,"lng":139.787879,"stationId":"station-003306","note":"歯科　矯正歯科　小児歯科"},{"id":"medical-2-16936","name":"大泉クリニック","categoryId":"medical","categoryLabel":"医疗","lat":35.743738,"lng":139.776464,"stationId":"station-003291","note":"内科　小児科　皮膚科"},{"id":"medical-3-17069","name":"大門歯科医院","categoryId":"medical","categoryLabel":"医疗","lat":35.729039,"lng":139.782943,"stationId":"station-003359","note":"歯科　矯正歯科　小児歯科　歯科口腔外科"},{"id":"medical-2-14438","name":"女性とこころのクリニック","categoryId":"medical","categoryLabel":"医疗","lat":35.743134,"lng":139.781356,"stationId":"station-003299","note":"精神科　産婦人科"},{"id":"medical-3-11932","name":"宮島歯科医院","categoryId":"medical","categoryLabel":"医疗","lat":35.743242,"lng":139.780323,"stationId":"station-003299","note":"歯科"},{"id":"medical-3-19466","name":"富岡歯科医院","categoryId":"medical","categoryLabel":"医疗","lat":35.745162,"lng":139.769605,"stationId":"station-003298","note":"歯科"},{"id":"medical-2-14641","name":"小堀クリニック","categoryId":"medical","categoryLabel":"医疗","lat":35.732558,"lng":139.768771,"stationId":"station-003368","note":"内科　胃腸科　外科　リハビリテーション科　放射線科"},{"id":"medical-2-14472","name":"小宮耳鼻咽喉科医院","categoryId":"medical","categoryLabel":"医疗","lat":35.748598,"lng":139.799992,"stationId":"kitasenju","note":"耳鼻いんこう科"},{"id":"medical-2-14505","name":"小山内科医院","categoryId":"medical","categoryLabel":"医疗","lat":35.731312,"lng":139.790249,"stationId":"station-003370","note":"内科　消化器内科"},{"id":"medical-2-14629","name":"小日向眼科クリニック","categoryId":"medical","categoryLabel":"医疗","lat":35.743188,"lng":139.782226,"stationId":"station-003299","note":"眼科"},{"id":"medical-3-14709","name":"小林歯科医院","categoryId":"medical","categoryLabel":"医疗","lat":35.733932,"lng":139.789745,"stationId":"station-003357","note":"歯科　小児歯科"},{"id":"medical-3-14635","name":"小浜歯科医院","categoryId":"medical","categoryLabel":"医疗","lat":35.726592,"lng":139.784803,"stationId":"station-003399","note":"歯科　矯正歯科　小児歯科"},{"id":"medical-3-14661","name":"小野沢歯科医院","categoryId":"medical","categoryLabel":"医疗","lat":35.725349,"lng":139.768377,"stationId":"station-003414","note":"歯科"},{"id":"medical-3-13606","name":"山岸歯科医院","categoryId":"medical","categoryLabel":"医疗","lat":35.744101,"lng":139.78175,"stationId":"station-003299","note":"歯科"},{"id":"medical-2-13683","name":"山田こどもクリニック","categoryId":"medical","categoryLabel":"医疗","lat":35.748492,"lng":139.782429,"stationId":"station-003299","note":"小児科　アレルギー科"},{"id":"medical-3-13707","name":"山田歯科医院","categoryId":"medical","categoryLabel":"医疗","lat":35.731542,"lng":139.7936,"stationId":"station-003370","note":"歯科　小児歯科"},{"id":"medical-3-10997","name":"岡　歯科医院","categoryId":"medical","categoryLabel":"医疗","lat":35.737861,"lng":139.774199,"stationId":"station-003339","note":"歯科"},{"id":"medical-3-18023","name":"島田歯科医院","categoryId":"medical","categoryLabel":"医疗","lat":35.744647,"lng":139.769619,"stationId":"station-003298","note":"歯科　矯正歯科　小児歯科"},{"id":"medical-2-16355","name":"川口クリニック","categoryId":"medical","categoryLabel":"医疗","lat":35.727708,"lng":139.771974,"stationId":"station-003414","note":"美容皮膚科　形成外科"},{"id":"medical-2-12756","name":"康仁巡回クリニック","categoryId":"medical","categoryLabel":"医疗","lat":35.7296,"lng":139.773156,"stationId":"station-003414","note":"内科　放射線科"},{"id":"medical-2-18868","name":"日暮里レディースクリニック","categoryId":"medical","categoryLabel":"医疗","lat":35.729107,"lng":139.770522,"stationId":"station-003414","note":"婦人科"},{"id":"medical-2-18870","name":"日暮里健診プラザ","categoryId":"medical","categoryLabel":"医疗","lat":35.729107,"lng":139.770522,"stationId":"station-003414","note":"内科　消化器内科"},{"id":"medical-2-18871","name":"日暮里泌尿器科内科","categoryId":"medical","categoryLabel":"医疗","lat":35.728406,"lng":139.775157,"stationId":"station-003414","note":"内科　整形外科　泌尿器科　性感染症内科"},{"id":"medical-2-18869","name":"日暮里眼科クリニック","categoryId":"medical","categoryLabel":"医疗","lat":35.728557,"lng":139.77109,"stationId":"station-003414","note":"眼科　小児眼科"},{"id":"medical-3-18962","name":"日野歯科医院","categoryId":"medical","categoryLabel":"医疗","lat":35.743432,"lng":139.777269,"stationId":"station-003291","note":"歯科"},{"id":"medical-3-18852","name":"日高歯科医院","categoryId":"medical","categoryLabel":"医疗","lat":35.745487,"lng":139.799242,"stationId":"station-003301","note":"歯科"},{"id":"medical-3-15702","name":"星野デンタルクリニック","categoryId":"medical","categoryLabel":"医疗","lat":35.728123,"lng":139.790514,"stationId":"station-003399","note":"歯科　矯正歯科　小児歯科　歯科口腔外科"},{"id":"medical-2-14399","name":"春田内科医院","categoryId":"medical","categoryLabel":"医疗","lat":35.730664,"lng":139.774193,"stationId":"station-003359","note":"内科　小児科"},{"id":"medical-2-19847","name":"望月医院","categoryId":"medical","categoryLabel":"医疗","lat":35.739916,"lng":139.780325,"stationId":"station-003302","note":"アレルギー科　耳鼻咽喉科　気管食道科"},{"id":"medical-2-20182","name":"木田医院","categoryId":"medical","categoryLabel":"医疗","lat":35.749464,"lng":139.782712,"stationId":"station-003299","note":"内科　胃腸科　外科"},{"id":"medical-3-19995","name":"本橋歯科医院","categoryId":"medical","categoryLabel":"医疗","lat":35.728715,"lng":139.773331,"stationId":"station-003414","note":"歯科　矯正歯科　小児歯科　歯科口腔外科"},{"id":"medical-2-18133","name":"東京ふれあい医療生活協同組合宮の前診療所","categoryId":"medical","categoryLabel":"医疗","lat":35.749682,"lng":139.765591,"stationId":"station-003259","note":"内科　呼吸器科　胃腸科　循環器科　小児科　外科　整形外科　リハビリテーション科　放射線科"},{"id":"medical-2-18104","name":"東京ネクスト内科・透析クリニック","categoryId":"medical","categoryLabel":"医疗","lat":35.729757,"lng":139.770565,"stationId":"station-003414","note":"内科　腎臓内科　人工透析内科"},{"id":"medical-2-18308","name":"東京保健生活協同組合　竜泉協立診療所","categoryId":"medical","categoryLabel":"医疗","lat":35.726089,"lng":139.795536,"stationId":"station-003399","note":"内科　呼吸器内科　循環器内科　消化器内科　皮膚科　整形外科"},{"id":"medical-1-18195","name":"東京女子医科大学東医療センター","categoryId":"medical","categoryLabel":"医疗","lat":35.748309,"lng":139.765681,"stationId":"station-003259","note":"内科　呼吸器内科　消化器内科　循環器内科　内視鏡内科　小児科　精神科　神経内科　心療内科　リウマチ科　外科　整形外科　形成外科　美容外科　脳神経外科　呼吸器外科　心臓血管外科　消化器外科　乳腺外科　産婦人科　眼科　耳鼻いんこう科　皮膚科　泌尿器科"},{"id":"medical-3-18196","name":"東京女子医科大学東医療センター歯科口腔外科クリニック","categoryId":"medical","categoryLabel":"医疗","lat":35.74849,"lng":139.765116,"stationId":"station-003259","note":"歯科　歯科口腔外科"},{"id":"medical-2-18288","name":"東京日暮里たんのハートクリニック","categoryId":"medical","categoryLabel":"医疗","lat":35.728348,"lng":139.772971,"stationId":"station-003414","note":"内科　心臓血管内科　心臓血管外科　循環器内科"},{"id":"medical-3-18377","name":"東尾久ふじの歯科医院","categoryId":"medical","categoryLabel":"医疗","lat":35.745479,"lng":139.774957,"stationId":"station-003284","note":"歯科　矯正歯科　小児歯科　歯科口腔外科"},{"id":"medical-3-14867","name":"松本歯科医院","categoryId":"medical","categoryLabel":"医疗","lat":35.745023,"lng":139.766861,"stationId":"station-003298","note":"歯科"},{"id":"medical-3-14824","name":"松田歯科クリニック","categoryId":"medical","categoryLabel":"医疗","lat":35.743188,"lng":139.782226,"stationId":"station-003299","note":"歯科　矯正歯科　小児歯科"},{"id":"medical-3-19203","name":"板谷歯科医院","categoryId":"medical","categoryLabel":"医疗","lat":35.746395,"lng":139.779765,"stationId":"station-003291","note":"歯科"},{"id":"medical-3-12315","name":"栗田歯科医院","categoryId":"medical","categoryLabel":"医疗","lat":35.742533,"lng":139.797478,"stationId":"station-003301","note":"歯科　小児歯科"},{"id":"medical-3-17673","name":"椿デンタルクリニック","categoryId":"medical","categoryLabel":"医疗","lat":35.725138,"lng":139.797994,"stationId":"station-003399","note":"歯科　矯正歯科　小児歯科　歯科口腔外科"},{"id":"medical-3-12020","name":"橋本歯科医院","categoryId":"medical","categoryLabel":"医疗","lat":35.728498,"lng":139.789881,"stationId":"station-003399","note":"歯科　矯正歯科　小児歯科"},{"id":"medical-2-19579","name":"武内クリニック","categoryId":"medical","categoryLabel":"医疗","lat":35.728455,"lng":139.789564,"stationId":"station-003399","note":"内科"},{"id":"medical-3-15516","name":"水川歯科医院","categoryId":"medical","categoryLabel":"医疗","lat":35.727192,"lng":139.77309,"stationId":"station-003414","note":"歯科　矯正歯科　小児歯科　歯科口腔外科"},{"id":"medical-3-12816","name":"江里口歯科","categoryId":"medical","categoryLabel":"医疗","lat":35.7298,"lng":139.797623,"stationId":"station-003363","note":"歯科　歯科口腔外科"},{"id":"medical-2-17260","name":"池田耳鼻咽喉科","categoryId":"medical","categoryLabel":"医疗","lat":35.734856,"lng":139.783357,"stationId":"station-003350","note":"耳鼻咽喉科"},{"id":"medical-3-11228","name":"河津歯科医院","categoryId":"medical","categoryLabel":"医疗","lat":35.727571,"lng":139.768658,"stationId":"station-003414","note":"歯科　矯正歯科　小児歯科　歯科口腔外科"},{"id":"medical-3-16453","name":"浅野歯科医院","categoryId":"medical","categoryLabel":"医疗","lat":35.748118,"lng":139.798538,"stationId":"kitasenju","note":"歯科　小児歯科"},{"id":"medical-2-10813","name":"浦尾医院","categoryId":"medical","categoryLabel":"医疗","lat":35.728498,"lng":139.789881,"stationId":"station-003399","note":"耳鼻いんこう科"},{"id":"medical-2-15741","name":"清水医院","categoryId":"medical","categoryLabel":"医疗","lat":35.725951,"lng":139.783911,"stationId":"station-003469","note":"内科　循環器内科　放射線科"},{"id":"medical-3-14375","name":"渋谷歯科医院","categoryId":"medical","categoryLabel":"医疗","lat":35.749134,"lng":139.794288,"stationId":"station-003301","note":"歯科"},{"id":"medical-3-17923","name":"渡辺歯科クリニック","categoryId":"medical","categoryLabel":"医疗","lat":35.728875,"lng":139.789554,"stationId":"station-003399","note":"歯科　小児歯科"},{"id":"medical-3-12287","name":"熊の前歯科クリニック","categoryId":"medical","categoryLabel":"医疗","lat":35.746813,"lng":139.768468,"stationId":"station-003266","note":"歯科　小児歯科"},{"id":"medical-2-12300","name":"熊野前にしむら内科クリニック","categoryId":"medical","categoryLabel":"医疗","lat":35.74942,"lng":139.769239,"stationId":"station-003266","note":"内科　循環器内科　糖尿病内科　腎臓内科"},{"id":"medical-2-18609","name":"特別養護老人ホームさくら館医務室","categoryId":"medical","categoryLabel":"医疗","lat":35.749285,"lng":139.786907,"stationId":"station-003306","note":"内科"},{"id":"medical-2-18634","name":"特別養護老人ホーム三ノ輪","categoryId":"medical","categoryLabel":"医疗","lat":35.7292,"lng":139.792056,"stationId":"station-003399","note":"内科"},{"id":"medical-2-17848","name":"田中整形外科","categoryId":"medical","categoryLabel":"医疗","lat":35.741118,"lng":139.784218,"stationId":"station-003306","note":"整形外科　リハビリテーション科"},{"id":"medical-3-17826","name":"田中歯科医院","categoryId":"medical","categoryLabel":"医疗","lat":35.749742,"lng":139.799826,"stationId":"kitasenju","note":"歯科　小児歯科"},{"id":"medical-2-17843","name":"田中耳鼻咽喉科医院","categoryId":"medical","categoryLabel":"医疗","lat":35.748774,"lng":139.769436,"stationId":"station-003266","note":"内科　小児科　耳鼻咽喉科"},{"id":"medical-2-17790","name":"田端中央診療所","categoryId":"medical","categoryLabel":"医疗","lat":35.741017,"lng":139.766112,"stationId":"station-003298","note":"内科　小児科"},{"id":"medical-3-12838","name":"甲田歯科医院","categoryId":"medical","categoryLabel":"医疗","lat":35.741285,"lng":139.765772,"stationId":"station-003298","note":"歯科　小児歯科　歯科口腔外科"},{"id":"medical-2-17552","name":"町屋マークスタワークリニック","categoryId":"medical","categoryLabel":"医疗","lat":35.741911,"lng":139.780515,"stationId":"station-003302","note":"内科　消化器内科"},{"id":"medical-3-17553","name":"町屋メディウム歯科","categoryId":"medical","categoryLabel":"医疗","lat":35.743134,"lng":139.781356,"stationId":"station-003299","note":"歯科　矯正歯科　小児歯科　歯科口腔外科"},{"id":"medical-2-17554","name":"町屋一本松眼科クリニック","categoryId":"medical","categoryLabel":"医疗","lat":35.747473,"lng":139.78352,"stationId":"station-003299","note":"眼科"},{"id":"medical-2-17555","name":"町屋小児科内科医院","categoryId":"medical","categoryLabel":"医疗","lat":35.748777,"lng":139.784073,"stationId":"station-003299","note":"内科　小児科　アレルギー科"},{"id":"medical-3-19080","name":"白石歯科医院","categoryId":"medical","categoryLabel":"医疗","lat":35.739849,"lng":139.768975,"stationId":"station-003298","note":"歯科　小児歯科"},{"id":"medical-3-19085","name":"白鳥矯正歯科医院","categoryId":"medical","categoryLabel":"医疗","lat":35.733028,"lng":139.797512,"stationId":"station-003363","note":"歯科　矯正歯科　小児歯科"},{"id":"medical-3-10866","name":"益戸歯科医院","categoryId":"medical","categoryLabel":"医疗","lat":35.736154,"lng":139.797583,"stationId":"station-003363","note":"歯科"},{"id":"medical-2-11572","name":"眼科アリモト","categoryId":"medical","categoryLabel":"医疗","lat":35.727965,"lng":139.772069,"stationId":"station-003414","note":"眼科"},{"id":"medical-2-16164","name":"石川皮膚科","categoryId":"medical","categoryLabel":"医疗","lat":35.727617,"lng":139.791553,"stationId":"station-003399","note":"皮膚科"},{"id":"medical-3-16090","name":"石引歯科医院","categoryId":"medical","categoryLabel":"医疗","lat":35.739983,"lng":139.766146,"stationId":"station-003298","note":"歯科　小児歯科"},{"id":"medical-2-10668","name":"磯医院","categoryId":"medical","categoryLabel":"医疗","lat":35.733322,"lng":139.793098,"stationId":"station-003370","note":"内科　小児科　皮膚科"},{"id":"medical-3-10676","name":"磯部歯科医院","categoryId":"medical","categoryLabel":"医疗","lat":35.731772,"lng":139.793074,"stationId":"station-003370","note":"歯科"},{"id":"medical-1-14081","name":"社会医療法人社団　一成会　木村病院","categoryId":"medical","categoryLabel":"医疗","lat":35.74435,"lng":139.781303,"stationId":"station-003299","note":"内科　呼吸器内科　消化器内科　循環器内科　外科　消化器外科　整形外科　美容外科　脳神経外科　皮膚科　美容皮膚科　泌尿器科　肛門外科　リハビリ科　糖尿病内科　血管外科"},{"id":"medical-1-14122","name":"社会福祉法人　上宮会　日暮里上宮病院","categoryId":"medical","categoryLabel":"医疗","lat":35.728717,"lng":139.785033,"stationId":"station-003399","note":"内科　外科　整形外科　リウマチ科"},{"id":"medical-2-14123","name":"社会福祉法人　上智社会事業団　上智クリニック","categoryId":"medical","categoryLabel":"医疗","lat":35.747202,"lng":139.776685,"stationId":"station-003284","note":"内科　呼吸器内科　消化器内科　循環器内科　小児科　リウマチ科　外科　整形外科　皮膚科　泌尿器科　リハビリ科　放射線科"},{"id":"medical-2-14143","name":"社会福祉法人エンゼル福祉会　おたけの郷　医務室","categoryId":"medical","categoryLabel":"医疗","lat":35.749694,"lng":139.789358,"stationId":"station-003306","note":"内科"},{"id":"medical-2-14164","name":"社会福祉法人三幸福祉会　特別養護老人ホーム癒しの里南千住診療所","categoryId":"medical","categoryLabel":"医疗","lat":35.738798,"lng":139.7947,"stationId":"station-003301","note":"内科　外科"},{"id":"medical-2-14183","name":"社会福祉法人泉陽会新町光陽苑医務室","categoryId":"medical","categoryLabel":"医疗","lat":35.740519,"lng":139.767819,"stationId":"station-003298","note":"内科　精神科"},{"id":"medical-2-15411","name":"神谷皮膚科","categoryId":"medical","categoryLabel":"医疗","lat":35.745508,"lng":139.782494,"stationId":"station-003299","note":"皮膚科"},{"id":"medical-3-14281","name":"秋山歯科医院","categoryId":"medical","categoryLabel":"医疗","lat":35.725333,"lng":139.7941,"stationId":"station-003399","note":"歯科"},{"id":"medical-3-14287","name":"秋山歯科医院","categoryId":"medical","categoryLabel":"医疗","lat":35.728313,"lng":139.780985,"stationId":"station-003359","note":"歯科"},{"id":"medical-2-10758","name":"稲富医院","categoryId":"medical","categoryLabel":"医疗","lat":35.729646,"lng":139.776279,"stationId":"station-003359","note":"内科　皮膚科"},{"id":"medical-1-17308","name":"竹内病院","categoryId":"medical","categoryLabel":"医疗","lat":35.742754,"lng":139.77967,"stationId":"station-003299","note":"内科　呼吸器内科　消化器内科　循環器内科　小児科　リウマチ科　リハビリ科　アレルギー科"},{"id":"medical-3-17099","name":"第一久木留歯科医院","categoryId":"medical","categoryLabel":"医疗","lat":35.736821,"lng":139.794917,"stationId":"station-003363","note":"歯科　小児歯科"},{"id":"medical-3-16473","name":"船田歯科医院","categoryId":"medical","categoryLabel":"医疗","lat":35.745797,"lng":139.794405,"stationId":"station-003301","note":"歯科"},{"id":"medical-3-14230","name":"若林歯科医院","categoryId":"medical","categoryLabel":"医疗","lat":35.737009,"lng":139.775052,"stationId":"station-003339","note":"歯科　小児歯科"},{"id":"medical-2-20137","name":"茂澤メディカルクリニック","categoryId":"medical","categoryLabel":"医疗","lat":35.729847,"lng":139.799279,"stationId":"station-003363","note":"内科　小児科　皮膚科　リハビリテーション科　整形外科　消化器内科　循環器内科　美容皮膚科"},{"id":"medical-3-12853","name":"荒井歯科医院","categoryId":"medical","categoryLabel":"医疗","lat":35.733974,"lng":139.798557,"stationId":"station-003363","note":"歯科"},{"id":"medical-2-12859","name":"荒川ひだまり在宅クリニック","categoryId":"medical","categoryLabel":"医疗","lat":35.73758,"lng":139.776938,"stationId":"station-003339","note":"内科　老年内科"},{"id":"medical-2-12863","name":"荒川区保健所","categoryId":"medical","categoryLabel":"医疗","lat":35.737023,"lng":139.783424,"stationId":"station-003322","note":"内科　呼吸器科　消化器科　小児科　外科　婦人科　放射線科　歯科"},{"id":"medical-2-12862","name":"荒川区医師会こどもクリニック","categoryId":"medical","categoryLabel":"医疗","lat":35.737421,"lng":139.772792,"stationId":"station-003339","note":"内科　小児科"},{"id":"medical-2-12864","name":"荒川区立特別養護老人ホームグリーンハイム荒川医務室","categoryId":"medical","categoryLabel":"医疗","lat":35.738591,"lng":139.79127,"stationId":"station-003357","note":"内科　皮膚科　整形外科"},{"id":"medical-2-12866","name":"荒川区立特別養護老人ホーム花の木ハイム荒川医務室","categoryId":"medical","categoryLabel":"医疗","lat":35.739777,"lng":139.776168,"stationId":"station-003339","note":"内科"},{"id":"medical-2-12870","name":"荒川生協診療所","categoryId":"medical","categoryLabel":"医疗","lat":35.739767,"lng":139.781356,"stationId":"station-003302","note":"内科　腎臓内科　整形外科"},{"id":"medical-2-12861","name":"荒川眼科診療所","categoryId":"medical","categoryLabel":"医疗","lat":35.742982,"lng":139.779108,"stationId":"station-003299","note":"眼科"},{"id":"medical-3-11085","name":"荻原歯科医院","categoryId":"medical","categoryLabel":"医疗","lat":35.732462,"lng":139.78861,"stationId":"station-003357","note":"歯科　矯正歯科　小児歯科"},{"id":"medical-2-11688","name":"菊池眼科医院","categoryId":"medical","categoryLabel":"医疗","lat":35.731601,"lng":139.780747,"stationId":"station-003359","note":"眼科"},{"id":"medical-3-11698","name":"菊田歯科","categoryId":"medical","categoryLabel":"医疗","lat":35.728418,"lng":139.774589,"stationId":"station-003414","note":"歯科　矯正歯科　小児歯科"},{"id":"medical-3-15830","name":"西原歯科クリニック","categoryId":"medical","categoryLabel":"医疗","lat":35.735872,"lng":139.769793,"stationId":"station-003339","note":"歯科　小児歯科"},{"id":"medical-2-15937","name":"西日暮里クリニック","categoryId":"medical","categoryLabel":"医疗","lat":35.732354,"lng":139.767469,"stationId":"station-003368","note":"内科　泌尿器科　腎臓内科　放射線科"},{"id":"medical-2-15938","name":"西日暮里医院","categoryId":"medical","categoryLabel":"医疗","lat":35.733319,"lng":139.76778,"stationId":"station-003368","note":"形成外科　泌尿器科　性病科"},{"id":"medical-3-15940","name":"西日暮里歯科","categoryId":"medical","categoryLabel":"医疗","lat":35.73516,"lng":139.777318,"stationId":"station-003359","note":"歯科　矯正歯科　小児歯科　歯科口腔外科"},{"id":"medical-2-15939","name":"西日暮里駅前こさか眼科","categoryId":"medical","categoryLabel":"医疗","lat":35.732569,"lng":139.767942,"stationId":"station-003368","note":"眼科"},{"id":"medical-2-11337","name":"角田クリニック","categoryId":"medical","categoryLabel":"医疗","lat":35.734044,"lng":139.79578,"stationId":"station-003363","note":"アレルギー科　皮膚科　代謝内科　美容内科　美容皮膚科"},{"id":"medical-2-16249","name":"赤池医院","categoryId":"medical","categoryLabel":"医疗","lat":35.73633,"lng":139.782002,"stationId":"station-003322","note":"内科　小児科"},{"id":"medical-2-20314","name":"野中クリニック","categoryId":"medical","categoryLabel":"医疗","lat":35.731075,"lng":139.777579,"stationId":"station-003359","note":"アレルギー科　耳鼻咽喉科　気管食道科"},{"id":"medical-2-12109","name":"金子医院","categoryId":"medical","categoryLabel":"医疗","lat":35.734665,"lng":139.793782,"stationId":"station-003370","note":"内科　小児科"},{"id":"medical-2-12124","name":"金子整形外科内科","categoryId":"medical","categoryLabel":"医疗","lat":35.744655,"lng":139.797651,"stationId":"station-003301","note":"整形外科　内科"},{"id":"medical-3-11509","name":"関歯科医院","categoryId":"medical","categoryLabel":"医疗","lat":35.736348,"lng":139.767553,"stationId":"station-003368","note":"歯科"},{"id":"medical-2-11515","name":"関耳鼻咽喉科","categoryId":"medical","categoryLabel":"医疗","lat":35.727498,"lng":139.775489,"stationId":"station-003414","note":"耳鼻咽喉科"},{"id":"medical-2-17642","name":"陳内科クリニック","categoryId":"medical","categoryLabel":"医疗","lat":35.743134,"lng":139.781356,"stationId":"station-003299","note":"内科"},{"id":"medical-3-10801","name":"雨宮歯科医院","categoryId":"medical","categoryLabel":"医疗","lat":35.74971,"lng":139.769079,"stationId":"station-003266","note":"歯科"},{"id":"medical-3-16028","name":"青木歯科クリニック","categoryId":"medical","categoryLabel":"医疗","lat":35.749329,"lng":139.781491,"stationId":"station-003299","note":"歯科　矯正歯科　小児歯科"},{"id":"medical-2-19247","name":"飯土用内科","categoryId":"medical","categoryLabel":"医疗","lat":35.734377,"lng":139.782026,"stationId":"station-003350","note":"呼吸器内科　消化器内科　循環器内科"},{"id":"medical-2-12892","name":"高井医院","categoryId":"medical","categoryLabel":"医疗","lat":35.72592,"lng":139.779683,"stationId":"station-003460","note":"内科　小児科　リウマチ科"},{"id":"medical-2-20821","name":"鶯谷健診センター","categoryId":"medical","categoryLabel":"医疗","lat":35.72544,"lng":139.775679,"stationId":"station-003460","note":"内科　呼吸器内科　循環器内科　消化器内科"},{"id":"medical-2-12","name":"（医）　椿診療所","categoryId":"medical","categoryLabel":"医疗","lat":35.725138,"lng":139.797994,"stationId":"station-003399","note":"内科　消化器内科　皮膚科　外科"},{"id":"medical-3-37","name":"（医）厚修会　嶋田歯科医院","categoryId":"medical","categoryLabel":"医疗","lat":35.72874,"lng":139.791039,"stationId":"station-003399","note":"歯科　矯正歯科　小児歯科　歯科口腔外科"},{"id":"medical-2-58","name":"（医）同善会　同善会クリニック","categoryId":"medical","categoryLabel":"医疗","lat":35.730005,"lng":139.79308,"stationId":"station-003399","note":"内科　整形外科　リハビリテーション　アレルギー科　リウマチ科　血液内科　漢方内科　消化器内科　循環器内科"},{"id":"medical-3-23","name":"（医）華清会清水歯科クリニック三ノ輪","categoryId":"medical","categoryLabel":"医疗","lat":35.729055,"lng":139.791285,"stationId":"station-003399","note":"歯科　小児歯科　歯科口腔外科"},{"id":"medical-3-64","name":"（医）飛成会　三ノ輪駅前歯科クリニック","categoryId":"medical","categoryLabel":"医疗","lat":35.730365,"lng":139.792107,"stationId":"station-003399","note":"歯科　小児歯科"},{"id":"medical-3-172","name":"Ｅデンタルオフィス","categoryId":"medical","categoryLabel":"医疗","lat":35.733406,"lng":139.786717,"stationId":"station-003357","note":"歯科　矯正歯科　小児歯科　歯科口腔外科"},{"id":"public-13118-22004","name":"ひぐらしふれあい館","categoryId":"public_service","categoryLabel":"公共服务","lat":35.733024,"lng":139.776223,"stationId":"station-003359","note":"荒川区東日暮里6-28-15"},{"id":"public-13118-22014","name":"ムーブ町屋","categoryId":"public_service","categoryLabel":"公共服务","lat":35.742329,"lng":139.780656,"stationId":"station-003302","note":"荒川区荒川7-50-9"},{"id":"public-13118-22010","name":"三河島ひろば館","categoryId":"public_service","categoryLabel":"公共服务","lat":35.73526,"lng":139.780862,"stationId":"station-003359","note":"荒川区荒川3-36-4"},{"id":"public-13118-22008","name":"区役所分庁舎","categoryId":"public_service","categoryLabel":"公共服务","lat":35.73789,"lng":139.784156,"stationId":"station-003322","note":"荒川区荒川2-25-3"},{"id":"public-13121-22274","name":"千住河原町住区センター","categoryId":"public_service","categoryLabel":"公共服务","lat":35.744512,"lng":139.795772,"stationId":"station-003301","note":"足立区千住河原町5-12"},{"id":"public-13121-22288","name":"千住河原町住区センター悠々館","categoryId":"public_service","categoryLabel":"公共服务","lat":35.744616,"lng":139.796147,"stationId":"station-003301","note":"足立区千住河原町6-4"},{"id":"public-13118-22035","name":"南千住ふれあい館","categoryId":"public_service","categoryLabel":"公共服务","lat":35.738185,"lng":139.791045,"stationId":"station-003357","note":"荒川区南千住6-36-13"},{"id":"public-13118-22039","name":"南千住区民事務所西部ひろば館","categoryId":"public_service","categoryLabel":"公共服务","lat":35.733267,"lng":139.790134,"stationId":"station-003357","note":"荒川区南千住1-19-13"},{"id":"public-13118-22043","name":"南千住駅前ふれあい館","categoryId":"public_service","categoryLabel":"公共服务","lat":35.732737,"lng":139.798155,"stationId":"station-003363","note":"荒川区南千住7-1-1"},{"id":"public-13118-22041","name":"夕やけこやけふれあい館","categoryId":"public_service","categoryLabel":"公共服务","lat":35.729893,"lng":139.781359,"stationId":"station-003359","note":"荒川区東日暮里3-11-19"},{"id":"public-13118-22037","name":"宮の前ひろば館","categoryId":"public_service","categoryLabel":"公共服务","lat":35.748692,"lng":139.766365,"stationId":"station-003259","note":"荒川区東尾久5-45-11"},{"id":"public-13118-22006","name":"峡田ふれあい館","categoryId":"public_service","categoryLabel":"公共服务","lat":35.733805,"lng":139.784177,"stationId":"station-003350","note":"荒川区荒川3-3-10"},{"id":"public-13117-21962","name":"新町コミュニティアリーナ","categoryId":"public_service","categoryLabel":"公共服务","lat":35.74019,"lng":139.76803,"stationId":"station-003298","note":"北区田端新町2-27-17旧新町中学校体育館"},{"id":"public-13118-22032","name":"日暮里区民事務所","categoryId":"public_service","categoryLabel":"公共服务","lat":35.728878,"lng":139.777432,"stationId":"station-003359","note":"荒川区東日暮里6-17-6"},{"id":"public-13118-22036","name":"東尾久ひろば館","categoryId":"public_service","categoryLabel":"公共服务","lat":35.744559,"lng":139.773704,"stationId":"station-003284","note":"荒川区東尾久3-5-3"},{"id":"public-13118-22034","name":"東尾久小沼ひろば館","categoryId":"public_service","categoryLabel":"公共服务","lat":35.739459,"lng":139.771271,"stationId":"station-003339","note":"荒川区東尾久1-21-23"},{"id":"public-13118-22033","name":"東尾久本町通りふれあい館","categoryId":"public_service","categoryLabel":"公共服务","lat":35.744624,"lng":139.771552,"stationId":"station-003284","note":"荒川区東尾久2-37-14"},{"id":"public-13118-22029","name":"東日暮里ふれあい館","categoryId":"public_service","categoryLabel":"公共服务","lat":35.729781,"lng":139.789928,"stationId":"station-003399","note":"荒川区東日暮里1-17-13"},{"id":"public-13118-22031","name":"東日暮里在宅高齢者通所サービスセンター","categoryId":"public_service","categoryLabel":"公共服务","lat":35.729567,"lng":139.782421,"stationId":"station-003359","note":"荒川区東日暮里3-8-16"},{"id":"public-13106-21080","name":"根岸社会教育館","categoryId":"public_service","categoryLabel":"公共服务","lat":35.729163,"lng":139.790537,"stationId":"station-003399","note":"台東区根岸5-18-13"},{"id":"public-13118-22011","name":"生涯学習センター","categoryId":"public_service","categoryLabel":"公共服务","lat":35.734924,"lng":139.779987,"stationId":"station-003359","note":"荒川区荒川3-49-1"},{"id":"public-13118-22038","name":"男女平等推進センターアクト２１","categoryId":"public_service","categoryLabel":"公共服务","lat":35.748244,"lng":139.768876,"stationId":"station-003266","note":"荒川区東尾久5-9-3"},{"id":"public-13118-22030","name":"町屋ふれあい館","categoryId":"public_service","categoryLabel":"公共服务","lat":35.744098,"lng":139.785806,"stationId":"station-003306","note":"荒川区町屋1-35-8"},{"id":"public-13118-22025","name":"町屋二丁目ひろば館","categoryId":"public_service","categoryLabel":"公共服务","lat":35.743907,"lng":139.780206,"stationId":"station-003299","note":"荒川区町屋2-8-13"},{"id":"public-13118-22026","name":"町屋区民事務所","categoryId":"public_service","categoryLabel":"公共服务","lat":35.743951,"lng":139.779868,"stationId":"station-003299","note":"荒川区町屋2-8-9"},{"id":"public-13118-22027","name":"町屋区民事務所ひろば館","categoryId":"public_service","categoryLabel":"公共服务","lat":35.743951,"lng":139.779848,"stationId":"station-003299","note":"荒川区町屋2-8-9"},{"id":"public-13118-22013","name":"町屋文化センター","categoryId":"public_service","categoryLabel":"公共服务","lat":35.741904,"lng":139.782114,"stationId":"station-003302","note":"荒川区荒川7-20-1"},{"id":"public-13118-22016","name":"荒川さつき会館","categoryId":"public_service","categoryLabel":"公共服务","lat":35.739433,"lng":139.787136,"stationId":"station-003322","note":"荒川区荒川8-16-13"},{"id":"public-13118-22012","name":"荒川六丁目ひろば館","categoryId":"public_service","categoryLabel":"公共服务","lat":35.74169,"lng":139.777012,"stationId":"station-003291","note":"荒川区荒川6-33-4"},{"id":"public-13118-22009","name":"荒川区保健所","categoryId":"public_service","categoryLabel":"公共服务","lat":35.737061,"lng":139.783393,"stationId":"station-003322","note":"荒川区荒川2-11-1"},{"id":"public-13118-22007","name":"荒川区役所","categoryId":"public_service","categoryLabel":"公共服务","lat":35.736083,"lng":139.783376,"stationId":"station-003350","note":"荒川区荒川2-2-3"},{"id":"public-13118-22003","name":"荒川区民会館サンパール荒川","categoryId":"public_service","categoryLabel":"公共服务","lat":35.735216,"lng":139.78517,"stationId":"station-003350","note":"荒川区荒川1-1-1"},{"id":"public-13118-22015","name":"荒川山吹ふれあい館","categoryId":"public_service","categoryLabel":"公共服务","lat":35.742554,"lng":139.783967,"stationId":"station-003306","note":"荒川区荒川7-6-8"},{"id":"public-13118-22005","name":"荒川老人福祉センター","categoryId":"public_service","categoryLabel":"公共服务","lat":35.734217,"lng":139.786956,"stationId":"station-003350","note":"荒川区荒川1-34-6"},{"id":"public-13118-22018","name":"西日暮里ふれあい館","categoryId":"public_service","categoryLabel":"公共服务","lat":35.736274,"lng":139.770796,"stationId":"station-003339","note":"荒川区西日暮里6-24-4"},{"id":"public-13106-21101","name":"西部区民事務所谷中分室","categoryId":"public_service","categoryLabel":"公共服务","lat":35.725445,"lng":139.766576,"stationId":"station-003434","note":"台東区谷中5-6-5"},{"id":"public-13118-22017","name":"諏訪台ひろば館","categoryId":"public_service","categoryLabel":"公共服务","lat":35.729652,"lng":139.767597,"stationId":"station-003368","note":"荒川区西日暮里3-3-12"},{"id":"public-13106-21103","name":"谷中防災コミュニティセンター","categoryId":"public_service","categoryLabel":"公共服务","lat":35.72568,"lng":139.766758,"stationId":"station-003434","note":"台東区谷中5-6-5"},{"id":"public-13118-22042","name":"荒川総合スポーツセンター","categoryId":"sports","categoryLabel":"体育设施","lat":35.735753,"lng":139.791236,"stationId":"station-003357","note":"荒川区南千住6-45-5"}]
