[{"id":"medical-2-504","name":"あおぞら赤ちゃん子どもクリニック亀有足立小児科","categoryId":"medical","categoryLabel":"医疗","lat":35.768787,"lng":139.843188,"stationId":"station-003199","note":"小児科　アレルギー科"},{"id":"medical-2-583","name":"あさかげ眼科","categoryId":"medical","categoryLabel":"医疗","lat":35.771912,"lng":139.842738,"stationId":"station-003199","note":"眼科"},{"id":"medical-2-613","name":"あさみファミリークリニック","categoryId":"medical","categoryLabel":"医疗","lat":35.75869,"lng":139.863643,"stationId":"station-003248","note":"内科　消化器内科　小児科"},{"id":"medical-2-622","name":"あじろ小児科","categoryId":"medical","categoryLabel":"医疗","lat":35.762479,"lng":139.857843,"stationId":"station-003199","note":"小"},{"id":"medical-2-922","name":"いとう皮膚科","categoryId":"medical","categoryLabel":"医疗","lat":35.767301,"lng":139.846816,"stationId":"station-003199","note":"皮"},{"id":"medical-2-1057","name":"うみがめクリニック","categoryId":"medical","categoryLabel":"医疗","lat":35.772011,"lng":139.868008,"stationId":"station-003191","note":"内"},{"id":"medical-2-1379","name":"おんだ耳鼻咽喉科クリニック","categoryId":"medical","categoryLabel":"医疗","lat":35.752574,"lng":139.848836,"stationId":"station-003274","note":"耳鼻いんこう科　小児耳鼻咽喉科"},{"id":"medical-2-1452","name":"かつしかキュアクリニック","categoryId":"medical","categoryLabel":"医疗","lat":35.752574,"lng":139.848836,"stationId":"station-003274","note":"内科　神経内科　外科　精神科"},{"id":"medical-3-1482","name":"かなまち矯正歯科クリニック","categoryId":"medical","categoryLabel":"医疗","lat":35.768011,"lng":139.864851,"stationId":"station-003195","note":"歯科　矯正歯科　小児歯科　歯科口腔外科"},{"id":"medical-3-1497","name":"かねこ歯科医院","categoryId":"medical","categoryLabel":"医疗","lat":35.763039,"lng":139.866774,"stationId":"station-003195","note":"歯　小歯　矯歯　口外"},{"id":"medical-2-1528","name":"かめありこどもクリニック","categoryId":"medical","categoryLabel":"医疗","lat":35.76309,"lng":139.84902,"stationId":"station-003199","note":"小　アレ"},{"id":"medical-2-1864","name":"こころのひかりメンタルクリニック","categoryId":"medical","categoryLabel":"医疗","lat":35.750422,"lng":139.867712,"stationId":"station-003248","note":"心療内科　精神科"},{"id":"medical-3-1881","name":"こじま歯科医院","categoryId":"medical","categoryLabel":"医疗","lat":35.76693,"lng":139.869765,"stationId":"station-003195","note":"歯科　歯科口腔外科"},{"id":"medical-3-1987","name":"こんの歯科医院","categoryId":"medical","categoryLabel":"医疗","lat":35.752857,"lng":139.84004,"stationId":"station-003274","note":"歯"},{"id":"medical-3-2248","name":"しのづか歯科医院","categoryId":"medical","categoryLabel":"医疗","lat":35.758367,"lng":139.862664,"stationId":"station-003248","note":"歯　小歯　口外"},{"id":"medical-3-2315","name":"じゅん矯正歯科クリニック","categoryId":"medical","categoryLabel":"医疗","lat":35.771354,"lng":139.868239,"stationId":"station-003191","note":"矯歯"},{"id":"medical-2-2516","name":"せりざわ医院","categoryId":"medical","categoryLabel":"医疗","lat":35.751606,"lng":139.840142,"stationId":"station-003274","note":"内　小"},{"id":"medical-2-2754","name":"だんのうえ眼科　亀有院","categoryId":"medical","categoryLabel":"医疗","lat":35.766478,"lng":139.848697,"stationId":"station-003199","note":"眼科　小児眼科"},{"id":"medical-3-3114","name":"なかばやし歯科","categoryId":"medical","categoryLabel":"医疗","lat":35.750204,"lng":139.849193,"stationId":"station-003280","note":"歯科　歯科口腔外科　小児歯科"},{"id":"medical-3-3574","name":"ひるま歯科医院","categoryId":"medical","categoryLabel":"医疗","lat":35.767145,"lng":139.848395,"stationId":"station-003199","note":"歯　小歯"},{"id":"medical-3-3663","name":"ふじい歯科","categoryId":"medical","categoryLabel":"医疗","lat":35.771745,"lng":139.869013,"stationId":"station-003191","note":"歯　小歯"},{"id":"medical-2-3979","name":"まるやま耳鼻咽喉科クリニック","categoryId":"medical","categoryLabel":"医疗","lat":35.750476,"lng":139.854716,"stationId":"station-003280","note":"耳鼻咽喉科　整形外科"},{"id":"medical-3-4121","name":"みらい歯科","categoryId":"medical","categoryLabel":"医疗","lat":35.767025,"lng":139.847351,"stationId":"station-003199","note":"歯科　小児歯科　歯科口腔外科"},{"id":"medical-2-4226","name":"もといクリニック眼科・内科","categoryId":"medical","categoryLabel":"医疗","lat":35.759472,"lng":139.847807,"stationId":"station-003199","note":"眼　内"},{"id":"medical-2-4360","name":"ゆい内科クリニック","categoryId":"medical","categoryLabel":"医疗","lat":35.768412,"lng":139.847209,"stationId":"station-003199","note":"内　呼　循　アレ"},{"id":"medical-3-4368","name":"ゆうデンタルケア","categoryId":"medical","categoryLabel":"医疗","lat":35.7642,"lng":139.848337,"stationId":"station-003199","note":"歯科　小児歯科　矯正歯科　歯科口腔外科"},{"id":"medical-2-4410","name":"ゆりあファミリークリニック","categoryId":"medical","categoryLabel":"医疗","lat":35.765614,"lng":139.849999,"stationId":"station-003199","note":"乳腺外科　内科　皮膚科"},{"id":"medical-3-4638","name":"わたなべ歯科クリニック","categoryId":"medical","categoryLabel":"医疗","lat":35.764277,"lng":139.835982,"stationId":"station-003214","note":"歯科　歯科口腔外科"},{"id":"medical-3-754","name":"アリスビル歯科","categoryId":"medical","categoryLabel":"医疗","lat":35.751853,"lng":139.868129,"stationId":"station-003248","note":"歯"},{"id":"medical-3-933","name":"イナモチ歯科医院","categoryId":"medical","categoryLabel":"医疗","lat":35.772011,"lng":139.868008,"stationId":"station-003191","note":"歯　小歯　矯歯"},{"id":"medical-2-798","name":"イーストピア東和医務室","categoryId":"medical","categoryLabel":"医疗","lat":35.772553,"lng":139.843966,"stationId":"station-003199","note":"内科"},{"id":"medical-3-1062","name":"ウメダ歯科","categoryId":"medical","categoryLabel":"医疗","lat":35.770376,"lng":139.868042,"stationId":"station-003191","note":"歯　小歯　矯歯"},{"id":"medical-3-1558","name":"カワダ歯科","categoryId":"medical","categoryLabel":"医疗","lat":35.761681,"lng":139.842004,"stationId":"station-003199","note":"歯　小歯　口外"},{"id":"medical-2-1716","name":"クリニックあおと","categoryId":"medical","categoryLabel":"医疗","lat":35.75214,"lng":139.852551,"stationId":"station-003280","note":"内　皮　呼　アレ　神内"},{"id":"medical-3-1836","name":"コージ歯科","categoryId":"medical","categoryLabel":"医疗","lat":35.750389,"lng":139.839766,"stationId":"station-003274","note":"歯　小歯"},{"id":"medical-3-2285","name":"シミズ歯科クリニック","categoryId":"medical","categoryLabel":"医疗","lat":35.770932,"lng":139.867041,"stationId":"station-003191","note":"歯　小歯"},{"id":"medical-2-2845","name":"ツルヤ外科内科クリニック","categoryId":"medical","categoryLabel":"医疗","lat":35.764399,"lng":139.847922,"stationId":"station-003199","note":"内　循　呼　外"},{"id":"medical-2-3448","name":"ハルこころクリニック　京成高砂院","categoryId":"medical","categoryLabel":"医疗","lat":35.750513,"lng":139.867119,"stationId":"station-003248","note":"心療内科　精神科"},{"id":"medical-3-3763","name":"フローラ歯科医院","categoryId":"medical","categoryLabel":"医疗","lat":35.767187,"lng":139.85105,"stationId":"station-003199","note":"歯科　小児歯科"},{"id":"medical-3-3895","name":"マサシ歯科医院","categoryId":"medical","categoryLabel":"医疗","lat":35.76568,"lng":139.862219,"stationId":"station-003195","note":"歯　小歯　矯歯"},{"id":"medical-3-3964","name":"マリデンタルオフィス","categoryId":"medical","categoryLabel":"医疗","lat":35.763187,"lng":139.844185,"stationId":"station-003199","note":"歯科　小児歯科　矯正歯科"},{"id":"medical-2-4570","name":"リリオみみ・はな・のどクリニック","categoryId":"medical","categoryLabel":"医疗","lat":35.766478,"lng":139.848697,"stationId":"station-003199","note":"耳鼻咽喉科　小児耳鼻咽喉科"},{"id":"medical-3-4571","name":"リリオ歯科クリニック","categoryId":"medical","categoryLabel":"医疗","lat":35.766478,"lng":139.848697,"stationId":"station-003199","note":"歯科　小児歯科　矯正歯科　歯科口腔外科"},{"id":"medical-2-4572","name":"ル・ソラリオン葛飾診療所","categoryId":"medical","categoryLabel":"医疗","lat":35.750995,"lng":139.850099,"stationId":"station-003280","note":"内　精"},{"id":"medical-3-17467","name":"中島歯科医院","categoryId":"medical","categoryLabel":"医疗","lat":35.753125,"lng":139.869744,"stationId":"station-003248","note":"歯"},{"id":"medical-2-17525","name":"中路医院","categoryId":"medical","categoryLabel":"医疗","lat":35.752717,"lng":139.854422,"stationId":"station-003280","note":"内　小"},{"id":"medical-3-11551","name":"丸山歯科医院","categoryId":"medical","categoryLabel":"医疗","lat":35.768752,"lng":139.86978,"stationId":"station-003195","note":"歯　小歯　矯歯"},{"id":"medical-3-11673","name":"亀有ゆうろーどデンタルクリニック","categoryId":"medical","categoryLabel":"医疗","lat":35.765321,"lng":139.848378,"stationId":"station-003199","note":"歯科　小児歯科　矯正歯科　歯科口腔外科"},{"id":"medical-2-11672","name":"亀有クリニック","categoryId":"medical","categoryLabel":"医疗","lat":35.763411,"lng":139.848937,"stationId":"station-003199","note":"内科　消化器内科　肝臓　内視鏡　外科　乳腺外科　皮膚科"},{"id":"medical-3-11674","name":"亀有北口歯科","categoryId":"medical","categoryLabel":"医疗","lat":35.76776,"lng":139.845592,"stationId":"station-003199","note":"歯"},{"id":"medical-3-12590","name":"五味歯科医院","categoryId":"medical","categoryLabel":"医疗","lat":35.760032,"lng":139.869951,"stationId":"station-003232","note":"歯　小歯　矯歯"},{"id":"medical-2-10619","name":"井口腎泌尿器科","categoryId":"medical","categoryLabel":"医疗","lat":35.765598,"lng":139.847302,"stationId":"station-003199","note":"泌　内　糖尿病内科"},{"id":"medical-2-13268","name":"佐藤整形外科医院","categoryId":"medical","categoryLabel":"医疗","lat":35.771257,"lng":139.8693,"stationId":"station-003191","note":"整　内　リハ　リウ"},{"id":"medical-3-13261","name":"佐藤歯科医院","categoryId":"medical","categoryLabel":"医疗","lat":35.76567,"lng":139.84761,"stationId":"station-003199","note":"歯科　小児歯科　歯科口腔外科　矯正歯科"},{"id":"medical-3-19152","name":"八木歯科医院","categoryId":"medical","categoryLabel":"医疗","lat":35.764597,"lng":139.864709,"stationId":"station-003195","note":"歯　矯歯"},{"id":"medical-1-12664","name":"公益財団法人　東京都保健医療公社　東部地域病院","categoryId":"medical","categoryLabel":"医疗","lat":35.766101,"lng":139.844221,"stationId":"station-003199","note":"内科　循環器内科　消化器内科　小児科　外科　整形外科　脳神経外科　心臓血管外科　消化器外科　婦人科　眼科　耳鼻いんこう科　泌尿器科　放射線科　麻酔科　病理診断科　呼吸器内科　腎臓内科　糖尿病内科"},{"id":"medical-2-4867","name":"医療法人杏仁会（財団）　松岡胃腸クリニック","categoryId":"medical","categoryLabel":"医疗","lat":35.765121,"lng":139.849845,"stationId":"station-003199","note":"内　胃"},{"id":"medical-3-5125","name":"医療法人社団　さくら歯科","categoryId":"medical","categoryLabel":"医疗","lat":35.772452,"lng":139.869308,"stationId":"station-003191","note":"歯　小歯　口外"},{"id":"medical-2-5460","name":"医療法人社団　佐藤内科","categoryId":"medical","categoryLabel":"医疗","lat":35.764162,"lng":139.848145,"stationId":"station-003199","note":"内　小"},{"id":"medical-2-5289","name":"医療法人社団　吉川内科医院","categoryId":"medical","categoryLabel":"医疗","lat":35.753928,"lng":139.843534,"stationId":"station-003274","note":"内　小　皮"},{"id":"medical-1-5831","name":"医療法人社団　大坪会　東和病院","categoryId":"medical","categoryLabel":"医疗","lat":35.772651,"lng":139.843655,"stationId":"station-003199","note":"内科　呼吸器内科　循環器科　腎臓外科　小児科　外科　整形外科　脳神経外科　形成外科　美容外科　婦人科　皮膚科　泌尿器科　肛門科　リハビリ科　放射線科　麻酔科　循環器内科　人工透析内科　肝臓　胆のう　膵臓外科　血液内科　消化器内科　消化器外科　腎臓内科"},{"id":"medical-2-5347","name":"医療法人社団　慶風会　増田産婦人科","categoryId":"medical","categoryLabel":"医疗","lat":35.770847,"lng":139.867999,"stationId":"station-003191","note":"産科　婦人科"},{"id":"medical-2-5979","name":"医療法人社団　朋仁会　友田内視鏡クリニック","categoryId":"medical","categoryLabel":"医疗","lat":35.769771,"lng":139.869651,"stationId":"station-003191","note":"消化器内科　内視鏡　内科"},{"id":"medical-2-5629","name":"医療法人社団　湘南会　亀有みんなのクリニック","categoryId":"medical","categoryLabel":"医疗","lat":35.757957,"lng":139.849372,"stationId":"station-003199","note":"内科　胃腸科　循環器科　小児科　外科　整形外科　皮膚科"},{"id":"medical-1-5630","name":"医療法人社団　湘南会　亀有中央病院","categoryId":"medical","categoryLabel":"医疗","lat":35.757232,"lng":139.850156,"stationId":"station-003199","note":"内科　リハビリ科"},{"id":"medical-1-6084","name":"医療法人社団　玲瓏会　金町中央病院","categoryId":"medical","categoryLabel":"医疗","lat":35.763196,"lng":139.865804,"stationId":"station-003195","note":"内科　外科　整形外科　乳腺外科　婦人科　泌尿器科　リハビリ科　皮膚科　脳神経外科"},{"id":"medical-3-5869","name":"医療法人社団　田口歯科クリニック","categoryId":"medical","categoryLabel":"医疗","lat":35.76721,"lng":139.847598,"stationId":"station-003199","note":"歯科　小児歯科　歯科口腔外科　矯正歯科"},{"id":"medical-2-5945","name":"医療法人社団　白鳥会　白鳥診療所","categoryId":"medical","categoryLabel":"医疗","lat":35.750421,"lng":139.846175,"stationId":"station-003274","note":"内科"},{"id":"medical-2-5268","name":"医療法人社団　葛飾笑福会　亀有メンタルクリニック","categoryId":"medical","categoryLabel":"医疗","lat":35.765598,"lng":139.847302,"stationId":"station-003199","note":"心療内科　精神科"},{"id":"medical-2-5450","name":"医療法人社団　豪健会　おおむら内科・循環器クリニック","categoryId":"medical","categoryLabel":"医疗","lat":35.769946,"lng":139.868783,"stationId":"station-003191","note":"内科　循環器内科"},{"id":"medical-2-5315","name":"医療法人社団　金町整形外科","categoryId":"medical","categoryLabel":"医疗","lat":35.774855,"lng":139.86916,"stationId":"station-003191","note":"整　外　リハ"},{"id":"medical-2-5859","name":"医療法人社団　長門クリニック","categoryId":"medical","categoryLabel":"医疗","lat":35.768005,"lng":139.853933,"stationId":"station-003199","note":"産婦人科"},{"id":"medical-2-5595","name":"医療法人社団　順邦会　秋山整形外科クリニック","categoryId":"medical","categoryLabel":"医疗","lat":35.765598,"lng":139.847302,"stationId":"station-003199","note":"整形外科　リウマチ科　リハビリテーション科"},{"id":"medical-2-6685","name":"医療法人社団ひとみ会　臼井医院","categoryId":"medical","categoryLabel":"医疗","lat":35.768316,"lng":139.841632,"stationId":"station-003199","note":"内科　小児科　婦人科　麻酔科　不妊治療　生殖医療婦人科"},{"id":"medical-2-6708","name":"医療法人社団ふたば会　斎藤小児科医院","categoryId":"medical","categoryLabel":"医疗","lat":35.764939,"lng":139.865908,"stationId":"station-003195","note":"小"},{"id":"medical-2-6863","name":"医療法人社団わかば会　さくら医院","categoryId":"medical","categoryLabel":"医疗","lat":35.764918,"lng":139.846253,"stationId":"station-003199","note":"内　呼　胃　循　皮　麻　アレ　心内"},{"id":"medical-2-6632","name":"医療法人社団ナイズ　キャップスクリニック亀有","categoryId":"medical","categoryLabel":"医疗","lat":35.766478,"lng":139.848697,"stationId":"station-003199","note":"小児科　内科"},{"id":"medical-2-6990","name":"医療法人社団一典会　たしろ整形外科","categoryId":"medical","categoryLabel":"医疗","lat":35.771432,"lng":139.86759,"stationId":"station-003191","note":"整　リハ　麻"},{"id":"medical-2-7639","name":"医療法人社団互恵会　土屋クリニック","categoryId":"medical","categoryLabel":"医疗","lat":35.752917,"lng":139.868639,"stationId":"station-003248","note":"内　小　産　婦"},{"id":"medical-3-7579","name":"医療法人社団健湧会　尾澤歯科医院","categoryId":"medical","categoryLabel":"医疗","lat":35.764,"lng":139.868829,"stationId":"station-003195","note":"歯　小歯　矯歯　口外"},{"id":"medical-3-10076","name":"医療法人社団優綾会　カメアリデンタル","categoryId":"medical","categoryLabel":"医疗","lat":35.76453,"lng":139.8527,"stationId":"station-003199","note":"歯科　矯正歯科　小児歯科　歯科口腔外科"},{"id":"medical-2-7654","name":"医療法人社団光慈会　加藤内科クリニック","categoryId":"medical","categoryLabel":"医疗","lat":35.750422,"lng":139.867712,"stationId":"station-003248","note":"内　小"},{"id":"medical-2-7085","name":"医療法人社団円晶会　アール眼科","categoryId":"medical","categoryLabel":"医疗","lat":35.765598,"lng":139.847302,"stationId":"station-003199","note":"眼"},{"id":"medical-2-8348","name":"医療法人社団十有会　中山耳鼻咽喉科","categoryId":"medical","categoryLabel":"医疗","lat":35.765598,"lng":139.847302,"stationId":"station-003199","note":"耳"},{"id":"medical-3-9674","name":"医療法人社団博三会　エスポワール歯科","categoryId":"medical","categoryLabel":"医疗","lat":35.752063,"lng":139.867269,"stationId":"station-003248","note":"歯　小歯　矯歯"},{"id":"medical-2-7712","name":"医療法人社団孝敬会　朱クリニック","categoryId":"medical","categoryLabel":"医疗","lat":35.768546,"lng":139.846481,"stationId":"station-003199","note":"外　内　リハ　小　皮　脳外"},{"id":"medical-2-9179","name":"医療法人社団川水会　杉沢皮膚科クリニック","categoryId":"medical","categoryLabel":"医疗","lat":35.769771,"lng":139.869651,"stationId":"station-003191","note":"皮　泌"},{"id":"medical-2-10286","name":"医療法人社団律心会　西川皮膚科クリニック","categoryId":"medical","categoryLabel":"医疗","lat":35.750422,"lng":139.867712,"stationId":"station-003248","note":"皮　内　小"},{"id":"medical-2-7856","name":"医療法人社団恒明会　金町よしだクリニック","categoryId":"medical","categoryLabel":"医疗","lat":35.769446,"lng":139.864936,"stationId":"station-003191","note":"内科　内分泌内科　消化器内科　循環器内科"},{"id":"medical-2-7284","name":"医療法人社団恭美会　西川クリニック","categoryId":"medical","categoryLabel":"医疗","lat":35.769075,"lng":139.843649,"stationId":"station-003199","note":"内科　歯科　矯正歯科　消化器内科　呼吸器内科"},{"id":"medical-2-10161","name":"医療法人社団悠翔会　悠翔会在宅クリニック金町","categoryId":"medical","categoryLabel":"医疗","lat":35.765903,"lng":139.868727,"stationId":"station-003195","note":"内　整　精　皮膚科"},{"id":"medical-2-8187","name":"医療法人社団慈成会　三枝眼科医院","categoryId":"medical","categoryLabel":"医疗","lat":35.751544,"lng":139.852743,"stationId":"station-003280","note":"眼"},{"id":"medical-2-8842","name":"医療法人社団成仁医院","categoryId":"medical","categoryLabel":"医疗","lat":35.770404,"lng":139.847892,"stationId":"station-003199","note":"精神科　心療内科"},{"id":"medical-2-9379","name":"医療法人社団拓洋会　カンノ整形外科・内科医院","categoryId":"medical","categoryLabel":"医疗","lat":35.767745,"lng":139.845909,"stationId":"station-003199","note":"整　リハ　内　リウ"},{"id":"medical-3-9376","name":"医療法人社団拓海会　江田歯科医院","categoryId":"medical","categoryLabel":"医疗","lat":35.766325,"lng":139.849849,"stationId":"station-003199","note":"歯　小歯　矯歯　口外"},{"id":"medical-2-8634","name":"医療法人社団新友会　亀有メディカルクリニック","categoryId":"medical","categoryLabel":"医疗","lat":35.766478,"lng":139.848697,"stationId":"station-003199","note":"内科　消化器内科　婦人科　皮膚科　乳腺外科"},{"id":"medical-3-9987","name":"医療法人社団明功会　かめあり歯科クリニック","categoryId":"medical","categoryLabel":"医疗","lat":35.76929,"lng":139.84714,"stationId":"station-003199","note":"歯　小歯　矯歯　口外"},{"id":"medical-2-9986","name":"医療法人社団明憲会　えびさわ内科クリニック","categoryId":"medical","categoryLabel":"医疗","lat":35.751987,"lng":139.850115,"stationId":"station-003280","note":"内科　糖尿病内科　内分泌内科"},{"id":"medical-2-10004","name":"医療法人社団明晴会　日下内科クリニック","categoryId":"medical","categoryLabel":"医疗","lat":35.756406,"lng":139.849704,"stationId":"station-003199","note":"内　糖内　胃内　消内"},{"id":"medical-2-9529","name":"医療法人社団東京正和会　あさの金町クリニック","categoryId":"medical","categoryLabel":"医疗","lat":35.771055,"lng":139.868962,"stationId":"station-003191","note":"内　心内　精　皮　神内"},{"id":"medical-2-8501","name":"医療法人社団松緑会　永寿堂医院","categoryId":"medical","categoryLabel":"医疗","lat":35.766782,"lng":139.850247,"stationId":"station-003199","note":"内　小　放"},{"id":"medical-3-7154","name":"医療法人社団楽遊会びばなん子ども歯科","categoryId":"medical","categoryLabel":"医疗","lat":35.762784,"lng":139.851137,"stationId":"station-003199","note":"一般歯科　小児歯科　小児矯正歯科"},{"id":"medical-2-8916","name":"医療法人社団正眸会　小松眼科医院","categoryId":"medical","categoryLabel":"医疗","lat":35.763722,"lng":139.849449,"stationId":"station-003199","note":"眼"},{"id":"medical-2-9897","name":"医療法人社団法爾会　髙木皮膚科医院","categoryId":"medical","categoryLabel":"医疗","lat":35.764516,"lng":139.848902,"stationId":"station-003199","note":"皮"},{"id":"medical-2-9301","name":"医療法人社団泰松会　亀有おおの診療所","categoryId":"medical","categoryLabel":"医疗","lat":35.760467,"lng":139.847804,"stationId":"station-003199","note":"内　消　外　小外　リハ"},{"id":"medical-3-10243","name":"医療法人社団洋英会　けやき歯科醫院金町","categoryId":"medical","categoryLabel":"医疗","lat":35.7693,"lng":139.863318,"stationId":"station-003191","note":"歯科　小児歯科　歯科口腔外科　矯正歯科"},{"id":"medical-2-8962","name":"医療法人社団清朗会　上野医院","categoryId":"medical","categoryLabel":"医疗","lat":35.770574,"lng":139.868269,"stationId":"station-003191","note":"小"},{"id":"medical-2-9258","name":"医療法人社団爽風会　おその整形外科","categoryId":"medical","categoryLabel":"医疗","lat":35.750207,"lng":139.839458,"stationId":"station-003274","note":"整　心内　リハ　リウ"},{"id":"medical-2-10374","name":"医療法人社団玲和会　みながわ整形外科クリニック","categoryId":"medical","categoryLabel":"医疗","lat":35.77104,"lng":139.835976,"stationId":"station-003162","note":"整形外科　リハビリテーション科　リウマチ科"},{"id":"medical-2-9714","name":"医療法人社団白圭会　ほしの内科クリニック","categoryId":"medical","categoryLabel":"医疗","lat":35.754386,"lng":139.837965,"stationId":"station-003274","note":"内科　放射線科　泌尿器科"},{"id":"medical-3-9267","name":"医療法人社団相栄会　相原歯科医院","categoryId":"medical","categoryLabel":"医疗","lat":35.752953,"lng":139.854229,"stationId":"station-003280","note":"歯　小歯　矯歯"},{"id":"medical-3-8659","name":"医療法人社団真心会　内田歯科医院","categoryId":"medical","categoryLabel":"医疗","lat":35.760948,"lng":139.841096,"stationId":"station-003199","note":"歯　小歯"},{"id":"medical-3-10192","name":"医療法人社団祐一会　小林デンタルクリニック","categoryId":"medical","categoryLabel":"医疗","lat":35.768273,"lng":139.841964,"stationId":"station-003199","note":"歯科　小児歯科　矯正歯科　歯科口腔外科"},{"id":"medical-3-10193","name":"医療法人社団祐一会　小林歯科医院","categoryId":"medical","categoryLabel":"医疗","lat":35.768273,"lng":139.841964,"stationId":"station-003199","note":"歯科　歯科口腔外科　小児歯科　矯正歯科"},{"id":"medical-2-8523","name":"医療法人社団祥正会　高砂眼科","categoryId":"medical","categoryLabel":"医疗","lat":35.75177,"lng":139.869183,"stationId":"station-003248","note":"眼　美外　形外"},{"id":"medical-2-8524","name":"医療法人社団祥正会　高砂眼科南口クリニック","categoryId":"medical","categoryLabel":"医疗","lat":35.750281,"lng":139.868185,"stationId":"station-003248","note":"眼"},{"id":"medical-2-9872","name":"医療法人社団穂光会　いなば内科クリニック","categoryId":"medical","categoryLabel":"医疗","lat":35.76655,"lng":139.849581,"stationId":"station-003199","note":"内"},{"id":"medical-2-7196","name":"医療法人社団紀夢会　アリオ大島眼科","categoryId":"medical","categoryLabel":"医疗","lat":35.76453,"lng":139.8527,"stationId":"station-003199","note":"眼科"},{"id":"medical-2-9774","name":"医療法人社団美昭会　たけなか眼科","categoryId":"medical","categoryLabel":"医疗","lat":35.767911,"lng":139.846265,"stationId":"station-003199","note":"眼"},{"id":"medical-3-9002","name":"医療法人社団聖真会　５丁目歯科","categoryId":"medical","categoryLabel":"医疗","lat":35.768412,"lng":139.847209,"stationId":"station-003199","note":"歯科　小児歯科　歯科口腔外科"},{"id":"medical-2-10536","name":"医療法人社団萃容会聖心醫院","categoryId":"medical","categoryLabel":"医疗","lat":35.773037,"lng":139.868575,"stationId":"station-003191","note":"内　循内"},{"id":"medical-2-10537","name":"医療法人社団萬仁会　山田耳鼻咽喉科医院","categoryId":"medical","categoryLabel":"医疗","lat":35.770316,"lng":139.841381,"stationId":"station-003199","note":"耳鼻咽喉科"},{"id":"medical-2-9437","name":"医療法人社団長門クリニック","categoryId":"medical","categoryLabel":"医疗","lat":35.768005,"lng":139.853933,"stationId":"station-003199","note":"産婦人科"},{"id":"medical-3-6244","name":"医療法人社団ＭＸＰＧ　レッツデンタルガーデンクリニック","categoryId":"medical","categoryLabel":"医疗","lat":35.763153,"lng":139.850763,"stationId":"station-003199","note":"歯科"},{"id":"medical-2-4892","name":"医療法人財団　ひこばえ会　セツルメント診療所","categoryId":"medical","categoryLabel":"医疗","lat":35.774653,"lng":139.842485,"stationId":"station-003162","note":"内科　循環器科　小児科　精神科　神経内科　外科　整形外科　呼吸器内科"},{"id":"medical-1-4908","name":"医療法人財団　謙仁会　亀有病院","categoryId":"medical","categoryLabel":"医疗","lat":35.76321,"lng":139.849613,"stationId":"station-003199","note":"内科　呼吸器内科　消化器内科　循環器内科　内視鏡内科　外科　消化器外科　脳神経外科　整形外科　放射線科　泌尿器科　リハビリ科　形成外科　皮膚科"},{"id":"medical-2-4957","name":"医療法人財団ひこばえ会　セツルメント診療所","categoryId":"medical","categoryLabel":"医疗","lat":35.774653,"lng":139.842485,"stationId":"station-003162","note":"内科　循環器内科　小児科　精神科　神経内科　外科　呼吸器内科　消化器内科　胃腸内科"},{"id":"medical-3-4980","name":"医療法人財団健和会　蒲原歯科診療所","categoryId":"medical","categoryLabel":"医疗","lat":35.770366,"lng":139.836154,"stationId":"station-003162","note":"歯科　矯正歯科　小児歯科"},{"id":"medical-2-4981","name":"医療法人財団健和会　蒲原診療所","categoryId":"medical","categoryLabel":"医疗","lat":35.770377,"lng":139.836158,"stationId":"station-003162","note":"内科　呼吸器科　消化器科　循環器科　外科　整形外科　皮膚科　泌尿器科"},{"id":"medical-2-4984","name":"医療法人財団光善会　クリニックこはるび","categoryId":"medical","categoryLabel":"医疗","lat":35.756145,"lng":139.857055,"stationId":"station-003248","note":"内科　外科"},{"id":"medical-2-4994","name":"医療法人財団十全会　矢作クリニック","categoryId":"medical","categoryLabel":"医疗","lat":35.760857,"lng":139.856501,"stationId":"station-003199","note":"内　外　小　婦"},{"id":"medical-2-11996","name":"協立整形","categoryId":"medical","categoryLabel":"医疗","lat":35.751287,"lng":139.843588,"stationId":"station-003274","note":"整　内　リウ"},{"id":"medical-3-11631","name":"喜光歯科医院","categoryId":"medical","categoryLabel":"医疗","lat":35.761951,"lng":139.84778,"stationId":"station-003199","note":"歯　小歯　矯歯"},{"id":"medical-3-16615","name":"増田歯科医院","categoryId":"medical","categoryLabel":"医疗","lat":35.752519,"lng":139.853682,"stationId":"station-003280","note":"歯　小児歯科　歯科口腔外科"},{"id":"medical-3-16898","name":"大森歯科医院","categoryId":"medical","categoryLabel":"医疗","lat":35.761525,"lng":139.847531,"stationId":"station-003199","note":"歯"},{"id":"medical-2-16799","name":"大貫内科クリニック","categoryId":"medical","categoryLabel":"医疗","lat":35.763142,"lng":139.841434,"stationId":"station-003199","note":"内"},{"id":"medical-3-16702","name":"太田歯科クリニック","categoryId":"medical","categoryLabel":"医疗","lat":35.751216,"lng":139.867369,"stationId":"station-003248","note":"歯　小歯　矯歯"},{"id":"medical-3-10921","name":"奥瀬歯科医院","categoryId":"medical","categoryLabel":"医疗","lat":35.762905,"lng":139.847295,"stationId":"station-003199","note":"歯科　小児歯科"},{"id":"medical-2-11351","name":"学校法人　東京理科大学　葛飾キャンパス","categoryId":"medical","categoryLabel":"医疗","lat":35.771551,"lng":139.86441,"stationId":"station-003191","note":"内科"},{"id":"medical-3-10774","name":"宇津宮歯科クリニック","categoryId":"medical","categoryLabel":"医疗","lat":35.763192,"lng":139.842779,"stationId":"station-003199","note":"歯　小歯　矯歯"},{"id":"medical-3-14518","name":"小松歯科医院","categoryId":"medical","categoryLabel":"医疗","lat":35.752454,"lng":139.840828,"stationId":"station-003274","note":"歯科"},{"id":"medical-3-14700","name":"小林歯科医院","categoryId":"medical","categoryLabel":"医疗","lat":35.770103,"lng":139.851716,"stationId":"station-003199","note":"歯科　矯正歯科　小児歯科"},{"id":"medical-2-14459","name":"小笠原眼科","categoryId":"medical","categoryLabel":"医疗","lat":35.769141,"lng":139.835903,"stationId":"station-003162","note":"眼科"},{"id":"medical-3-13680","name":"山中歯科医院","categoryId":"medical","categoryLabel":"医疗","lat":35.762001,"lng":139.859335,"stationId":"station-003199","note":"歯"},{"id":"medical-3-18024","name":"島田歯科医院","categoryId":"medical","categoryLabel":"医疗","lat":35.76309,"lng":139.84902,"stationId":"station-003199","note":"歯　小歯"},{"id":"medical-2-12724","name":"巷岡クリニック","categoryId":"medical","categoryLabel":"医疗","lat":35.763242,"lng":139.847831,"stationId":"station-003199","note":"内　循"},{"id":"medical-3-13841","name":"市野歯科","categoryId":"medical","categoryLabel":"医疗","lat":35.769946,"lng":139.868783,"stationId":"station-003191","note":"歯科"},{"id":"medical-2-15214","name":"新宿消費生活協同組合診療所","categoryId":"medical","categoryLabel":"医疗","lat":35.76256,"lng":139.858048,"stationId":"station-003199","note":"内科　循環器内科"},{"id":"medical-2-15139","name":"新高砂クリニック","categoryId":"medical","categoryLabel":"医疗","lat":35.752686,"lng":139.867944,"stationId":"station-003248","note":"内　胃　消　小　皮　泌　心内　アレ"},{"id":"medical-3-16563","name":"早川歯科クリニック","categoryId":"medical","categoryLabel":"医疗","lat":35.759926,"lng":139.847845,"stationId":"station-003199","note":"歯"},{"id":"medical-3-15560","name":"杉浦歯科医院","categoryId":"medical","categoryLabel":"医疗","lat":35.770431,"lng":139.844442,"stationId":"station-003199","note":"歯科"},{"id":"medical-2-18035","name":"東かなまち桜園診療所","categoryId":"medical","categoryLabel":"医疗","lat":35.774894,"lng":139.86853,"stationId":"station-003191","note":"内科"},{"id":"medical-1-18188","name":"東京慈恵会医科大学葛飾医療センター","categoryId":"medical","categoryLabel":"医疗","lat":35.752279,"lng":139.85823,"stationId":"station-003280","note":"内科　呼吸器内科　消化器内科　循環器内科　腎臓内科　内分泌代謝内科　小児科　精神科　脳神経内科　外科　整形外科　形成外科　脳神経外科　消化器外科　肝臓外科　乳腺外科　呼吸器外科　血管外科　産婦人科　眼科　耳鼻いんこう科　皮膚科　泌尿器科　リハビリ科"},{"id":"medical-2-18160","name":"東京葛飾医療生活協同組合　金町診療所","categoryId":"medical","categoryLabel":"医疗","lat":35.771506,"lng":139.868187,"stationId":"station-003191","note":"内　泌尿器科　循環器内科　外科"},{"id":"medical-2-18250","name":"東京都赤十字血液センター葛飾事業所","categoryId":"medical","categoryLabel":"医疗","lat":35.767132,"lng":139.844204,"stationId":"station-003199","note":"内"},{"id":"medical-2-18369","name":"東東京クリニック","categoryId":"medical","categoryLabel":"医疗","lat":35.763244,"lng":139.85137,"stationId":"station-003199","note":"内科　人工透析内科　精神科"},{"id":"medical-3-20389","name":"柳原歯科医院","categoryId":"medical","categoryLabel":"医疗","lat":35.751673,"lng":139.866034,"stationId":"station-003248","note":"歯"},{"id":"medical-2-14050","name":"柴田整形外科","categoryId":"medical","categoryLabel":"医疗","lat":35.765918,"lng":139.86825,"stationId":"station-003195","note":"整　リウ　リハ"},{"id":"medical-3-13359","name":"桜井歯科医院","categoryId":"medical","categoryLabel":"医疗","lat":35.751764,"lng":139.869692,"stationId":"station-003248","note":"歯"},{"id":"medical-3-15333","name":"森田歯科医院","categoryId":"medical","categoryLabel":"医疗","lat":35.751566,"lng":139.847074,"stationId":"station-003274","note":"歯"},{"id":"medical-2-16409","name":"泉レディースクリニック","categoryId":"medical","categoryLabel":"医疗","lat":35.767397,"lng":139.848185,"stationId":"station-003199","note":"婦　小　産"},{"id":"medical-3-20094","name":"湊歯科医院","categoryId":"medical","categoryLabel":"医疗","lat":35.769646,"lng":139.84985,"stationId":"station-003199","note":"歯科　小児歯科　歯科口腔外科"},{"id":"medical-2-15649","name":"瀬戸耳鼻咽喉科医院","categoryId":"medical","categoryLabel":"医疗","lat":35.76359,"lng":139.848306,"stationId":"station-003199","note":"耳　気"},{"id":"medical-3-19752","name":"片岡歯科医院","categoryId":"medical","categoryLabel":"医疗","lat":35.765975,"lng":139.862953,"stationId":"station-003195","note":"歯　小歯　口外"},{"id":"medical-2-18543","name":"特別養護老人ホーム　かつしか苑亀有　診療所","categoryId":"medical","categoryLabel":"医疗","lat":35.756324,"lng":139.848966,"stationId":"station-003199","note":"内科"},{"id":"medical-2-18542","name":"特別養護老人ホーム　エトワール診療所","categoryId":"medical","categoryLabel":"医疗","lat":35.770031,"lng":139.862836,"stationId":"station-003191","note":"内　外"},{"id":"medical-3-19046","name":"白橋歯科医院","categoryId":"medical","categoryLabel":"医疗","lat":35.767376,"lng":139.847145,"stationId":"station-003199","note":"歯科　歯科口腔外科　小児歯科　矯正歯科"},{"id":"medical-3-19086","name":"白鳥歯科医院","categoryId":"medical","categoryLabel":"医疗","lat":35.7536,"lng":139.843245,"stationId":"station-003274","note":"歯"},{"id":"medical-2-14148","name":"社会福祉法人すこやか福祉会　葛飾やすらぎの郷診療所","categoryId":"medical","categoryLabel":"医疗","lat":35.758991,"lng":139.862055,"stationId":"station-003248","note":"内"},{"id":"medical-2-14165","name":"社会福祉法人三幸福祉会特別養護老人ホーム　癒しの里・亀有診療所","categoryId":"medical","categoryLabel":"医疗","lat":35.762623,"lng":139.848683,"stationId":"station-003199","note":"内　外"},{"id":"medical-2-14166","name":"社会福祉法人三幸福祉会特別養護老人ホーム　癒しの里診療所","categoryId":"medical","categoryLabel":"医疗","lat":35.758431,"lng":139.853707,"stationId":"station-003199","note":"内"},{"id":"medical-3-14277","name":"秋山歯科クリニック","categoryId":"medical","categoryLabel":"医疗","lat":35.769771,"lng":139.869651,"stationId":"station-003191","note":"歯　矯正歯科　小児歯科"},{"id":"medical-2-15548","name":"翠皮フ科・アレルギー科","categoryId":"medical","categoryLabel":"医疗","lat":35.763244,"lng":139.85137,"stationId":"station-003199","note":"皮膚科　アレルギー科"},{"id":"medical-2-11386","name":"葛飾にいじゅくクリニック","categoryId":"medical","categoryLabel":"医疗","lat":35.769688,"lng":139.863911,"stationId":"station-003191","note":"内科　消化器内科　皮膚科"},{"id":"medical-1-11388","name":"葛飾リハビリテーション病院","categoryId":"medical","categoryLabel":"医疗","lat":35.759045,"lng":139.849378,"stationId":"station-003199","note":"内科　リハビリテーション科　整形外科　リウマチ科"},{"id":"medical-2-11391","name":"葛飾区保健所","categoryId":"medical","categoryLabel":"医疗","lat":35.751474,"lng":139.850564,"stationId":"station-003280","note":"内科　小児科　歯科"},{"id":"medical-2-11392","name":"葛飾区保健所　金町保健センター","categoryId":"medical","categoryLabel":"医疗","lat":35.764561,"lng":139.865133,"stationId":"station-003195","note":"内科　小児科　歯科"},{"id":"medical-3-11389","name":"葛飾区歯科医師会　たんぽぽ歯科診療所","categoryId":"medical","categoryLabel":"医疗","lat":35.760942,"lng":139.852485,"stationId":"station-003199","note":"歯"},{"id":"medical-3-11390","name":"葛飾区歯科医師会附属　ひまわり歯科診療所","categoryId":"medical","categoryLabel":"医疗","lat":35.753171,"lng":139.852731,"stationId":"station-003280","note":"歯"},{"id":"medical-3-11396","name":"葛飾白鳥はせがわ歯科","categoryId":"medical","categoryLabel":"医疗","lat":35.752574,"lng":139.848836,"stationId":"station-003274","note":"歯科　小児歯科　矯正歯科　歯科口腔外科"},{"id":"medical-2-12076","name":"近藤クリニック","categoryId":"medical","categoryLabel":"医疗","lat":35.766752,"lng":139.846662,"stationId":"station-003199","note":"内　精　神　心内"},{"id":"medical-3-10815","name":"運野歯科医院","categoryId":"medical","categoryLabel":"医疗","lat":35.756482,"lng":139.849364,"stationId":"station-003199","note":"歯"},{"id":"medical-2-20292","name":"野川クリニック","categoryId":"medical","categoryLabel":"医疗","lat":35.770376,"lng":139.868042,"stationId":"station-003191","note":"外　内　気　呼　胃"},{"id":"medical-3-20296","name":"野村歯科","categoryId":"medical","categoryLabel":"医疗","lat":35.754682,"lng":139.869039,"stationId":"station-003248","note":"歯　矯歯"},{"id":"medical-3-12111","name":"金子歯科","categoryId":"medical","categoryLabel":"医疗","lat":35.765144,"lng":139.864834,"stationId":"station-003195","note":"歯"},{"id":"medical-3-12112","name":"金子歯科クリニック","categoryId":"medical","categoryLabel":"医疗","lat":35.767115,"lng":139.848074,"stationId":"station-003199","note":"歯　小歯　矯歯"},{"id":"medical-2-12142","name":"金町休日応急診療所","categoryId":"medical","categoryLabel":"医疗","lat":35.769733,"lng":139.868885,"stationId":"station-003191","note":"内　小"},{"id":"medical-2-12138","name":"金町医院","categoryId":"medical","categoryLabel":"医疗","lat":35.768728,"lng":139.869461,"stationId":"station-003195","note":"内科　外科　胃腸科　耳鼻咽喉科"},{"id":"medical-2-12143","name":"金町耳鼻咽喉科クリニック","categoryId":"medical","categoryLabel":"医疗","lat":35.768728,"lng":139.869461,"stationId":"station-003195","note":"耳鼻咽喉科"},{"id":"medical-3-12139","name":"金町駅前ジャスミン歯科","categoryId":"medical","categoryLabel":"医疗","lat":35.770296,"lng":139.869078,"stationId":"station-003191","note":"歯科　歯科口腔外科　小児歯科　矯正歯科"},{"id":"medical-3-20257","name":"門橋歯科医院","categoryId":"medical","categoryLabel":"医疗","lat":35.750063,"lng":139.867901,"stationId":"station-003248","note":"歯"},{"id":"medical-3-15491","name":"陣野歯科医院","categoryId":"medical","categoryLabel":"医疗","lat":35.76677,"lng":139.842093,"stationId":"station-003199","note":"歯科"},{"id":"medical-2-15978","name":"青衣クリニック","categoryId":"medical","categoryLabel":"医疗","lat":35.760802,"lng":139.842431,"stationId":"station-003199","note":"内　麻　皮"},{"id":"medical-3-19215","name":"飯塚歯科医院","categoryId":"medical","categoryLabel":"医疗","lat":35.765638,"lng":139.850765,"stationId":"station-003199","note":"歯　小歯　口外"},{"id":"medical-3-19239","name":"飯田歯科クリニック","categoryId":"medical","categoryLabel":"医疗","lat":35.76451,"lng":139.84591,"stationId":"station-003199","note":"歯　小歯　矯歯　口外"},{"id":"medical-2-12993","name":"高田医院","categoryId":"medical","categoryLabel":"医疗","lat":35.771533,"lng":139.843801,"stationId":"station-003199","note":"皮膚科　内科　神経内科"},{"id":"medical-2-12958","name":"高砂慶友整形外科","categoryId":"medical","categoryLabel":"医疗","lat":35.750513,"lng":139.867119,"stationId":"station-003248","note":"整形外科　リハビリテーション科"},{"id":"medical-3-12955","name":"高砂駅前歯科","categoryId":"medical","categoryLabel":"医疗","lat":35.750205,"lng":139.867235,"stationId":"station-003248","note":"歯科　小児歯科　矯正歯科"},{"id":"medical-2-12956","name":"高砂駅前消化器内科・外科クリニック","categoryId":"medical","categoryLabel":"医疗","lat":35.750513,"lng":139.867119,"stationId":"station-003248","note":"内科　消化器内科　内視鏡内科　外科　乳腺外科　肛門外科"},{"id":"medical-3-20838","name":"髙橋歯科医院","categoryId":"medical","categoryLabel":"医疗","lat":35.770851,"lng":139.869358,"stationId":"station-003191","note":"歯　小歯"},{"id":"medical-3-20840","name":"髙橋歯科医院","categoryId":"medical","categoryLabel":"医疗","lat":35.767703,"lng":139.847551,"stationId":"station-003199","note":"歯　小歯"},{"id":"medical-3-222","name":"Ｋ　ＤＥＮＴＡＬ　ＣＬＩＮＩＣ","categoryId":"medical","categoryLabel":"医疗","lat":35.76356,"lng":139.847866,"stationId":"station-003199","note":"歯科　小児歯科　歯科口腔外科　矯正歯科"},{"id":"medical-3-285","name":"Ｍデンタルクリニック","categoryId":"medical","categoryLabel":"医疗","lat":35.750671,"lng":139.868236,"stationId":"station-003248","note":"歯科　小児歯科　矯正歯科　歯科口腔外科"},{"id":"medical-3-396","name":"ＹＯＵ歯科クリニック","categoryId":"medical","categoryLabel":"医疗","lat":35.767911,"lng":139.846265,"stationId":"station-003199","note":"歯科　歯科口腔外科　小児歯科　矯正歯科"},{"id":"public-13122-22328","name":"お花茶屋地区センター","categoryId":"public_service","categoryLabel":"公共服务","lat":35.751298,"lng":139.838481,"stationId":"station-003274","note":"葛飾区お花茶屋2-1-12"},{"id":"public-13121-22304","name":"中川区民事務所","categoryId":"public_service","categoryLabel":"公共服务","lat":35.771757,"lng":139.85001,"stationId":"station-003199","note":"足立区中川4-43-4"},{"id":"public-13122-22363","name":"中道憩い交流館","categoryId":"public_service","categoryLabel":"公共服务","lat":35.756814,"lng":139.837094,"stationId":"station-003274","note":"葛飾区西亀有1-2-7"},{"id":"public-13122-22377","name":"亀が岡集い交流館","categoryId":"public_service","categoryLabel":"公共服务","lat":35.771496,"lng":139.866526,"stationId":"station-003191","note":"葛飾区東金町2-5-20-109"},{"id":"public-13122-22341","name":"亀有北集い交流館","categoryId":"public_service","categoryLabel":"公共服务","lat":35.767202,"lng":139.844502,"stationId":"station-003199","note":"葛飾区亀有5-14-18"},{"id":"public-13122-22339","name":"亀有区民事務所","categoryId":"public_service","categoryLabel":"公共服务","lat":35.766607,"lng":139.848472,"stationId":"station-003199","note":"葛飾区亀有3-26-1"},{"id":"public-13122-22368","name":"亀有地区センター","categoryId":"public_service","categoryLabel":"公共服务","lat":35.766607,"lng":139.848452,"stationId":"station-003199","note":"葛飾区亀有3-26-1"},{"id":"public-13122-22329","name":"亀有学び交流館","categoryId":"public_service","categoryLabel":"公共服务","lat":35.756484,"lng":139.843072,"stationId":"station-003274","note":"葛飾区お花茶屋3-5-6"},{"id":"public-13122-22342","name":"亀有東集い交流館","categoryId":"public_service","categoryLabel":"公共服务","lat":35.768971,"lng":139.849541,"stationId":"station-003199","note":"葛飾区亀有5-48-13"},{"id":"public-13122-22338","name":"亀有集い交流館","categoryId":"public_service","categoryLabel":"公共服务","lat":35.760439,"lng":139.847449,"stationId":"station-003199","note":"葛飾区亀有1-24-3"},{"id":"public-13122-22378","name":"子ども総合センター","categoryId":"public_service","categoryLabel":"公共服务","lat":35.751567,"lng":139.850593,"stationId":"station-003280","note":"葛飾区青戸4-15-14"},{"id":"public-13122-22358","name":"新宿地区センター","categoryId":"public_service","categoryLabel":"公共服务","lat":35.761403,"lng":139.860146,"stationId":"station-003195","note":"葛飾区新宿4-1-10"},{"id":"public-13122-22357","name":"新宿憩い交流館","categoryId":"public_service","categoryLabel":"公共服务","lat":35.759081,"lng":139.858945,"stationId":"station-003248","note":"葛飾区新宿1-5-6"},{"id":"public-13122-22359","name":"新宿防災コミュニティセンター集い交流館","categoryId":"public_service","categoryLabel":"公共服务","lat":35.76548,"lng":139.861243,"stationId":"station-003195","note":"葛飾区新宿5-20-18"},{"id":"public-13122-22344","name":"末広憩い交流館","categoryId":"public_service","categoryLabel":"公共服务","lat":35.765966,"lng":139.866382,"stationId":"station-003195","note":"葛飾区金町5-4-1"},{"id":"public-13122-22406","name":"末広集い交流館","categoryId":"public_service","categoryLabel":"公共服务","lat":35.765966,"lng":139.866362,"stationId":"station-003195","note":"葛飾区金町5-4-1"},{"id":"public-13121-22314","name":"東和住区センター","categoryId":"public_service","categoryLabel":"公共服务","lat":35.771475,"lng":139.839517,"stationId":"station-003162","note":"足立区東和3-12-9"},{"id":"public-13121-22316","name":"東和地域学習センター","categoryId":"public_service","categoryLabel":"公共服务","lat":35.771465,"lng":139.839517,"stationId":"station-003162","note":"足立区東和3-12-9"},{"id":"public-13122-22392","name":"白鳥憩い交流館","categoryId":"public_service","categoryLabel":"公共服务","lat":35.75555,"lng":139.844099,"stationId":"station-003274","note":"葛飾区白鳥3-32-6"},{"id":"public-13122-22393","name":"白鳥集い交流館","categoryId":"public_service","categoryLabel":"公共服务","lat":35.754765,"lng":139.847705,"stationId":"station-003274","note":"葛飾区白鳥4-16-5"},{"id":"public-13122-22365","name":"砂原憩い交流館","categoryId":"public_service","categoryLabel":"公共服务","lat":35.762508,"lng":139.838272,"stationId":"station-003199","note":"葛飾区西亀有3-12-1"},{"id":"public-13122-22346","name":"葛飾区保健所","categoryId":"public_service","categoryLabel":"公共服务","lat":35.751473,"lng":139.85053,"stationId":"station-003280","note":"葛飾区青戸4-15-14"},{"id":"public-13122-22374","name":"西青戸集い交流館","categoryId":"public_service","categoryLabel":"公共服务","lat":35.754462,"lng":139.853774,"stationId":"station-003280","note":"葛飾区青戸7-15-2"},{"id":"public-13122-22375","name":"金町区民事務所","categoryId":"public_service","categoryLabel":"公共服务","lat":35.769701,"lng":139.86884,"stationId":"station-003191","note":"葛飾区東金町1-22-1"},{"id":"public-13122-22376","name":"金町地区センター","categoryId":"public_service","categoryLabel":"公共服务","lat":35.769701,"lng":139.86882,"stationId":"station-003191","note":"葛飾区東金町1-22-1"},{"id":"public-13121-22303","name":"長門住区センター","categoryId":"public_service","categoryLabel":"公共服务","lat":35.768627,"lng":139.857199,"stationId":"station-003199","note":"足立区中川2-24-2-101"},{"id":"public-13122-22373","name":"青戸中央憩い交流館","categoryId":"public_service","categoryLabel":"公共服务","lat":35.752973,"lng":139.857096,"stationId":"station-003280","note":"葛飾区青戸6-16-12"},{"id":"public-13122-22372","name":"青戸地区センター","categoryId":"public_service","categoryLabel":"公共服务","lat":35.750157,"lng":139.854321,"stationId":"station-003280","note":"葛飾区青戸5-20-6"},{"id":"public-13122-22349","name":"高砂北集い交流館","categoryId":"public_service","categoryLabel":"公共服务","lat":35.751398,"lng":139.865206,"stationId":"station-003248","note":"葛飾区高砂5-6-7"},{"id":"public-13121-22315","name":"東和地域体育館","categoryId":"sports","categoryLabel":"体育设施","lat":35.771465,"lng":139.839527,"stationId":"station-003162","note":"足立区東和3-12-9"}]
