[{"id":"public-13123-22420","name":"鹿骨区民館","categoryId":"community","categoryLabel":"社区设施","lat":35.70951,"lng":139.889893,"stationId":"station-003565","note":"江戸川区鹿骨1-54-2"},{"id":"medical-3-454","name":"あいゆ歯科医院","categoryId":"medical","categoryLabel":"医疗","lat":35.706686,"lng":139.903108,"stationId":"station-003565","note":"歯　小歯　矯歯　口外"},{"id":"medical-2-871","name":"いしホームクリニック","categoryId":"medical","categoryLabel":"医疗","lat":35.710298,"lng":139.895893,"stationId":"station-003565","note":"内　循内　糖内"},{"id":"medical-3-1378","name":"おんだ歯科医院","categoryId":"medical","categoryLabel":"医疗","lat":35.705891,"lng":139.904515,"stationId":"station-003565","note":"歯　小歯　矯歯"},{"id":"medical-2-1816","name":"こいわ内科眼科","categoryId":"medical","categoryLabel":"医疗","lat":35.721463,"lng":139.888285,"stationId":"station-003360","note":"糖内　内　眼"},{"id":"medical-3-2760","name":"たんぽぽ歯科クリニック","categoryId":"medical","categoryLabel":"医疗","lat":35.711307,"lng":139.891067,"stationId":"station-003565","note":"歯　小歯　口外"},{"id":"medical-3-2952","name":"ときわ歯科医院","categoryId":"medical","categoryLabel":"医疗","lat":35.70766,"lng":139.889092,"stationId":"station-003565","note":"歯　小歯"},{"id":"medical-3-3011","name":"とみまつ歯科医院","categoryId":"medical","categoryLabel":"医疗","lat":35.710792,"lng":139.890309,"stationId":"station-003565","note":"歯　小歯　口外　矯歯"},{"id":"medical-3-3210","name":"にしだ歯科医院","categoryId":"medical","categoryLabel":"医疗","lat":35.704718,"lng":139.904118,"stationId":"station-003565","note":"歯　小歯　矯歯"},{"id":"medical-3-3491","name":"ひかり歯科医院","categoryId":"medical","categoryLabel":"医疗","lat":35.720133,"lng":139.87272,"stationId":"station-003486","note":"歯　小歯"},{"id":"medical-2-1818","name":"コウクリニック","categoryId":"medical","categoryLabel":"医疗","lat":35.707558,"lng":139.887748,"stationId":"station-003565","note":"内　小　呼　アレ　リハ"},{"id":"medical-3-1","name":"スギタ歯科篠崎診療室","categoryId":"medical","categoryLabel":"医疗","lat":35.711641,"lng":139.901208,"stationId":"station-003565","note":"歯　小歯　矯歯　口外"},{"id":"medical-3-13433","name":"三浦歯科医院","categoryId":"medical","categoryLabel":"医疗","lat":35.705177,"lng":139.889452,"stationId":"station-003565","note":"歯"},{"id":"medical-2-10627","name":"井出眼科クリニック","categoryId":"medical","categoryLabel":"医疗","lat":35.705377,"lng":139.903723,"stationId":"station-003565","note":"眼　皮"},{"id":"medical-3-18733","name":"内田歯科医院","categoryId":"medical","categoryLabel":"医疗","lat":35.724891,"lng":139.872634,"stationId":"station-003360","note":"歯"},{"id":"medical-3-5032","name":"医療法人社団  ハピネス　すぎもと歯科","categoryId":"medical","categoryLabel":"医疗","lat":35.706456,"lng":139.903127,"stationId":"station-003565","note":"歯　小歯　矯正　口外"},{"id":"medical-2-5052","name":"医療法人社団  城東桐和会　篠崎駅前にこにこクリニック","categoryId":"medical","categoryLabel":"医疗","lat":35.706886,"lng":139.904028,"stationId":"station-003565","note":"精　心内　内　皮　小"},{"id":"medical-2-5040","name":"医療法人社団  桐和会　篠崎駅前クリニック","categoryId":"medical","categoryLabel":"医疗","lat":35.706606,"lng":139.904205,"stationId":"station-003565","note":"内　神　外　皮　整　消　胃　精　小　リハ　ｱﾚ　内視鏡内科"},{"id":"medical-2-5059","name":"医療法人社団  盛仁会　篠崎駅前高橋眼科","categoryId":"medical","categoryLabel":"医疗","lat":35.706606,"lng":139.904205,"stationId":"station-003565","note":"眼"},{"id":"medical-3-5061","name":"医療法人社団  直彰会　よしはら歯科医院","categoryId":"medical","categoryLabel":"医疗","lat":35.706052,"lng":139.903493,"stationId":"station-003565","note":"歯"},{"id":"medical-2-5072","name":"医療法人社団  靱生会　篠崎透析クリニック","categoryId":"medical","categoryLabel":"医疗","lat":35.705257,"lng":139.903899,"stationId":"station-003565","note":"人工透析内科"},{"id":"medical-2-5063","name":"医療法人社団 　二誠会　村上医院","categoryId":"medical","categoryLabel":"医疗","lat":35.709162,"lng":139.893307,"stationId":"station-003565","note":"精　心内　内　神内"},{"id":"medical-2-5476","name":"医療法人社団 三慶会　しん皮フ科クリニック","categoryId":"medical","categoryLabel":"医疗","lat":35.705507,"lng":139.903634,"stationId":"station-003565","note":"皮"},{"id":"medical-3-5489","name":"医療法人社団 三陽会　柏原歯科クリニック","categoryId":"medical","categoryLabel":"医疗","lat":35.709885,"lng":139.899608,"stationId":"station-003565","note":"歯　小歯"},{"id":"medical-2-5644","name":"医療法人社団 伸愛会　いいづか小児科","categoryId":"medical","categoryLabel":"医疗","lat":35.704704,"lng":139.904766,"stationId":"station-003565","note":"内　小"},{"id":"medical-3-5504","name":"医療法人社団 司洋会　篠崎司歯科","categoryId":"medical","categoryLabel":"医疗","lat":35.706606,"lng":139.904205,"stationId":"station-003565","note":"歯　小歯　矯歯"},{"id":"medical-3-5422","name":"医療法人社団 康翔会　清水歯科クリニック","categoryId":"medical","categoryLabel":"医疗","lat":35.709,"lng":139.902772,"stationId":"station-003565","note":"歯　小歯　矯歯　口外"},{"id":"medical-2-6048","name":"医療法人社団 悠々会　耳鼻咽喉科増田医院","categoryId":"medical","categoryLabel":"医疗","lat":35.705393,"lng":139.903714,"stationId":"station-003565","note":"耳"},{"id":"medical-3-5708","name":"医療法人社団 成慶会 　さとう歯科医院","categoryId":"medical","categoryLabel":"医疗","lat":35.706709,"lng":139.902828,"stationId":"station-003565","note":"歯　小児歯科　口腔外科　矯正歯科"},{"id":"medical-2-6061","name":"医療法人社団 養成会　篠崎医院","categoryId":"medical","categoryLabel":"医疗","lat":35.705041,"lng":139.903192,"stationId":"station-003565","note":"内　整　皮　胃　耳　リハ"},{"id":"medical-2-5070","name":"医療法人社団　　靱生会　メディカルプラザ篠崎駅西口","categoryId":"medical","categoryLabel":"医疗","lat":35.705352,"lng":139.902299,"stationId":"station-003565","note":"腎内　脂質代謝内科"},{"id":"medical-2-5139","name":"医療法人社団　だいだい　篠崎駅前わんぱくクリニック","categoryId":"medical","categoryLabel":"医疗","lat":35.706886,"lng":139.904028,"stationId":"station-003565","note":"内　アレ　小"},{"id":"medical-2-5163","name":"医療法人社団　みなづき会　春江町クリニック","categoryId":"medical","categoryLabel":"医疗","lat":35.700852,"lng":139.890647,"stationId":"station-003667","note":"内"},{"id":"medical-3-5134","name":"医療法人社団　スマイル会　ふかさわ歯科クリニック","categoryId":"medical","categoryLabel":"医疗","lat":35.705393,"lng":139.903714,"stationId":"station-003565","note":"歯　矯歯　小歯"},{"id":"medical-2-6096","name":"医療法人社団　凛咲会　さくらクリニック","categoryId":"medical","categoryLabel":"医疗","lat":35.720124,"lng":139.873749,"stationId":"station-003486","note":"内　呼内　循内　神内"},{"id":"medical-2-5786","name":"医療法人社団　千晶会　しのざき耳鼻咽喉科クリニック","categoryId":"medical","categoryLabel":"医疗","lat":35.706606,"lng":139.904205,"stationId":"station-003565","note":"耳　小　気　ｱﾚ　内"},{"id":"medical-2-5403","name":"医療法人社団　孝仁会　小暮医院","categoryId":"medical","categoryLabel":"医疗","lat":35.724665,"lng":139.874121,"stationId":"station-003360","note":"内　外　皮　泌　放　リハ　小"},{"id":"medical-3-5418","name":"医療法人社団　康歯院　きみ歯科クリニック","categoryId":"medical","categoryLabel":"医疗","lat":35.705198,"lng":139.904934,"stationId":"station-003565","note":"歯　小歯　矯歯　口外"},{"id":"medical-2-5354","name":"医療法人社団　敬勝会　神保消化器内科医院","categoryId":"medical","categoryLabel":"医疗","lat":35.706302,"lng":139.902371,"stationId":"station-003565","note":"消内"},{"id":"medical-2-5990","name":"医療法人社団　豊弘会　きうち内科クリニック","categoryId":"medical","categoryLabel":"医疗","lat":35.720165,"lng":139.872752,"stationId":"station-003486","note":"内　アレ　神内"},{"id":"medical-2-7229","name":"医療法人社団吉心会　にいほりクリニック","categoryId":"medical","categoryLabel":"医疗","lat":35.705641,"lng":139.888922,"stationId":"station-003565","note":"内　循内　皮膚科　アレ　精神"},{"id":"medical-3-16977","name":"大津歯科医院","categoryId":"medical","categoryLabel":"医疗","lat":35.715241,"lng":139.891917,"stationId":"station-003565","note":"歯"},{"id":"medical-2-15599","name":"杉本クリニック","categoryId":"medical","categoryLabel":"医疗","lat":35.705748,"lng":139.903123,"stationId":"station-003565","note":"内　小　循　呼"},{"id":"medical-2-12311","name":"栗村整形外科","categoryId":"medical","categoryLabel":"医疗","lat":35.708986,"lng":139.903001,"stationId":"station-003565","note":"整　リハ　リウ"},{"id":"medical-3-13867","name":"歯科　長野屋","categoryId":"medical","categoryLabel":"医疗","lat":35.70644,"lng":139.892168,"stationId":"station-003565","note":"歯　小歯　矯歯　口外"},{"id":"medical-1-12777","name":"江戸川メディケア病院","categoryId":"medical","categoryLabel":"医疗","lat":35.720461,"lng":139.881912,"stationId":"station-003360","note":"内科　循環器内科　呼吸器内科　神経内科　糖尿病内科　アレルギー内科　腎臓内科　腫瘍内科　外科　消化器外科　整形外科　婦人科　眼科　リハビリ科　放射線科"},{"id":"medical-2-12784","name":"江戸川区鹿骨健康サポ-トセンタ-","categoryId":"medical","categoryLabel":"医疗","lat":35.709742,"lng":139.890594,"stationId":"station-003565","note":"内　小　歯"},{"id":"medical-3-12288","name":"熊川歯科医院","categoryId":"medical","categoryLabel":"医疗","lat":35.710728,"lng":139.888932,"stationId":"station-003565","note":"歯"},{"id":"medical-2-19757","name":"片山眼科診療所","categoryId":"medical","categoryLabel":"医疗","lat":35.705565,"lng":139.904644,"stationId":"station-003565","note":"眼"},{"id":"medical-3-17837","name":"田中歯科医院","categoryId":"medical","categoryLabel":"医疗","lat":35.722815,"lng":139.888736,"stationId":"station-003360","note":"歯"},{"id":"medical-2-14111","name":"社会福祉法人　厚生会　小岩ホーム診療所","categoryId":"medical","categoryLabel":"医疗","lat":35.724857,"lng":139.879806,"stationId":"station-003360","note":"内　リハ"},{"id":"medical-2-14116","name":"社会福祉法人　江壽会　特別養護老人ホーム　アゼリー江戸川診療所","categoryId":"medical","categoryLabel":"医疗","lat":35.719685,"lng":139.873221,"stationId":"station-003486","note":"内　整　リハ"},{"id":"medical-3-11690","name":"菊池歯科","categoryId":"medical","categoryLabel":"医疗","lat":35.722459,"lng":139.890036,"stationId":"station-003360","note":"歯"},{"id":"medical-3-12107","name":"金栗歯科クリニック","categoryId":"medical","categoryLabel":"医疗","lat":35.721275,"lng":139.886554,"stationId":"station-003360","note":"歯　小歯　矯歯　口腔"},{"id":"medical-3-13030","name":"高木歯科医院","categoryId":"medical","categoryLabel":"医疗","lat":35.722629,"lng":139.881304,"stationId":"station-003360","note":"歯"},{"id":"public-13123-22445","name":"新堀会館","categoryId":"public_service","categoryLabel":"公共服务","lat":35.704067,"lng":139.889226,"stationId":"station-003565","note":"江戸川区新堀1-39-2"},{"id":"public-13123-22425","name":"篠崎コミュニティホール","categoryId":"public_service","categoryLabel":"公共服务","lat":35.706,"lng":139.9036,"stationId":"station-003565","note":"江戸川区篠崎町7-27-1"},{"id":"public-13123-22444","name":"篠崎コミュニティ会館","categoryId":"public_service","categoryLabel":"公共服务","lat":35.708075,"lng":139.901258,"stationId":"station-003565","note":"江戸川区上篠崎4-21-8"},{"id":"public-13123-22424","name":"篠崎文化プラザ","categoryId":"public_service","categoryLabel":"公共服务","lat":35.70537,"lng":139.9028,"stationId":"station-003565","note":"江戸川区篠崎町7-20-19"},{"id":"public-13123-22430","name":"鹿骨くすのきカルチャーセンター","categoryId":"public_service","categoryLabel":"公共服务","lat":35.704768,"lng":139.898853,"stationId":"station-003565","note":"江戸川区篠崎町8-12-8"},{"id":"public-13123-22421","name":"鹿骨事務所","categoryId":"public_service","categoryLabel":"公共服务","lat":35.70951,"lng":139.889873,"stationId":"station-003565","note":"江戸川区鹿骨1-54-2"},{"id":"public-13123-22438","name":"鹿骨健康サポートセンター","categoryId":"public_service","categoryLabel":"公共服务","lat":35.709755,"lng":139.890514,"stationId":"station-003565","note":"江戸川区鹿骨1-55-10"}]
