[{"id":"medical-3-469","name":"あい歯科クリニック","categoryId":"medical","categoryLabel":"医疗","lat":35.662171,"lng":139.874066,"stationId":"station-003894","note":"歯　小歯　矯歯　口外"},{"id":"medical-3-548","name":"あきやま歯科医院","categoryId":"medical","categoryLabel":"医疗","lat":35.659627,"lng":139.881703,"stationId":"station-003894","note":"歯　小歯"},{"id":"medical-2-814","name":"いがらし内科医院","categoryId":"medical","categoryLabel":"医疗","lat":35.665526,"lng":139.881136,"stationId":"station-003894","note":"内　小　皮"},{"id":"medical-2-842","name":"いさやま医院","categoryId":"medical","categoryLabel":"医疗","lat":35.660887,"lng":139.871219,"stationId":"station-003894","note":"内　消外"},{"id":"medical-3-919","name":"いとう歯科医院","categoryId":"medical","categoryLabel":"医疗","lat":35.663564,"lng":139.877253,"stationId":"station-003894","note":"歯　小歯　口外"},{"id":"medical-3-1422","name":"かさい環七歯科","categoryId":"medical","categoryLabel":"医疗","lat":35.66169,"lng":139.872435,"stationId":"station-003894","note":"歯　小歯　口外　矯歯"},{"id":"medical-2-1421","name":"かさい駅前耳鼻咽喉科","categoryId":"medical","categoryLabel":"医疗","lat":35.661473,"lng":139.871676,"stationId":"station-003894","note":"耳"},{"id":"medical-2-1507","name":"かまかみ医院","categoryId":"medical","categoryLabel":"医疗","lat":35.654089,"lng":139.87408,"stationId":"station-003894","note":"内　小　皮　放"},{"id":"medical-3-1952","name":"こまざわ歯科医院","categoryId":"medical","categoryLabel":"医疗","lat":35.661692,"lng":139.876741,"stationId":"station-003894","note":"歯　小歯"},{"id":"medical-3-2134","name":"さとう歯科クリニック","categoryId":"medical","categoryLabel":"医疗","lat":35.664235,"lng":139.87199,"stationId":"station-003894","note":"歯　小歯　口外　矯歯"},{"id":"medical-3-2499","name":"せき歯科医院","categoryId":"medical","categoryLabel":"医疗","lat":35.66377,"lng":139.874952,"stationId":"station-003894","note":"歯　小歯　矯歯　口外"},{"id":"medical-3-2704","name":"たなか歯科医院","categoryId":"medical","categoryLabel":"医疗","lat":35.668135,"lng":139.871986,"stationId":"station-003894","note":"歯"},{"id":"medical-3-3335","name":"はじめ歯科医院","categoryId":"medical","categoryLabel":"医疗","lat":35.669347,"lng":139.871575,"stationId":"station-003894","note":"歯　小歯　口外"},{"id":"medical-2-3439","name":"はら耳鼻咽喉科","categoryId":"medical","categoryLabel":"医疗","lat":35.660446,"lng":139.875063,"stationId":"station-003894","note":"耳　アレ"},{"id":"medical-2-3813","name":"ほまれクリニック","categoryId":"medical","categoryLabel":"医疗","lat":35.66264,"lng":139.871095,"stationId":"station-003894","note":"内"},{"id":"medical-3-1741","name":"クレア歯科医院","categoryId":"medical","categoryLabel":"医疗","lat":35.662768,"lng":139.873694,"stationId":"station-003894","note":"歯　小歯　矯歯　口外"},{"id":"medical-3-2926","name":"デンタル東葛西","categoryId":"medical","categoryLabel":"医疗","lat":35.662609,"lng":139.874791,"stationId":"station-003894","note":"歯　小歯　矯歯　口外"},{"id":"medical-2-4230","name":"モトヤ耳鼻咽喉科","categoryId":"medical","categoryLabel":"医疗","lat":35.672081,"lng":139.874214,"stationId":"station-003894","note":"耳"},{"id":"medical-2-10733","name":"一般社団法人　日本健康倶楽部　日本健康倶楽部　東京支部診療所","categoryId":"medical","categoryLabel":"医疗","lat":35.663705,"lng":139.877264,"stationId":"station-003894","note":"内科"},{"id":"medical-2-17156","name":"丹呉眼科","categoryId":"medical","categoryLabel":"医疗","lat":35.652945,"lng":139.881618,"stationId":"station-003894","note":"眼"},{"id":"medical-2-4833","name":"医療法人　厚生会　臨海クリニック","categoryId":"medical","categoryLabel":"医疗","lat":35.65811,"lng":139.872437,"stationId":"station-003894","note":"内　心内"},{"id":"medical-2-5051","name":"医療法人社団  松寿会 　松寿会診療所","categoryId":"medical","categoryLabel":"医疗","lat":35.662964,"lng":139.871345,"stationId":"station-003894","note":"内　精"},{"id":"medical-2-5043","name":"医療法人社団 　圭志会　あおば眼科","categoryId":"medical","categoryLabel":"医疗","lat":35.662721,"lng":139.871082,"stationId":"station-003894","note":"眼"},{"id":"medical-2-5056","name":"医療法人社団 　新友会　東葛西クリニック","categoryId":"medical","categoryLabel":"医疗","lat":35.659011,"lng":139.87499,"stationId":"station-003894","note":"内"},{"id":"medical-2-5136","name":"医療法人社団 せいこう会　かさい糖クリニック","categoryId":"medical","categoryLabel":"医疗","lat":35.662768,"lng":139.873694,"stationId":"station-003894","note":"内"},{"id":"medical-2-6054","name":"医療法人社団 由寿会　おかはら胃腸クリニック","categoryId":"medical","categoryLabel":"医疗","lat":35.662324,"lng":139.873739,"stationId":"station-003894","note":"胃　外　リハ"},{"id":"medical-2-5064","name":"医療法人社団　　二木・深谷耳鼻咽喉科医院","categoryId":"medical","categoryLabel":"医疗","lat":35.664021,"lng":139.87495,"stationId":"station-003894","note":"耳"},{"id":"medical-2-5037","name":"医療法人社団　　安藤内科医院","categoryId":"medical","categoryLabel":"医疗","lat":35.662046,"lng":139.876691,"stationId":"station-003894","note":"内　消内"},{"id":"medical-2-5069","name":"医療法人社団　　領美会　あさくら皮膚科","categoryId":"medical","categoryLabel":"医疗","lat":35.661473,"lng":139.871676,"stationId":"station-003894","note":"皮"},{"id":"medical-3-5130","name":"医療法人社団　しらみず歯科","categoryId":"medical","categoryLabel":"医疗","lat":35.666392,"lng":139.879829,"stationId":"station-003894","note":"歯　小歯　矯歯　口外"},{"id":"medical-2-5162","name":"医療法人社団　フレシェア　まつおクリニック","categoryId":"medical","categoryLabel":"医疗","lat":35.66916,"lng":139.875679,"stationId":"station-003894","note":"内　呼　アレ"},{"id":"medical-2-6071","name":"医療法人社団　了徳寺会　葛西整形外科内科","categoryId":"medical","categoryLabel":"医疗","lat":35.651828,"lng":139.871929,"stationId":"station-004012","note":"整外　内　皮　リハ"},{"id":"medical-2-5925","name":"医療法人社団　二誠会　メンタルクリニック葛西","categoryId":"medical","categoryLabel":"医疗","lat":35.662127,"lng":139.872531,"stationId":"station-003894","note":"心内　精　神　内"},{"id":"medical-2-5390","name":"医療法人社団　五常会　整形外科久保医院","categoryId":"medical","categoryLabel":"医疗","lat":35.66916,"lng":139.875679,"stationId":"station-003894","note":"整外"},{"id":"medical-2-5784","name":"医療法人社団　千秋双葉会　東京みらいクリニック葛西","categoryId":"medical","categoryLabel":"医疗","lat":35.66324,"lng":139.872,"stationId":"station-003894","note":"小　耳　内　皮　アレ"},{"id":"medical-2-5837","name":"医療法人社団　大佑会　明育小児科","categoryId":"medical","categoryLabel":"医疗","lat":35.668855,"lng":139.874698,"stationId":"station-003894","note":"小　アレ"},{"id":"medical-2-5836","name":"医療法人社団　大佑会　葛西明香皮膚科","categoryId":"medical","categoryLabel":"医疗","lat":35.66916,"lng":139.875679,"stationId":"station-003894","note":"皮"},{"id":"medical-2-5253","name":"医療法人社団　家宏会　沢医院","categoryId":"medical","categoryLabel":"医疗","lat":35.668374,"lng":139.871426,"stationId":"station-003894","note":"内　小　皮"},{"id":"medical-2-5278","name":"医療法人社団　希和会　　葛西内科クリニック","categoryId":"medical","categoryLabel":"医疗","lat":35.664237,"lng":139.873486,"stationId":"station-003894","note":"内　胃　循　呼　小　皮"},{"id":"medical-3-5179","name":"医療法人社団　愛心会　原田歯科医院","categoryId":"medical","categoryLabel":"医疗","lat":35.666479,"lng":139.872422,"stationId":"station-003894","note":"歯　口外　小歯　矯歯"},{"id":"medical-2-5343","name":"医療法人社団　慶生会　慶生会クリニック","categoryId":"medical","categoryLabel":"医疗","lat":35.662777,"lng":139.873485,"stationId":"station-003894","note":"内　歯"},{"id":"medical-1-5606","name":"医療法人社団　昌医会　葛西昌医会病院","categoryId":"medical","categoryLabel":"医疗","lat":35.660295,"lng":139.877683,"stationId":"station-003894","note":"内科　呼吸器内科　循環器内科　消化器内科　糖尿病内科　神経内科　皮膚科　リウマチ科　消化器外科　脳神経外科　整形外科　リハビリ科　麻酔科　形成外科　腎臓内科"},{"id":"medical-2-6003","name":"医療法人社団　明樹会　葛西皮膚科診療所","categoryId":"medical","categoryLabel":"医疗","lat":35.662666,"lng":139.871194,"stationId":"station-003894","note":"皮　内"},{"id":"medical-2-6007","name":"医療法人社団　明正会　明正会葛西クリニック","categoryId":"medical","categoryLabel":"医疗","lat":35.662609,"lng":139.874791,"stationId":"station-003894","note":"内科"},{"id":"medical-3-5981","name":"医療法人社団　朋優会　リバーサイド歯科クリニック","categoryId":"medical","categoryLabel":"医疗","lat":35.652945,"lng":139.881618,"stationId":"station-003894","note":"歯　小歯　矯歯"},{"id":"medical-2-5307","name":"医療法人社団　桐司会　　矢島循環器・内科","categoryId":"medical","categoryLabel":"医疗","lat":35.66085,"lng":139.870934,"stationId":"station-003894","note":"内　循内　消内　呼内　アレ"},{"id":"medical-2-5631","name":"医療法人社団　照仁会　森内科クリニック","categoryId":"medical","categoryLabel":"医疗","lat":35.661262,"lng":139.8821,"stationId":"station-003894","note":"内　小　放"},{"id":"medical-3-5849","name":"医療法人社団　竹印　竹内歯科診療所","categoryId":"medical","categoryLabel":"医疗","lat":35.66916,"lng":139.875679,"stationId":"station-003894","note":"歯　小歯　矯歯　口外"},{"id":"medical-2-5362","name":"医療法人社団　結草会　みやのこどもクリニック","categoryId":"medical","categoryLabel":"医疗","lat":35.655145,"lng":139.874803,"stationId":"station-003894","note":"小　アレ　皮"},{"id":"medical-3-5204","name":"医療法人社団　育仁会　芦澤歯科診療所","categoryId":"medical","categoryLabel":"医疗","lat":35.664769,"lng":139.871907,"stationId":"station-003894","note":"歯　小歯　口腔　矯正"},{"id":"medical-3-5229","name":"医療法人社団　英和２１　オカトミ歯科","categoryId":"medical","categoryLabel":"医疗","lat":35.654333,"lng":139.871921,"stationId":"station-003894","note":"歯　小歯　矯歯"},{"id":"medical-3-5265","name":"医療法人社団　開成会　葛西南歯科医院","categoryId":"medical","categoryLabel":"医疗","lat":35.651909,"lng":139.872904,"stationId":"station-003894","note":"歯　小歯　矯歯　口外"},{"id":"medical-3-5264","name":"医療法人社団　開成会　葛西東歯科医院","categoryId":"medical","categoryLabel":"医疗","lat":35.662192,"lng":139.873729,"stationId":"station-003894","note":"歯　小歯　矯歯　口外"},{"id":"medical-2-5589","name":"医療法人社団　順公会　佐藤整形外科","categoryId":"medical","categoryLabel":"医疗","lat":35.66183,"lng":139.872551,"stationId":"station-003894","note":"整外　リハ"},{"id":"medical-2-5593","name":"医療法人社団　順心会　細谷クリニック","categoryId":"medical","categoryLabel":"医疗","lat":35.663929,"lng":139.872544,"stationId":"station-003894","note":"皮　内　外"},{"id":"medical-3-5445","name":"医療法人社団　香川歯科医院","categoryId":"medical","categoryLabel":"医疗","lat":35.661842,"lng":139.871858,"stationId":"station-003894","note":"歯"},{"id":"medical-3-5144","name":"医療法人社団　ﾃﾞﾝﾀﾙﾌｨﾛｿﾌｨ　はなみずき歯科医院","categoryId":"medical","categoryLabel":"医疗","lat":35.656106,"lng":139.878162,"stationId":"station-003894","note":"歯　口外　小歯"},{"id":"medical-2-6504","name":"医療法人社団さの耳鼻科　さの耳鼻科","categoryId":"medical","categoryLabel":"医疗","lat":35.661844,"lng":139.873693,"stationId":"station-003894","note":"耳　気　小"},{"id":"medical-3-6655","name":"医療法人社団ハート会　葛西ハート歯科クリニック","categoryId":"medical","categoryLabel":"医疗","lat":35.66183,"lng":139.872551,"stationId":"station-003894","note":"歯　小歯　口腔　矯正"},{"id":"medical-3-7153","name":"医療法人社団楽遊会　モンキッズデンタル","categoryId":"medical","categoryLabel":"医疗","lat":35.668544,"lng":139.87011,"stationId":"station-003894","note":"小歯　矯歯"},{"id":"medical-2-8792","name":"医療法人社団瑞香会　葛西そらまめクリニック","categoryId":"medical","categoryLabel":"医疗","lat":35.666993,"lng":139.875585,"stationId":"station-003894","note":"内　透析内科"},{"id":"medical-3-6314","name":"医療法人社団Ｗｉｌｌ　葛西ジェム矯正歯科","categoryId":"medical","categoryLabel":"医疗","lat":35.662127,"lng":139.872531,"stationId":"station-003894","note":"矯正"},{"id":"medical-2-4938","name":"医療法人財団　南葛勤医協　葛西みなみ診療所","categoryId":"medical","categoryLabel":"医疗","lat":35.65215,"lng":139.874652,"stationId":"station-003894","note":"内　小　呼　皮"},{"id":"medical-2-11826","name":"吉利医院","categoryId":"medical","categoryLabel":"医疗","lat":35.650144,"lng":139.87152,"stationId":"station-004012","note":"内　消　皮泌"},{"id":"medical-3-11819","name":"吉野歯科医院","categoryId":"medical","categoryLabel":"医疗","lat":35.664875,"lng":139.880139,"stationId":"station-003894","note":"歯　小歯　矯歯　口外"},{"id":"medical-3-20741","name":"和田歯科医院","categoryId":"medical","categoryLabel":"医疗","lat":35.670182,"lng":139.875079,"stationId":"station-003894","note":"歯　小歯　口外"},{"id":"medical-3-16917","name":"大西デンタルオフィス","categoryId":"medical","categoryLabel":"医疗","lat":35.662845,"lng":139.873643,"stationId":"station-003894","note":"歯　小歯　矯歯"},{"id":"medical-2-13589","name":"山下クリニック","categoryId":"medical","categoryLabel":"医疗","lat":35.661625,"lng":139.874134,"stationId":"station-003894","note":"内　小　胃　アレ"},{"id":"medical-3-11043","name":"岡本歯科クリニック","categoryId":"medical","categoryLabel":"医疗","lat":35.663347,"lng":139.871961,"stationId":"station-003894","note":"歯"},{"id":"medical-3-5","name":"川瀬歯科医院","categoryId":"medical","categoryLabel":"医疗","lat":35.662835,"lng":139.872317,"stationId":"station-003894","note":"歯"},{"id":"medical-2-12760","name":"弘邦医院","categoryId":"medical","categoryLabel":"医疗","lat":35.663935,"lng":139.872641,"stationId":"station-003894","note":"内　呼内　アレ"},{"id":"medical-2-15700","name":"星田小児クリニック","categoryId":"medical","categoryLabel":"医疗","lat":35.670801,"lng":139.872901,"stationId":"station-003894","note":"小　内"},{"id":"medical-3-20432","name":"有坂歯科医院","categoryId":"medical","categoryLabel":"医疗","lat":35.670694,"lng":139.882433,"stationId":"station-003894","note":"歯　小歯　矯歯　口外"},{"id":"medical-2-16688","name":"村澤医院","categoryId":"medical","categoryLabel":"医疗","lat":35.651957,"lng":139.870361,"stationId":"station-004012","note":"整　リハ　内　小"},{"id":"medical-3-18050","name":"東葛西歯科クリニック","categoryId":"medical","categoryLabel":"医疗","lat":35.662763,"lng":139.873791,"stationId":"station-003894","note":"歯　矯歯　小歯　口外"},{"id":"medical-2-18049","name":"東葛西眼科","categoryId":"medical","categoryLabel":"医疗","lat":35.662768,"lng":139.873694,"stationId":"station-003894","note":"眼"},{"id":"medical-2-14042","name":"柴山泌尿器科・内科クリニック","categoryId":"medical","categoryLabel":"医疗","lat":35.661957,"lng":139.873791,"stationId":"station-003894","note":"泌　内"},{"id":"medical-3-12319","name":"桑川デンタルクリニック","categoryId":"medical","categoryLabel":"医疗","lat":35.671373,"lng":139.875331,"stationId":"station-003894","note":"歯　小歯"},{"id":"medical-3-19567","name":"武田歯科医院","categoryId":"medical","categoryLabel":"医疗","lat":35.663682,"lng":139.87101,"stationId":"station-003894","note":"歯　小歯　矯歯　口外"},{"id":"medical-3-15728","name":"清砂通り歯科医院","categoryId":"medical","categoryLabel":"医疗","lat":35.659806,"lng":139.874166,"stationId":"station-003894","note":"歯　小歯　口外"},{"id":"medical-2-18624","name":"特別養護老人ホームわとなーる葛西　医務室","categoryId":"medical","categoryLabel":"医疗","lat":35.658381,"lng":139.877185,"stationId":"station-003894","note":"内　整形外科"},{"id":"medical-3-12840","name":"甲田歯科医院","categoryId":"medical","categoryLabel":"医疗","lat":35.669731,"lng":139.872345,"stationId":"station-003894","note":"歯　小歯　口外"},{"id":"medical-2-16089","name":"石井皮膚科","categoryId":"medical","categoryLabel":"医疗","lat":35.661844,"lng":139.873693,"stationId":"station-003894","note":"皮　小　アレ"},{"id":"medical-3-19612","name":"福井歯科","categoryId":"medical","categoryLabel":"医疗","lat":35.657493,"lng":139.872401,"stationId":"station-003894","note":"歯　矯歯　小歯　口外"},{"id":"medical-2-11397","name":"葛西かもめ眼科","categoryId":"medical","categoryLabel":"医疗","lat":35.669188,"lng":139.875671,"stationId":"station-003894","note":"眼"},{"id":"medical-2-11398","name":"葛西こころのクリニック","categoryId":"medical","categoryLabel":"医疗","lat":35.661844,"lng":139.873693,"stationId":"station-003894","note":"心内　精"},{"id":"medical-2-11401","name":"葛西よこやま内科・呼吸器内科クリニック","categoryId":"medical","categoryLabel":"医疗","lat":35.663927,"lng":139.873477,"stationId":"station-003894","note":"内　呼内　アレ　小"},{"id":"medical-3-11400","name":"葛西モア矯正歯科","categoryId":"medical","categoryLabel":"医疗","lat":35.663927,"lng":139.87281,"stationId":"station-003894","note":"矯歯"},{"id":"medical-2-11405","name":"葛西小児科","categoryId":"medical","categoryLabel":"医疗","lat":35.66199,"lng":139.877231,"stationId":"station-003894","note":"小"},{"id":"medical-2-11403","name":"葛西産婦人科","categoryId":"medical","categoryLabel":"医疗","lat":35.661434,"lng":139.87433,"stationId":"station-003894","note":"産婦人科"},{"id":"medical-3-15900","name":"西村歯科医院","categoryId":"medical","categoryLabel":"医疗","lat":35.663813,"lng":139.873599,"stationId":"station-003894","note":"歯　小歯　矯歯"},{"id":"medical-2-17668","name":"辻医院","categoryId":"medical","categoryLabel":"医疗","lat":35.668743,"lng":139.881552,"stationId":"station-003894","note":"内"},{"id":"public-13123-22489","name":"南葛西仲町会館","categoryId":"public_service","categoryLabel":"公共服务","lat":35.65513,"lng":139.871343,"stationId":"station-003894","note":"江戸川区南葛西1-9-4"},{"id":"public-13123-22471","name":"宇喜田三角会館","categoryId":"public_service","categoryLabel":"公共服务","lat":35.674122,"lng":139.870379,"stationId":"station-003894","note":"江戸川区中葛西1-20-9"},{"id":"public-13123-22479","name":"東葛西コミュニティ会館","categoryId":"public_service","categoryLabel":"公共服务","lat":35.654838,"lng":139.879695,"stationId":"station-003894","note":"江戸川区東葛西8-22-1"},{"id":"public-13123-22478","name":"東葛西雷会館","categoryId":"public_service","categoryLabel":"公共服务","lat":35.659713,"lng":139.885975,"stationId":"station-003894","note":"江戸川区東葛西4-58-1"},{"id":"public-13123-22426","name":"江戸川五丁目会館","categoryId":"public_service","categoryLabel":"公共服务","lat":35.674169,"lng":139.884688,"stationId":"station-003724","note":"江戸川区江戸川5-28-2"},{"id":"public-13123-22477","name":"長島会館","categoryId":"public_service","categoryLabel":"公共服务","lat":35.667507,"lng":139.882178,"stationId":"station-003894","note":"江戸川区東葛西3-2-16"},{"id":"public-13123-22481","name":"長島桑川コミュニティ会館","categoryId":"public_service","categoryLabel":"公共服务","lat":35.666002,"lng":139.877897,"stationId":"station-003894","note":"江戸川区東葛西5-31-18"}]
