[{"id":"public-13210-22647","name":"公民館本館","categoryId":"community","categoryLabel":"社区设施","lat":35.705445,"lng":139.510607,"stationId":"station-003594","note":"小金井市本町2-15-11","count":1,"level":"detail"},{"id":"public-13210-22648","name":"公民館緑分館","categoryId":"community","categoryLabel":"社区设施","lat":35.709536,"lng":139.516348,"stationId":"station-003594","note":"小金井市緑町3-3-23","count":1,"level":"detail"},{"id":"medical-3-864","name":"いしづか歯科医院","categoryId":"medical","categoryLabel":"医疗","lat":35.700444,"lng":139.524568,"stationId":"station-003594","note":"歯　小歯","count":1,"level":"detail"},{"id":"medical-3-905","name":"いづみ歯科クリニック","categoryId":"medical","categoryLabel":"医疗","lat":35.70111,"lng":139.54029,"stationId":"station-003592","note":"歯　小歯　歯外","count":1,"level":"detail"},{"id":"medical-2-962","name":"いるかこどもクリニック","categoryId":"medical","categoryLabel":"医疗","lat":35.710337,"lng":139.532621,"stationId":"station-003594","note":"小　アレ","count":1,"level":"detail"},{"id":"medical-3-971","name":"いわさき歯科クリニック","categoryId":"medical","categoryLabel":"医疗","lat":35.717103,"lng":139.542438,"stationId":"station-003423","note":"歯　小歯","count":1,"level":"detail"},{"id":"medical-2-1049","name":"うちやまクリニック","categoryId":"medical","categoryLabel":"医疗","lat":35.700024,"lng":139.524811,"stationId":"station-003594","note":"内　消内　肛外　外","count":1,"level":"detail"},{"id":"medical-2-1252","name":"おおやクリニック","categoryId":"medical","categoryLabel":"医疗","lat":35.704655,"lng":139.542016,"stationId":"station-003592","note":"内　小　婦　産","count":1,"level":"detail"},{"id":"medical-3-1408","name":"かえで歯科医院","categoryId":"medical","categoryLabel":"医疗","lat":35.704114,"lng":139.507811,"stationId":"station-003594","note":"歯　小歯","count":1,"level":"detail"},{"id":"medical-2-1433","name":"かしわでクリニック","categoryId":"medical","categoryLabel":"医疗","lat":35.703077,"lng":139.541822,"stationId":"station-003592","note":"内　外　漢内","count":1,"level":"detail"},{"id":"medical-2-1564","name":"かわべ内科クリニック","categoryId":"medical","categoryLabel":"医疗","lat":35.705118,"lng":139.521516,"stationId":"station-003594","note":"内　消内　小","count":1,"level":"detail"},{"id":"medical-3-1679","name":"くま歯科クリニック","categoryId":"medical","categoryLabel":"医疗","lat":35.712627,"lng":139.553374,"stationId":"station-003587","note":"歯　小歯　歯外　矯","count":1,"level":"detail"},{"id":"medical-2-1772","name":"くろだ内科医院","categoryId":"medical","categoryLabel":"医疗","lat":35.708058,"lng":139.525995,"stationId":"station-003594","note":"内　循　消　放　小","count":1,"level":"detail"},{"id":"medical-3-1810","name":"こいそ歯科クリニック","categoryId":"medical","categoryLabel":"医疗","lat":35.702805,"lng":139.508898,"stationId":"station-003594","note":"歯　小歯　矯　歯外","count":1,"level":"detail"},{"id":"medical-2-1845","name":"こがねい耳鼻咽喉科クリニック","categoryId":"medical","categoryLabel":"医疗","lat":35.700295,"lng":139.50759,"stationId":"station-003594","note":"耳咽　アレルギー　気管食道内科","count":1,"level":"detail"},{"id":"medical-2-1957","name":"こみち内科クリニック","categoryId":"medical","categoryLabel":"医疗","lat":35.724521,"lng":139.529936,"stationId":"station-003423","note":"内　循内　腎内　皮","count":1,"level":"detail"},{"id":"medical-3-1958","name":"こみねキッズデンタルクリニック","categoryId":"medical","categoryLabel":"医疗","lat":35.722189,"lng":139.541189,"stationId":"station-003423","note":"歯　小歯　矯","count":1,"level":"detail"},{"id":"medical-3-1902","name":"ごとう矯正歯科","categoryId":"medical","categoryLabel":"医疗","lat":35.705568,"lng":139.54217,"stationId":"station-003592","note":"矯","count":1,"level":"detail"},{"id":"medical-2-2013","name":"さいとう整形外科","categoryId":"medical","categoryLabel":"医疗","lat":35.710337,"lng":139.532621,"stationId":"station-003594","note":"整外　リハ","count":1,"level":"detail"},{"id":"medical-3-2021","name":"さかいばし歯科","categoryId":"medical","categoryLabel":"医疗","lat":35.710901,"lng":139.538321,"stationId":"station-003592","note":"歯　小歯　歯外","count":1,"level":"detail"},{"id":"medical-3-2129","name":"さとう歯科クリニック","categoryId":"medical","categoryLabel":"医疗","lat":35.701203,"lng":139.544287,"stationId":"station-003592","note":"歯　小歯　矯　歯外","count":1,"level":"detail"},{"id":"medical-3-2143","name":"さとう歯科医院","categoryId":"medical","categoryLabel":"医疗","lat":35.701872,"lng":139.523536,"stationId":"station-003594","note":"歯　矯　小歯","count":1,"level":"detail"},{"id":"medical-3-2234","name":"しげる歯科","categoryId":"medical","categoryLabel":"医疗","lat":35.722944,"lng":139.533054,"stationId":"station-003423","note":"歯　小歯","count":1,"level":"detail"},{"id":"medical-3-2332","name":"しらかば歯科","categoryId":"medical","categoryLabel":"医疗","lat":35.704767,"lng":139.544278,"stationId":"station-003592","note":"歯　小歯　矯　歯外","count":1,"level":"detail"},{"id":"medical-3-2697","name":"たなかデンタルクリニック","categoryId":"medical","categoryLabel":"医疗","lat":35.705481,"lng":139.529875,"stationId":"station-003594","note":"歯　矯　小歯　歯外","count":1,"level":"detail"},{"id":"medical-3-2839","name":"つるが歯科医院","categoryId":"medical","categoryLabel":"医疗","lat":35.703746,"lng":139.545114,"stationId":"station-003592","note":"歯","count":1,"level":"detail"},{"id":"medical-2-3044","name":"とらいふ武蔵野診療所","categoryId":"medical","categoryLabel":"医疗","lat":35.708447,"lng":139.55347,"stationId":"station-003587","note":"内","count":1,"level":"detail"},{"id":"medical-3-3158","name":"なつデンタルクリニック","categoryId":"medical","categoryLabel":"医疗","lat":35.711904,"lng":139.538397,"stationId":"station-003592","note":"歯　小歯　矯","count":1,"level":"detail"},{"id":"medical-3-3169","name":"なや歯科医院","categoryId":"medical","categoryLabel":"医疗","lat":35.702714,"lng":139.544001,"stationId":"station-003592","note":"歯　小歯","count":1,"level":"detail"},{"id":"medical-3-3282","name":"のなか歯科医院","categoryId":"medical","categoryLabel":"医疗","lat":35.700608,"lng":139.522268,"stationId":"station-003594","note":"歯　小歯","count":1,"level":"detail"},{"id":"medical-2-3325","name":"はぎクリニック","categoryId":"medical","categoryLabel":"医疗","lat":35.700295,"lng":139.50759,"stationId":"station-003594","note":"内　外","count":1,"level":"detail"},{"id":"medical-2-3353","name":"はせがわ内科","categoryId":"medical","categoryLabel":"医疗","lat":35.709058,"lng":139.543503,"stationId":"station-003592","note":"内　神内　小","count":1,"level":"detail"},{"id":"medical-2-3476","name":"ひがこ北口内科クリニック","categoryId":"medical","categoryLabel":"医疗","lat":35.702108,"lng":139.527234,"stationId":"station-003594","note":"内　消内　小","count":1,"level":"detail"},{"id":"medical-2-3563","name":"ひらたあや整形外科クリニック","categoryId":"medical","categoryLabel":"医疗","lat":35.714581,"lng":139.543677,"stationId":"station-003592","note":"整　リハ　内科","count":1,"level":"detail"},{"id":"medical-2-3933","name":"まつもとファミリークリニック","categoryId":"medical","categoryLabel":"医疗","lat":35.700231,"lng":139.545007,"stationId":"station-003592","note":"内　消内　外　婦","count":1,"level":"detail"},{"id":"medical-3-4014","name":"みずた歯科医院","categoryId":"medical","categoryLabel":"医疗","lat":35.715907,"lng":139.543605,"stationId":"station-003423","note":"歯　小歯　矯","count":1,"level":"detail"},{"id":"medical-3-4048","name":"みどり歯科医院","categoryId":"medical","categoryLabel":"医疗","lat":35.707011,"lng":139.521203,"stationId":"station-003594","note":"歯　小歯","count":1,"level":"detail"},{"id":"medical-3-4084","name":"みやうち歯科","categoryId":"medical","categoryLabel":"医疗","lat":35.702705,"lng":139.542999,"stationId":"station-003592","note":"歯　小歯　歯外","count":1,"level":"detail"},{"id":"medical-2-4140","name":"むさしさかい駅前内科・糖尿病・内分泌クリニック","categoryId":"medical","categoryLabel":"医疗","lat":35.702653,"lng":139.545317,"stationId":"station-003592","note":"内科　糖尿病内科　代謝内科　内分泌内科","count":1,"level":"detail"},{"id":"medical-2-4147","name":"むさしの糖尿病・甲状腺クリニック","categoryId":"medical","categoryLabel":"医疗","lat":35.702567,"lng":139.546203,"stationId":"station-003592","note":"内科　糖尿病内科　代謝内科　内分泌内科","count":1,"level":"detail"},{"id":"medical-2-4149","name":"むさし小金井診療所","categoryId":"medical","categoryLabel":"医疗","lat":35.7005,"lng":139.509262,"stationId":"station-003594","note":"内　小　糖内　代謝内　内分泌内　呼内　消内","count":1,"level":"detail"},{"id":"medical-2-4178","name":"めぐみクリニック","categoryId":"medical","categoryLabel":"医疗","lat":35.703698,"lng":139.544335,"stationId":"station-003592","note":"内　精　神　心内","count":1,"level":"detail"},{"id":"medical-2-4260","name":"もろほしクリニック","categoryId":"medical","categoryLabel":"医疗","lat":35.703655,"lng":139.52173,"stationId":"station-003594","note":"耳　内　ア　気管食道　内　リハ","count":1,"level":"detail"},{"id":"medical-2-4276","name":"やすたけ内科クリニック","categoryId":"medical","categoryLabel":"医疗","lat":35.702465,"lng":139.524175,"stationId":"station-003594","note":"呼吸器内科　内科","count":1,"level":"detail"},{"id":"medical-2-4434","name":"よしかた内科","categoryId":"medical","categoryLabel":"医疗","lat":35.716308,"lng":139.554224,"stationId":"station-003409","note":"内　胃　ア　消化器内科","count":1,"level":"detail"},{"id":"medical-3-457","name":"アイリス・デンタルクリニック","categoryId":"medical","categoryLabel":"医疗","lat":35.702497,"lng":139.513302,"stationId":"station-003594","note":"歯　小歯　矯","count":1,"level":"detail"},{"id":"medical-3-480","name":"アウラデンタルクリニック","categoryId":"medical","categoryLabel":"医疗","lat":35.701034,"lng":139.542167,"stationId":"station-003592","note":"歯　小歯　歯外　矯","count":1,"level":"detail"},{"id":"medical-3-1631","name":"キョーナンデンタルオフィス","categoryId":"medical","categoryLabel":"医疗","lat":35.70199,"lng":139.545929,"stationId":"station-003592","note":"小児歯科　歯科口腔外科　歯科","count":1,"level":"detail"},{"id":"medical-3-1699","name":"グリーンパレス歯科医院","categoryId":"medical","categoryLabel":"医疗","lat":35.702912,"lng":139.542255,"stationId":"station-003592","note":"歯　小歯","count":1,"level":"detail"},{"id":"medical-3-3475","name":"ヒガコ歯科クリニック","categoryId":"medical","categoryLabel":"医疗","lat":35.702108,"lng":139.527234,"stationId":"station-003594","note":"歯　小歯　歯外　矯","count":1,"level":"detail"},{"id":"medical-2-3823","name":"ポレポレクリニック","categoryId":"medical","categoryLabel":"医疗","lat":35.701203,"lng":139.544287,"stationId":"station-003592","note":"心内　漢内　小心内　小漢内　内　小　精","count":1,"level":"detail"},{"id":"medical-2-4197","name":"メディカルクリニック武蔵境","categoryId":"medical","categoryLabel":"医疗","lat":35.70037,"lng":139.543751,"stationId":"station-003592","note":"内　消内　脳外　リハ","count":1,"level":"detail"},{"id":"medical-2-4502","name":"ライフ診療所","categoryId":"medical","categoryLabel":"医疗","lat":35.701554,"lng":139.543948,"stationId":"station-003592","note":"眼","count":1,"level":"detail"},{"id":"medical-1-10697","name":"一般財団法人　天誠会　武蔵境病院","categoryId":"medical","categoryLabel":"医疗","lat":35.703452,"lng":139.547296,"stationId":"station-003592","note":"内科　外科　整形外科　リハビリ科　放射線科","count":1,"level":"detail"},{"id":"medical-2-11100","name":"下河辺整形外科クリニック","categoryId":"medical","categoryLabel":"医疗","lat":35.704799,"lng":139.520058,"stationId":"station-003594","note":"整　リウ　リハ　内","count":1,"level":"detail"},{"id":"medical-2-17495","name":"中野ウィメンズクリニック","categoryId":"medical","categoryLabel":"医疗","lat":35.704553,"lng":139.518613,"stationId":"station-003594","note":"内　婦","count":1,"level":"detail"},{"id":"medical-2-11545","name":"丸山眼科クリニック","categoryId":"medical","categoryLabel":"医疗","lat":35.713789,"lng":139.542526,"stationId":"station-003592","note":"眼","count":1,"level":"detail"},{"id":"medical-2-11560","name":"丸茂医院","categoryId":"medical","categoryLabel":"医疗","lat":35.70318,"lng":139.511063,"stationId":"station-003594","note":"内　循","count":1,"level":"detail"},{"id":"medical-2-11854","name":"久滋医院","categoryId":"medical","categoryLabel":"医疗","lat":35.705271,"lng":139.52211,"stationId":"station-003594","note":"内　小","count":1,"level":"detail"},{"id":"medical-2-4810","name":"伊藤皮膚科形成外科クリニック","categoryId":"medical","categoryLabel":"医疗","lat":35.713789,"lng":139.542526,"stationId":"station-003592","note":"皮　形　美","count":1,"level":"detail"},{"id":"medical-2-13188","name":"佐々木産婦人科","categoryId":"medical","categoryLabel":"医疗","lat":35.708192,"lng":139.539829,"stationId":"station-003592","note":"産婦人科　内科　小児科","count":1,"level":"detail"},{"id":"medical-3-19662","name":"兵頭歯科医院","categoryId":"medical","categoryLabel":"医疗","lat":35.703374,"lng":139.545919,"stationId":"station-003592","note":"歯　小歯","count":1,"level":"detail"},{"id":"medical-3-18713","name":"内海歯科クリニック","categoryId":"medical","categoryLabel":"医疗","lat":35.704578,"lng":139.54443,"stationId":"station-003592","note":"歯　小歯","count":1,"level":"detail"},{"id":"medical-2-16507","name":"前澤クリニック","categoryId":"medical","categoryLabel":"医疗","lat":35.700528,"lng":139.539627,"stationId":"station-003592","note":"内　小　消　循　放","count":1,"level":"detail"},{"id":"medical-3-19922","name":"北村歯科医院","categoryId":"medical","categoryLabel":"医疗","lat":35.711037,"lng":139.512443,"stationId":"station-003594","note":"歯","count":1,"level":"detail"},{"id":"medical-1-4830","name":"医療法人　沖縄徳洲会　武蔵野徳洲会病院","categoryId":"medical","categoryLabel":"医疗","lat":35.717384,"lng":139.533547,"stationId":"station-003423","note":"内科　循環器内科　消化器内科　神経内科　血液内科　肝臓内科　腎臓内科　婦人科　小児科　外科　消化器外科　脳神経外科　泌尿器科　整形外科　形成外科　放射線科　リハビリ科　救急科　精神科　乳腺外科　麻酔科　皮膚科　腫瘍内科","count":1,"level":"detail"},{"id":"medical-2-5248","name":"医療法人社団　佳翔会　武蔵小金井さくら眼科","categoryId":"medical","categoryLabel":"医疗","lat":35.700295,"lng":139.50759,"stationId":"station-003594","note":"眼　小眼","count":1,"level":"detail"},{"id":"medical-2-5948","name":"医療法人社団　汎愛堂小松外科胃腸科","categoryId":"medical","categoryLabel":"医疗","lat":35.705384,"lng":139.508544,"stationId":"station-003594","note":"外　胃","count":1,"level":"detail"},{"id":"medical-3-5280","name":"医療法人社団　貴楓会　　武蔵境歯科クリニック","categoryId":"medical","categoryLabel":"医疗","lat":35.711172,"lng":139.544152,"stationId":"station-003592","note":"歯科　矯正歯科　小児歯科　歯科口腔外科","count":1,"level":"detail"},{"id":"medical-2-6440","name":"医療法人社団かみやま内科クリニック","categoryId":"medical","categoryLabel":"医疗","lat":35.704394,"lng":139.545075,"stationId":"station-003592","note":"内　消","count":1,"level":"detail"},{"id":"medical-2-6686","name":"医療法人社団ひなた会　いせだ脳神経外科・神経内科","categoryId":"medical","categoryLabel":"医疗","lat":35.702108,"lng":139.527234,"stationId":"station-003594","note":"脳神外　神内","count":1,"level":"detail"},{"id":"medical-2-6831","name":"医療法人社団ゆずりは　永田外科胃腸内科","categoryId":"medical","categoryLabel":"医疗","lat":35.723355,"lng":139.541802,"stationId":"station-003423","note":"内　外　消内　胃内　内視鏡内　整　小","count":1,"level":"detail"},{"id":"medical-2-6853","name":"医療法人社団りょうふう　春木医院","categoryId":"medical","categoryLabel":"医疗","lat":35.704964,"lng":139.544228,"stationId":"station-003592","note":"内　小　放　リハ　皮","count":1,"level":"detail"},{"id":"medical-2-6974","name":"医療法人社団一雅会　野田医院","categoryId":"medical","categoryLabel":"医疗","lat":35.719211,"lng":139.536844,"stationId":"station-003423","note":"内　循内　消内","count":1,"level":"detail"},{"id":"medical-3-8042","name":"医療法人社団三聖会　三浦歯科医院","categoryId":"medical","categoryLabel":"医疗","lat":35.705923,"lng":139.514171,"stationId":"station-003594","note":"歯　小歯　矯","count":1,"level":"detail"},{"id":"medical-2-10373","name":"医療法人社団令仁会　むさしのメンタルクリニック","categoryId":"medical","categoryLabel":"医疗","lat":35.702483,"lng":139.542155,"stationId":"station-003592","note":"精　心内","count":1,"level":"detail"},{"id":"medical-2-7114","name":"医療法人社団佳朋会　すくすくｋｉｄｓクリニック","categoryId":"medical","categoryLabel":"医疗","lat":35.723582,"lng":139.538305,"stationId":"station-003423","note":"小　ア","count":1,"level":"detail"},{"id":"medical-3-7649","name":"医療法人社団光恵会　ふなこし歯科医院","categoryId":"medical","categoryLabel":"医疗","lat":35.700368,"lng":139.552497,"stationId":"station-003587","note":"歯　小歯　矯","count":1,"level":"detail"},{"id":"medical-2-9749","name":"医療法人社団八木整形外科","categoryId":"medical","categoryLabel":"医疗","lat":35.701041,"lng":139.544207,"stationId":"station-003592","note":"内　整　リハ","count":1,"level":"detail"},{"id":"medical-2-7281","name":"医療法人社団境橋クリニック","categoryId":"medical","categoryLabel":"医疗","lat":35.711063,"lng":139.538344,"stationId":"station-003592","note":"内　小　皮　外　整","count":1,"level":"detail"},{"id":"medical-2-9249","name":"医療法人社団壮明会　山﨑内科医院","categoryId":"medical","categoryLabel":"医疗","lat":35.703176,"lng":139.513536,"stationId":"station-003594","note":"内　呼内　ア","count":1,"level":"detail"},{"id":"medical-3-7592","name":"医療法人社団建成会　ファミリー歯科クリニック","categoryId":"medical","categoryLabel":"医疗","lat":35.704472,"lng":139.543794,"stationId":"station-003592","note":"歯　小歯　矯　歯外","count":1,"level":"detail"},{"id":"medical-2-7589","name":"医療法人社団建英会　浅野クリニック","categoryId":"medical","categoryLabel":"医疗","lat":35.701119,"lng":139.554435,"stationId":"station-003587","note":"内　循　呼","count":1,"level":"detail"},{"id":"medical-3-8113","name":"医療法人社団志礼会　武蔵境駅前歯科","categoryId":"medical","categoryLabel":"医疗","lat":35.70105,"lng":139.544781,"stationId":"station-003592","note":"歯　小歯　矯　歯外","count":1,"level":"detail"},{"id":"medical-2-6879","name":"医療法人社団愛咲　あい皮膚科クリニック","categoryId":"medical","categoryLabel":"医疗","lat":35.702108,"lng":139.527234,"stationId":"station-003594","note":"皮　小児皮　美容皮","count":1,"level":"detail"},{"id":"medical-3-7418","name":"医療法人社団慶沙会　ひがきデンタルクリニック","categoryId":"medical","categoryLabel":"医疗","lat":35.724356,"lng":139.528674,"stationId":"station-003423","note":"歯　矯　小歯　歯外","count":1,"level":"detail"},{"id":"medical-2-8468","name":"医療法人社団昭彩会　待山医院","categoryId":"medical","categoryLabel":"医疗","lat":35.71169,"lng":139.520097,"stationId":"station-003594","note":"内　循内　眼","count":1,"level":"detail"},{"id":"medical-2-9548","name":"医療法人社団東仁会　武蔵境駅前クリニック","categoryId":"medical","categoryLabel":"医疗","lat":35.702567,"lng":139.546203,"stationId":"station-003592","note":"人工透析内　内科","count":1,"level":"detail"},{"id":"medical-3-9557","name":"医療法人社団東和会　小金井東和歯科","categoryId":"medical","categoryLabel":"医疗","lat":35.704182,"lng":139.524789,"stationId":"station-003594","note":"歯","count":1,"level":"detail"},{"id":"medical-3-8009","name":"医療法人社団桜翔会　桜堤あみの歯科","categoryId":"medical","categoryLabel":"医疗","lat":35.708993,"lng":139.533911,"stationId":"station-003592","note":"歯　小歯　矯　歯外","count":1,"level":"detail"},{"id":"medical-2-7879","name":"医療法人社団浩心会　なかやま内科循環器クリニック","categoryId":"medical","categoryLabel":"医疗","lat":35.720434,"lng":139.543127,"stationId":"station-003423","note":"内　循内　呼内　糖内","count":1,"level":"detail"},{"id":"medical-2-10277","name":"医療法人社団理栄会　岡村皮フ科医院","categoryId":"medical","categoryLabel":"医疗","lat":35.705417,"lng":139.52855,"stationId":"station-003594","note":"皮","count":1,"level":"detail"},{"id":"medical-2-9728","name":"医療法人社団白百合会　スイング・ビル野崎クリニック","categoryId":"medical","categoryLabel":"医疗","lat":35.70277,"lng":139.543044,"stationId":"station-003592","note":"内　ア　循内　神内　心内","count":1,"level":"detail"},{"id":"medical-2-9730","name":"医療法人社団白百合会リリーローズメロディチャイルドクリニック","categoryId":"medical","categoryLabel":"医疗","lat":35.70229,"lng":139.545175,"stationId":"station-003592","note":"内　小　アレルギー","count":1,"level":"detail"},{"id":"medical-3-10196","name":"医療法人社団祐志会　むさしの歯科室","categoryId":"medical","categoryLabel":"医疗","lat":35.700457,"lng":139.542983,"stationId":"station-003592","note":"歯　小歯　歯外　矯","count":1,"level":"detail"},{"id":"medical-2-9834","name":"医療法人社団福正会　甲賀クリニック","categoryId":"medical","categoryLabel":"医疗","lat":35.700652,"lng":139.541134,"stationId":"station-003592","note":"内　小　皮　整　心内　ア　漢内　リハ","count":1,"level":"detail"},{"id":"medical-3-8329","name":"医療法人社団秀美会　秋澤歯科医院","categoryId":"medical","categoryLabel":"医疗","lat":35.702844,"lng":139.507597,"stationId":"station-003594","note":"歯　小歯　矯　歯外","count":1,"level":"detail"},{"id":"medical-2-10361","name":"医療法人社団緑友会　らいおんハート武蔵野脳神経外科内科クリニック","categoryId":"medical","categoryLabel":"医疗","lat":35.715388,"lng":139.553647,"stationId":"station-003409","note":"内科　脳神経外科　整形外科","count":1,"level":"detail"},{"id":"medical-2-9004","name":"医療法人社団聖水会　高山クリニック","categoryId":"medical","categoryLabel":"医疗","lat":35.700295,"lng":139.50759,"stationId":"station-003594","note":"内　透析","count":1,"level":"detail"},{"id":"medical-2-10233","name":"医療法人社団雄平会　長沼整形外科・内科医院","categoryId":"medical","categoryLabel":"医疗","lat":35.702708,"lng":139.542283,"stationId":"station-003592","note":"整　リハ　胃内　内","count":1,"level":"detail"},{"id":"medical-3-10545","name":"医療法人社団顯歯会遊佐歯科医院","categoryId":"medical","categoryLabel":"医疗","lat":35.701041,"lng":139.544207,"stationId":"station-003592","note":"歯","count":1,"level":"detail"},{"id":"medical-2-6239","name":"医療法人社団ＭＬＣ　むさしのレディースクリニック","categoryId":"medical","categoryLabel":"医疗","lat":35.701285,"lng":139.546296,"stationId":"station-003592","note":"産婦人科","count":1,"level":"detail"},{"id":"medical-2-16289","name":"千賀皮膚科クリニック","categoryId":"medical","categoryLabel":"医疗","lat":35.70036,"lng":139.507363,"stationId":"station-003594","note":"皮　泌","count":1,"level":"detail"},{"id":"medical-2-20420","name":"友利医院","categoryId":"medical","categoryLabel":"医疗","lat":35.710144,"lng":139.553298,"stationId":"station-003587","note":"内　小　外　胃","count":1,"level":"detail"},{"id":"medical-2-13779","name":"司馬クリニック","categoryId":"medical","categoryLabel":"医疗","lat":35.702575,"lng":139.543703,"stationId":"station-003592","note":"心内　精","count":1,"level":"detail"},{"id":"medical-2-11821","name":"吉野整形外科","categoryId":"medical","categoryLabel":"医疗","lat":35.702923,"lng":139.543733,"stationId":"station-003592","note":"整　内","count":1,"level":"detail"},{"id":"medical-2-13325","name":"坂上医院","categoryId":"medical","categoryLabel":"医疗","lat":35.724292,"lng":139.543619,"stationId":"station-003423","note":"外　胃　内　リハ","count":1,"level":"detail"},{"id":"medical-3-15041","name":"城歯科クリニック","categoryId":"medical","categoryLabel":"医疗","lat":35.721054,"lng":139.54316,"stationId":"station-003423","note":"歯　小歯","count":1,"level":"detail"},{"id":"medical-2-12000","name":"境南クリニック","categoryId":"medical","categoryLabel":"医疗","lat":35.700631,"lng":139.542731,"stationId":"station-003592","note":"内　透析","count":1,"level":"detail"},{"id":"medical-2-11999","name":"境藤田クリニック","categoryId":"medical","categoryLabel":"医疗","lat":35.705848,"lng":139.544942,"stationId":"station-003592","note":"内　整　皮","count":1,"level":"detail"},{"id":"medical-2-16830","name":"大見医院","categoryId":"medical","categoryLabel":"医疗","lat":35.702527,"lng":139.522881,"stationId":"station-003594","note":"内　産　婦","count":1,"level":"detail"},{"id":"medical-3-17725","name":"天野歯科医院","categoryId":"medical","categoryLabel":"医疗","lat":35.724649,"lng":139.548412,"stationId":"station-003409","note":"歯　小歯","count":1,"level":"detail"},{"id":"medical-3-14553","name":"小川歯科医院","categoryId":"medical","categoryLabel":"医疗","lat":35.711035,"lng":139.529613,"stationId":"station-003594","note":"歯","count":1,"level":"detail"},{"id":"medical-3-14684","name":"小林歯科","categoryId":"medical","categoryLabel":"医疗","lat":35.705253,"lng":139.52211,"stationId":"station-003594","note":"歯","count":1,"level":"detail"},{"id":"medical-3-13741","name":"山本歯科医院","categoryId":"medical","categoryLabel":"医疗","lat":35.704864,"lng":139.543857,"stationId":"station-003592","note":"歯　矯　小歯　歯外","count":1,"level":"detail"},{"id":"medical-3-13769","name":"山﨑歯科医院","categoryId":"medical","categoryLabel":"医疗","lat":35.701652,"lng":139.542536,"stationId":"station-003592","note":"歯　小歯","count":1,"level":"detail"},{"id":"medical-3-11002","name":"岡崎歯科医院","categoryId":"medical","categoryLabel":"医疗","lat":35.701406,"lng":139.538828,"stationId":"station-003592","note":"歯","count":1,"level":"detail"},{"id":"medical-3-11609","name":"岩田歯科医院","categoryId":"medical","categoryLabel":"医疗","lat":35.722223,"lng":139.526095,"stationId":"station-003423","note":"歯","count":1,"level":"detail"},{"id":"medical-3-16357","name":"川合歯科医院","categoryId":"medical","categoryLabel":"医疗","lat":35.700938,"lng":139.508871,"stationId":"station-003594","note":"歯","count":1,"level":"detail"},{"id":"medical-2-16359","name":"川崎内科医院","categoryId":"medical","categoryLabel":"医疗","lat":35.704038,"lng":139.537963,"stationId":"station-003592","note":"内　小　神内　呼　循　放　消　皮　泌","count":1,"level":"detail"},{"id":"medical-3-19702","name":"平田歯科クリニック","categoryId":"medical","categoryLabel":"医疗","lat":35.714813,"lng":139.543543,"stationId":"station-003592","note":"歯　小歯　歯外","count":1,"level":"detail"},{"id":"medical-3-13852","name":"志藤歯科医院","categoryId":"medical","categoryLabel":"医疗","lat":35.719561,"lng":139.537402,"stationId":"station-003423","note":"歯","count":1,"level":"detail"},{"id":"medical-2-18940","name":"日本歯科大学口腔リハビリテーション多摩クリニック","categoryId":"medical","categoryLabel":"医疗","lat":35.701232,"lng":139.525257,"stationId":"station-003594","note":"歯　内","count":1,"level":"detail"},{"id":"medical-3-15705","name":"星野歯科医院","categoryId":"medical","categoryLabel":"医疗","lat":35.70463,"lng":139.542319,"stationId":"station-003592","note":"歯　小歯　矯","count":1,"level":"detail"},{"id":"medical-3-20152","name":"木所歯科医院","categoryId":"medical","categoryLabel":"医疗","lat":35.705442,"lng":139.509367,"stationId":"station-003594","note":"歯　小歯","count":1,"level":"detail"},{"id":"medical-3-18338","name":"東小金井オリーブ歯科クリニック","categoryId":"medical","categoryLabel":"医疗","lat":35.702465,"lng":139.524162,"stationId":"station-003594","note":"歯科　矯正歯科　小児歯科　歯科口腔外科","count":1,"level":"detail"},{"id":"medical-2-18339","name":"東小金井クリニック","categoryId":"medical","categoryLabel":"医疗","lat":35.705445,"lng":139.531762,"stationId":"station-003594","note":"内　整　ア","count":1,"level":"detail"},{"id":"medical-2-18346","name":"東小金井小児神経・脳神経内科クリニック","categoryId":"medical","categoryLabel":"医疗","lat":35.702465,"lng":139.524175,"stationId":"station-003594","note":"小児科　内科　精神科　小児神経内科　脳神経内科","count":1,"level":"detail"},{"id":"medical-3-18345","name":"東小金井歯科医院","categoryId":"medical","categoryLabel":"医疗","lat":35.700911,"lng":139.5243,"stationId":"station-003594","note":"歯　小歯　矯","count":1,"level":"detail"},{"id":"medical-3-18344","name":"東小金井歯科ＣＬＩＮＩＣ","categoryId":"medical","categoryLabel":"医疗","lat":35.702126,"lng":139.524313,"stationId":"station-003594","note":"歯　小歯　矯","count":1,"level":"detail"},{"id":"medical-2-18341","name":"東小金井駅前こどもクリニック","categoryId":"medical","categoryLabel":"医疗","lat":35.702979,"lng":139.524695,"stationId":"station-003594","note":"小　アレ","count":1,"level":"detail"},{"id":"medical-2-18342","name":"東小金井駅前メンタルクリニック","categoryId":"medical","categoryLabel":"医疗","lat":35.702465,"lng":139.524175,"stationId":"station-003594","note":"精神科　心療内科","count":1,"level":"detail"},{"id":"medical-2-18343","name":"東小金井駅前眼科","categoryId":"medical","categoryLabel":"医疗","lat":35.702108,"lng":139.527234,"stationId":"station-003594","note":"眼","count":1,"level":"detail"},{"id":"medical-2-14763","name":"松井内科","categoryId":"medical","categoryLabel":"医疗","lat":35.714379,"lng":139.52893,"stationId":"station-003594","note":"内　小","count":1,"level":"detail"},{"id":"medical-2-20387","name":"柳橋診療所","categoryId":"medical","categoryLabel":"医疗","lat":35.717218,"lng":139.54425,"stationId":"station-003423","note":"内　精　循　整","count":1,"level":"detail"},{"id":"medical-2-13381","name":"桜堤ファミリークリニック","categoryId":"medical","categoryLabel":"医疗","lat":35.709669,"lng":139.532705,"stationId":"station-003594","note":"内　外　消内　内内","count":1,"level":"detail"},{"id":"medical-2-19008","name":"梅村こども診療所","categoryId":"medical","categoryLabel":"医疗","lat":35.724408,"lng":139.535031,"stationId":"station-003423","note":"小　内　精","count":1,"level":"detail"},{"id":"medical-2-11382","name":"梶野町クリニック","categoryId":"medical","categoryLabel":"医疗","lat":35.707184,"lng":139.531986,"stationId":"station-003594","note":"皮　内　消内　外","count":1,"level":"detail"},{"id":"medical-2-15287","name":"森医院","categoryId":"medical","categoryLabel":"医疗","lat":35.702973,"lng":139.544289,"stationId":"station-003592","note":"内　消　胃　消化器内科　胃腸内科","count":1,"level":"detail"},{"id":"medical-2-19526","name":"武居小児科医院","categoryId":"medical","categoryLabel":"医疗","lat":35.70054,"lng":139.543507,"stationId":"station-003592","note":"小","count":1,"level":"detail"},{"id":"medical-2-19535","name":"武蔵境形成外科・皮ふ科","categoryId":"medical","categoryLabel":"医疗","lat":35.702572,"lng":139.545293,"stationId":"station-003592","note":"外科　形成外科　皮膚科","count":1,"level":"detail"},{"id":"medical-2-19539","name":"武蔵境病院付属あんずクリニック","categoryId":"medical","categoryLabel":"医疗","lat":35.701652,"lng":139.537997,"stationId":"station-003592","note":"整　リハ　内　リウ　皮　小","count":1,"level":"detail"},{"id":"medical-2-19538","name":"武蔵境皮フ科クリニック","categoryId":"medical","categoryLabel":"医疗","lat":35.703523,"lng":139.544228,"stationId":"station-003592","note":"皮","count":1,"level":"detail"},{"id":"medical-2-19534","name":"武蔵境眼科医院","categoryId":"medical","categoryLabel":"医疗","lat":35.700485,"lng":139.546998,"stationId":"station-003592","note":"眼","count":1,"level":"detail"},{"id":"medical-2-19536","name":"武蔵境耳鼻咽喉科","categoryId":"medical","categoryLabel":"医疗","lat":35.702653,"lng":139.545317,"stationId":"station-003592","note":"耳鼻いんこう科　小児科　アレルギー科","count":1,"level":"detail"},{"id":"medical-2-19541","name":"武蔵小金井北口眼科","categoryId":"medical","categoryLabel":"医疗","lat":35.701556,"lng":139.50739,"stationId":"station-003594","note":"眼","count":1,"level":"detail"},{"id":"medical-2-19540","name":"武蔵小金井駅前こどもクリニック","categoryId":"medical","categoryLabel":"医疗","lat":35.700295,"lng":139.50759,"stationId":"station-003594","note":"小児科　アレルギー科","count":1,"level":"detail"},{"id":"medical-3-19548","name":"武蔵野あかり歯科","categoryId":"medical","categoryLabel":"医疗","lat":35.709669,"lng":139.532705,"stationId":"station-003594","note":"歯　歯外　小歯　矯","count":1,"level":"detail"},{"id":"medical-2-19551","name":"武蔵野ファミリークリニック","categoryId":"medical","categoryLabel":"医疗","lat":35.716314,"lng":139.547339,"stationId":"station-003423","note":"内　小　リハ","count":1,"level":"detail"},{"id":"medical-2-19553","name":"武蔵野館医務室","categoryId":"medical","categoryLabel":"医疗","lat":35.711534,"lng":139.549982,"stationId":"station-003592","note":"内","count":1,"level":"detail"},{"id":"medical-3-13904","name":"歯科川﨑医院","categoryId":"medical","categoryLabel":"医疗","lat":35.704087,"lng":139.543864,"stationId":"station-003592","note":"歯","count":1,"level":"detail"},{"id":"medical-3-13899","name":"歯科診療室　橋詰","categoryId":"medical","categoryLabel":"医疗","lat":35.700322,"lng":139.507374,"stationId":"station-003594","note":"歯　矯　小歯","count":1,"level":"detail"},{"id":"medical-2-19796","name":"法政大学小金井診療所","categoryId":"medical","categoryLabel":"医疗","lat":35.709877,"lng":139.522679,"stationId":"station-003594","note":"内","count":1,"level":"detail"},{"id":"medical-2-16424","name":"浅沼整形外科","categoryId":"medical","categoryLabel":"医疗","lat":35.702633,"lng":139.51034,"stationId":"station-003594","note":"外　整　リハ","count":1,"level":"detail"},{"id":"medical-2-15742","name":"清水眼科","categoryId":"medical","categoryLabel":"医疗","lat":35.702659,"lng":139.542891,"stationId":"station-003592","note":"眼","count":1,"level":"detail"},{"id":"medical-2-18574","name":"特別養護老人ホーム　桜町聖ヨハネホーム診療所","categoryId":"medical","categoryLabel":"医疗","lat":35.710278,"lng":139.512074,"stationId":"station-003594","note":"内　精　神","count":1,"level":"detail"},{"id":"medical-2-18607","name":"特別養護老人ホームさくらえん医務室","categoryId":"medical","categoryLabel":"医疗","lat":35.710723,"lng":139.532325,"stationId":"station-003594","note":"内","count":1,"level":"detail"},{"id":"medical-2-18618","name":"特別養護老人ホームフローラ田無内医務室","categoryId":"medical","categoryLabel":"医疗","lat":35.720478,"lng":139.539585,"stationId":"station-003423","note":"内","count":1,"level":"detail"},{"id":"medical-2-18643","name":"特別養護老人ホーム親の家診療所","categoryId":"medical","categoryLabel":"医疗","lat":35.717759,"lng":139.554425,"stationId":"station-003409","note":"内　皮","count":1,"level":"detail"},{"id":"medical-3-17875","name":"田辺歯科医院","categoryId":"medical","categoryLabel":"医疗","lat":35.704018,"lng":139.533993,"stationId":"station-003592","note":"歯　歯外　小歯","count":1,"level":"detail"},{"id":"medical-1-14130","name":"社会福祉法人　聖ヨハネ会　桜町病院","categoryId":"medical","categoryLabel":"医疗","lat":35.709929,"lng":139.511382,"stationId":"station-003594","note":"内科　小児科　精神科　神経科　外科　整形外科　脳神経外科　産婦人科　眼科　リハビリ科　麻酔科　糖尿病　代謝内科　呼吸器内科　循環器内科　消化器内科","count":1,"level":"detail"},{"id":"medical-2-14192","name":"社会福祉法人東京老人ホーム診療所","categoryId":"medical","categoryLabel":"医疗","lat":35.721229,"lng":139.550698,"stationId":"station-003409","note":"内　整　消　呼　外　循　神","count":1,"level":"detail"},{"id":"medical-2-15447","name":"神保整形外科","categoryId":"medical","categoryLabel":"医疗","lat":35.704019,"lng":139.507455,"stationId":"station-003594","note":"整　リハ","count":1,"level":"detail"},{"id":"medical-3-14294","name":"秋本スマイル歯科","categoryId":"medical","categoryLabel":"医疗","lat":35.700503,"lng":139.546253,"stationId":"station-003592","note":"歯　小歯　矯　歯外","count":1,"level":"detail"},{"id":"medical-3-14296","name":"秋本歯科医院","categoryId":"medical","categoryLabel":"医疗","lat":35.70266,"lng":139.544648,"stationId":"station-003592","note":"歯　小歯　矯","count":1,"level":"detail"},{"id":"medical-2-13967","name":"耳鼻咽喉科　青木クリニック","categoryId":"medical","categoryLabel":"医疗","lat":35.702705,"lng":139.542999,"stationId":"station-003592","note":"耳　気　ア","count":1,"level":"detail"},{"id":"medical-3-11699","name":"菊田歯科医院","categoryId":"medical","categoryLabel":"医疗","lat":35.703572,"lng":139.525406,"stationId":"station-003594","note":"歯　歯科口腔外科　小児歯科　矯正歯科","count":1,"level":"detail"},{"id":"medical-2-13318","name":"財満皮膚科クリニック","categoryId":"medical","categoryLabel":"医疗","lat":35.700484,"lng":139.545014,"stationId":"station-003592","note":"皮","count":1,"level":"detail"},{"id":"medical-3-12103","name":"金井歯科医院","categoryId":"medical","categoryLabel":"医疗","lat":35.705359,"lng":139.513417,"stationId":"station-003594","note":"歯　矯","count":1,"level":"detail"},{"id":"medical-2-20604","name":"鈴木眼科","categoryId":"medical","categoryLabel":"医疗","lat":35.701031,"lng":139.54479,"stationId":"station-003592","note":"眼","count":1,"level":"detail"},{"id":"medical-3-17594","name":"長崎歯科医院","categoryId":"medical","categoryLabel":"医疗","lat":35.702095,"lng":139.523228,"stationId":"station-003594","note":"歯　歯外　小歯　矯","count":1,"level":"detail"},{"id":"medical-2-16037","name":"青木小児科医院","categoryId":"medical","categoryLabel":"医疗","lat":35.707031,"lng":139.538081,"stationId":"station-003592","note":"小　内","count":1,"level":"detail"},{"id":"medical-2-20845","name":"髙見澤整形外科クリニック","categoryId":"medical","categoryLabel":"医疗","lat":35.702108,"lng":139.527234,"stationId":"station-003594","note":"整外　リハ　リウ","count":1,"level":"detail"},{"id":"public-13229-22726","name":"上向台市民集会所","categoryId":"public_service","categoryLabel":"公共服务","lat":35.720485,"lng":139.527772,"stationId":"station-003423","note":"西東京市向台町6-1-14","count":1,"level":"detail"},{"id":"public-13204-22568","name":"上連雀堀合地区公会堂","categoryId":"public_service","categoryLabel":"公共服务","lat":35.702835,"lng":139.55324,"stationId":"station-003587","note":"三鷹市上連雀1-15-15","count":1,"level":"detail"},{"id":"public-13229-22713","name":"向台コミュニティセンター","categoryId":"public_service","categoryLabel":"公共服务","lat":35.718713,"lng":139.541029,"stationId":"station-003423","note":"西東京市向台町2-13-12","count":1,"level":"detail"},{"id":"public-13229-22710","name":"向台地区会館","categoryId":"public_service","categoryLabel":"公共服务","lat":35.71872,"lng":139.540888,"stationId":"station-003423","note":"西東京市向台町2-13-12","count":1,"level":"detail"},{"id":"public-13203-22529","name":"地域活動支援センターコット","categoryId":"public_service","categoryLabel":"公共服务","lat":35.704435,"lng":139.54491,"stationId":"station-003592","note":"武蔵野市境1-9-9温泉通りビル207","count":1,"level":"detail"},{"id":"public-13210-22645","name":"婦人会館","categoryId":"public_service","categoryLabel":"公共服务","lat":35.704954,"lng":139.526484,"stationId":"station-003594","note":"小金井市梶野町5-10-32","count":1,"level":"detail"},{"id":"public-13229-22721","name":"新町福祉会館","categoryId":"public_service","categoryLabel":"公共服务","lat":35.712894,"lng":139.536326,"stationId":"station-003592","note":"西東京市新町5-2-7","count":1,"level":"detail"},{"id":"public-13210-22652","name":"本町分館","categoryId":"public_service","categoryLabel":"公共服务","lat":35.705467,"lng":139.510621,"stationId":"station-003594","note":"小金井市本町2-15-11","count":1,"level":"detail"},{"id":"public-13210-22650","name":"東小金井駅開設記念会館","categoryId":"public_service","categoryLabel":"公共服务","lat":35.700265,"lng":139.52905,"stationId":"station-003594","note":"小金井市東町3-7-21","count":1,"level":"detail"},{"id":"public-13229-22719","name":"柳橋出張所","categoryId":"public_service","categoryLabel":"公共服务","lat":35.714798,"lng":139.544823,"stationId":"station-003592","note":"西東京市新町1-4-25","count":1,"level":"detail"},{"id":"public-13229-22720","name":"柳橋第二市民集会所","categoryId":"public_service","categoryLabel":"公共服务","lat":35.714927,"lng":139.54489,"stationId":"station-003592","note":"西東京市新町1-4-25","count":1,"level":"detail"},{"id":"public-13229-22762","name":"柳沢第三市民集会所","categoryId":"public_service","categoryLabel":"公共服务","lat":35.72238,"lng":139.554297,"stationId":"station-003409","note":"西東京市柳沢3-4-7","count":1,"level":"detail"},{"id":"public-13210-22649","name":"桜並集会所","categoryId":"public_service","categoryLabel":"公共服务","lat":35.700151,"lng":139.512649,"stationId":"station-003594","note":"小金井市中町3-19-12","count":1,"level":"detail"},{"id":"public-13203-22528","name":"武蔵境市政センター","categoryId":"public_service","categoryLabel":"公共服务","lat":35.704146,"lng":139.543238,"stationId":"station-003592","note":"武蔵野市境1-1-7","count":1,"level":"detail"},{"id":"public-13203-22530","name":"武蔵野スイングホール","categoryId":"public_service","categoryLabel":"公共服务","lat":35.702587,"lng":139.542903,"stationId":"station-003592","note":"武蔵野市境2-14-1","count":1,"level":"detail"},{"id":"public-13203-22531","name":"武蔵野市民会館","categoryId":"public_service","categoryLabel":"公共服务","lat":35.705299,"lng":139.543268,"stationId":"station-003592","note":"武蔵野市境2-3-7","count":1,"level":"detail"},{"id":"public-13229-22743","name":"田無柳沢児童センター","categoryId":"public_service","categoryLabel":"公共服务","lat":35.721147,"lng":139.546906,"stationId":"station-003409","note":"西東京市向台町1-7-25","count":1,"level":"detail"},{"id":"public-13229-22745","name":"老人憩いの家おあしす","categoryId":"public_service","categoryLabel":"公共服务","lat":35.722497,"lng":139.542723,"stationId":"station-003423","note":"西東京市南町3-18-40","count":1,"level":"detail"},{"id":"public-13203-22532","name":"西部コミュニティセンター","categoryId":"public_service","categoryLabel":"公共服务","lat":35.706654,"lng":139.535455,"stationId":"station-003592","note":"武蔵野市境5-6-20","count":1,"level":"detail"},{"id":"public-13203-22512","name":"関前コミュニティセンター","categoryId":"public_service","categoryLabel":"公共服务","lat":35.712862,"lng":139.549079,"stationId":"station-003592","note":"武蔵野市関前2-26-10","count":1,"level":"detail"},{"id":"public-13203-22513","name":"関前コミュニティセンター分館","categoryId":"public_service","categoryLabel":"公共服务","lat":35.71417,"lng":139.554378,"stationId":"station-003587","note":"武蔵野市関前3-16-6","count":1,"level":"detail"},{"id":"public-13203-22521","name":"障害者福祉センター","categoryId":"public_service","categoryLabel":"公共服务","lat":35.720011,"lng":139.554461,"stationId":"station-003409","note":"武蔵野市八幡町4-28-13","count":1,"level":"detail"},{"id":"public-13229-22711","name":"総合体育館","categoryId":"sports","categoryLabel":"体育设施","lat":35.720033,"lng":139.529966,"stationId":"station-003423","note":"西東京市向台町5-4-20","count":1,"level":"detail"}]
