[{"id":"public-13229-22740","name":"保谷駅前公民館","categoryId":"community","categoryLabel":"社区设施","lat":35.747854,"lng":139.567373,"stationId":"station-003271","note":"西東京市東町3-14-30","count":1,"level":"detail"},{"id":"public-13120-22212","name":"南大泉地区区民館","categoryId":"community","categoryLabel":"社区设施","lat":35.73912,"lng":139.570393,"stationId":"station-003271","note":"練馬区南大泉2-19-26","count":1,"level":"detail"},{"id":"public-13120-22164","name":"関町北地区区民館","categoryId":"community","categoryLabel":"社区设施","lat":35.729804,"lng":139.577063,"stationId":"station-003419","note":"練馬区関町北4-12-21","count":1,"level":"detail"},{"id":"medical-3-826","name":"いくたま歯科医院","categoryId":"medical","categoryLabel":"医疗","lat":35.749782,"lng":139.56684,"stationId":"station-003271","note":"歯　小歯　歯外","count":1,"level":"detail"},{"id":"medical-3-855","name":"いしかわ歯科医院","categoryId":"medical","categoryLabel":"医疗","lat":35.74698,"lng":139.58153,"stationId":"station-003263","note":"歯科　小児歯科","count":1,"level":"detail"},{"id":"medical-3-859","name":"いしざわ歯科医院","categoryId":"medical","categoryLabel":"医疗","lat":35.727822,"lng":139.576638,"stationId":"station-003419","note":"歯科　小児歯科　歯科口腔外科　矯正歯科","count":1,"level":"detail"},{"id":"medical-2-874","name":"いずみの眼科クリニック","categoryId":"medical","categoryLabel":"医疗","lat":35.748624,"lng":139.586186,"stationId":"station-003263","note":"眼","count":1,"level":"detail"},{"id":"medical-3-904","name":"いづみ歯科","categoryId":"medical","categoryLabel":"医疗","lat":35.748178,"lng":139.588678,"stationId":"station-003263","note":"歯科　小児歯科","count":1,"level":"detail"},{"id":"medical-3-935","name":"いのうえ歯科クリニック","categoryId":"medical","categoryLabel":"医疗","lat":35.748519,"lng":139.56706,"stationId":"station-003271","note":"歯","count":1,"level":"detail"},{"id":"medical-2-1071","name":"うんのクリニック","categoryId":"medical","categoryLabel":"医疗","lat":35.747644,"lng":139.568731,"stationId":"station-003271","note":"内　消化器　皮　小児　アレルギー","count":1,"level":"detail"},{"id":"medical-3-1119","name":"えのもと歯科クリニック","categoryId":"medical","categoryLabel":"医疗","lat":35.749964,"lng":139.588374,"stationId":"station-003263","note":"歯科　小児歯科　歯科口腔外科　矯正歯科","count":1,"level":"detail"},{"id":"medical-3-1183","name":"おおうち矯正歯科小児歯科クリニック","categoryId":"medical","categoryLabel":"医疗","lat":35.729087,"lng":139.563392,"stationId":"station-003408","note":"歯　矯　小歯","count":1,"level":"detail"},{"id":"medical-2-1555","name":"かわさき内科糖尿病クリニック","categoryId":"medical","categoryLabel":"医疗","lat":35.747767,"lng":139.583261,"stationId":"station-003263","note":"内　糖尿病内　循環器内","count":1,"level":"detail"},{"id":"medical-2-1659","name":"くどうクローバークリニック","categoryId":"medical","categoryLabel":"医疗","lat":35.726667,"lng":139.577176,"stationId":"station-003419","note":"内　神経内　小児","count":1,"level":"detail"},{"id":"medical-2-1662","name":"くにた眼科医院","categoryId":"medical","categoryLabel":"医疗","lat":35.727281,"lng":139.575411,"stationId":"station-003419","note":"眼","count":1,"level":"detail"},{"id":"medical-3-1846","name":"こぐち歯科","categoryId":"medical","categoryLabel":"医疗","lat":35.728203,"lng":139.58561,"stationId":"station-003427","note":"歯科　小児歯科　矯正歯科　歯科口腔外科","count":1,"level":"detail"},{"id":"medical-2-1936","name":"こばやし泌尿器科・皮膚科","categoryId":"medical","categoryLabel":"医疗","lat":35.747767,"lng":139.583261,"stationId":"station-003263","note":"泌尿器　皮　アレルギー","count":1,"level":"detail"},{"id":"medical-2-1954","name":"こまつ皮フ科クリニック","categoryId":"medical","categoryLabel":"医疗","lat":35.74905,"lng":139.567351,"stationId":"station-003271","note":"皮","count":1,"level":"detail"},{"id":"medical-2-1907","name":"ごとう内科","categoryId":"medical","categoryLabel":"医疗","lat":35.728605,"lng":139.561232,"stationId":"station-003408","note":"内　呼　ア　小","count":1,"level":"detail"},{"id":"medical-3-2005","name":"さいとう歯科ファミリーメンテナンスルーム","categoryId":"medical","categoryLabel":"医疗","lat":35.749769,"lng":139.564538,"stationId":"station-003271","note":"歯　小歯　矯","count":1,"level":"detail"},{"id":"medical-2-2057","name":"さくらい泌尿器科クリニック","categoryId":"medical","categoryLabel":"医疗","lat":35.733149,"lng":139.579605,"stationId":"station-003419","note":"泌尿器　内","count":1,"level":"detail"},{"id":"medical-2-2150","name":"さとう内科医院","categoryId":"medical","categoryLabel":"医疗","lat":35.732106,"lng":139.58363,"stationId":"station-003419","note":"内　循環器内","count":1,"level":"detail"},{"id":"medical-2-2247","name":"しのだ整形外科皮膚科","categoryId":"medical","categoryLabel":"医疗","lat":35.732106,"lng":139.58363,"stationId":"station-003419","note":"整形　リハビリ　皮　小児皮","count":1,"level":"detail"},{"id":"medical-3-2253","name":"しのはら歯科医院","categoryId":"medical","categoryLabel":"医疗","lat":35.727442,"lng":139.574105,"stationId":"station-003419","note":"歯科　小児歯科","count":1,"level":"detail"},{"id":"medical-3-2357","name":"しんみ歯科　石神井台","categoryId":"medical","categoryLabel":"医疗","lat":35.732106,"lng":139.58363,"stationId":"station-003419","note":"歯科　小児歯科　矯正歯科　歯科口腔外科","count":1,"level":"detail"},{"id":"medical-3-2349","name":"じんお歯科","categoryId":"medical","categoryLabel":"医疗","lat":35.733969,"lng":139.57685,"stationId":"station-003419","note":"歯科　小児歯科　歯科口腔外科　矯正歯科","count":1,"level":"detail"},{"id":"medical-3-2618","name":"たかはし歯科クリニック","categoryId":"medical","categoryLabel":"医疗","lat":35.726974,"lng":139.576027,"stationId":"station-003419","note":"歯科　小児歯科　矯正歯科","count":1,"level":"detail"},{"id":"medical-3-2620","name":"たかはし歯科医院","categoryId":"medical","categoryLabel":"医疗","lat":35.747245,"lng":139.582547,"stationId":"station-003263","note":"歯科　小児歯科　矯正歯科","count":1,"level":"detail"},{"id":"medical-3-2652","name":"たきもと歯科医院","categoryId":"medical","categoryLabel":"医疗","lat":35.747161,"lng":139.563404,"stationId":"station-003271","note":"歯　小歯　矯　歯外","count":1,"level":"detail"},{"id":"medical-2-2675","name":"たけ整形外科","categoryId":"medical","categoryLabel":"医疗","lat":35.735656,"lng":139.589281,"stationId":"station-003427","note":"整形　リハビリ　内　外　リウマチ　皮　放射線","count":1,"level":"detail"},{"id":"medical-2-2799","name":"つくしこどもクリニック","categoryId":"medical","categoryLabel":"医疗","lat":35.739327,"lng":139.565625,"stationId":"station-003271","note":"小　ア","count":1,"level":"detail"},{"id":"medical-2-2823","name":"つながわ整形外科・ペインクリニック","categoryId":"medical","categoryLabel":"医疗","lat":35.739327,"lng":139.565625,"stationId":"station-003271","note":"整　リハ　ペ外　リウ","count":1,"level":"detail"},{"id":"medical-2-2865","name":"てらもとクリニック","categoryId":"medical","categoryLabel":"医疗","lat":35.736475,"lng":139.576227,"stationId":"station-003419","note":"内　消化器内　外　麻酔　ペインクリニック内","count":1,"level":"detail"},{"id":"medical-3-3119","name":"なかまち歯科クリニック","categoryId":"medical","categoryLabel":"医疗","lat":35.735654,"lng":139.560785,"stationId":"station-003408","note":"歯　小歯","count":1,"level":"detail"},{"id":"medical-2-3271","name":"のじり内科クリニック","categoryId":"medical","categoryLabel":"医疗","lat":35.725764,"lng":139.58842,"stationId":"station-003427","note":"内　循環器内　消化器内　呼吸器内","count":1,"level":"detail"},{"id":"medical-3-3488","name":"ひかり歯科医院","categoryId":"medical","categoryLabel":"医疗","lat":35.748797,"lng":139.569184,"stationId":"station-003271","note":"歯科　小児歯科","count":1,"level":"detail"},{"id":"medical-3-3556","name":"ひやま歯科医院","categoryId":"medical","categoryLabel":"医疗","lat":35.747239,"lng":139.568823,"stationId":"station-003271","note":"歯科　小児歯科　歯科口腔外科","count":1,"level":"detail"},{"id":"medical-3-3782","name":"ほうやデンタルクリニック","categoryId":"medical","categoryLabel":"医疗","lat":35.74883,"lng":139.568652,"stationId":"station-003271","note":"歯科　小児歯科　歯科口腔外科","count":1,"level":"detail"},{"id":"medical-3-3814","name":"ほりうち歯科医院","categoryId":"medical","categoryLabel":"医疗","lat":35.734213,"lng":139.568741,"stationId":"station-003408","note":"歯　小歯　歯外","count":1,"level":"detail"},{"id":"medical-2-3925","name":"まつばらホームクリニック","categoryId":"medical","categoryLabel":"医疗","lat":35.746399,"lng":139.566417,"stationId":"station-003271","note":"内　循内","count":1,"level":"detail"},{"id":"medical-2-3992","name":"みかみ耳鼻咽喉科","categoryId":"medical","categoryLabel":"医疗","lat":35.748781,"lng":139.585542,"stationId":"station-003263","note":"耳鼻科　アレルギー","count":1,"level":"detail"},{"id":"medical-3-4033","name":"みたに歯科医院","categoryId":"medical","categoryLabel":"医疗","lat":35.730002,"lng":139.57977,"stationId":"station-003419","note":"歯科　小児歯科　矯正歯科　歯科口腔外科","count":1,"level":"detail"},{"id":"medical-3-4071","name":"みのりデンタルクリニック","categoryId":"medical","categoryLabel":"医疗","lat":35.747066,"lng":139.575716,"stationId":"station-003271","note":"歯科　小児歯科　歯科口腔外科","count":1,"level":"detail"},{"id":"medical-3-4105","name":"みやもと歯科医院","categoryId":"medical","categoryLabel":"医疗","lat":35.73191,"lng":139.581326,"stationId":"station-003419","note":"歯科　小児歯科　矯正歯科　歯科口腔外科","count":1,"level":"detail"},{"id":"medical-3-4155","name":"むなかた歯科医院","categoryId":"medical","categoryLabel":"医疗","lat":35.728839,"lng":139.57659,"stationId":"station-003419","note":"歯科　小児歯科　歯科口腔外科　矯正歯科","count":1,"level":"detail"},{"id":"medical-2-4279","name":"やすひさ内科クリニック","categoryId":"medical","categoryLabel":"医疗","lat":35.748624,"lng":139.586186,"stationId":"station-003263","note":"内　呼吸器内　アレルギー","count":1,"level":"detail"},{"id":"medical-3-4341","name":"やまもと歯科","categoryId":"medical","categoryLabel":"医疗","lat":35.748781,"lng":139.584331,"stationId":"station-003263","note":"歯科　小児歯科　歯科口腔外科","count":1,"level":"detail"},{"id":"medical-3-4409","name":"ゆめりあ矯正歯科クリニック","categoryId":"medical","categoryLabel":"医疗","lat":35.749267,"lng":139.585528,"stationId":"station-003263","note":"矯正歯科","count":1,"level":"detail"},{"id":"medical-3-659","name":"アップル歯科クリニック","categoryId":"medical","categoryLabel":"医疗","lat":35.727692,"lng":139.564237,"stationId":"station-003408","note":"歯　小歯　矯　歯外","count":1,"level":"detail"},{"id":"medical-3-680","name":"アベニュー歯科クリニック大泉学園","categoryId":"medical","categoryLabel":"医疗","lat":35.747253,"lng":139.582218,"stationId":"station-003263","note":"歯科　小児歯科　矯正歯科　歯科口腔外科","count":1,"level":"detail"},{"id":"medical-3-1786","name":"ケイタデンタルクリニック","categoryId":"medical","categoryLabel":"医疗","lat":35.748197,"lng":139.571945,"stationId":"station-003271","note":"歯科　小児歯科　歯科口腔外科","count":1,"level":"detail"},{"id":"medical-3-2157","name":"サニースマイル歯科クリニック","categoryId":"medical","categoryLabel":"医疗","lat":35.726654,"lng":139.577179,"stationId":"station-003419","note":"歯科　小児歯科　矯正歯科","count":1,"level":"detail"},{"id":"medical-3-3088","name":"ナカジマデンタルクリニック","categoryId":"medical","categoryLabel":"医疗","lat":35.741609,"lng":139.565707,"stationId":"station-003271","note":"歯　小歯　矯","count":1,"level":"detail"},{"id":"medical-3-3403","name":"ハニーデンタルクリニック","categoryId":"medical","categoryLabel":"医疗","lat":35.725751,"lng":139.589473,"stationId":"station-003427","note":"歯科　歯科口腔外科　矯正歯科　小児歯科","count":1,"level":"detail"},{"id":"medical-3-3436","name":"バランス歯科","categoryId":"medical","categoryLabel":"医疗","lat":35.726894,"lng":139.575613,"stationId":"station-003419","note":"歯科","count":1,"level":"detail"},{"id":"medical-2-10738","name":"一般社団法人健陽会　日健クリニック","categoryId":"medical","categoryLabel":"医疗","lat":35.727453,"lng":139.573379,"stationId":"station-003419","note":"内","count":1,"level":"detail"},{"id":"medical-2-11122","name":"下田内科クリニック","categoryId":"medical","categoryLabel":"医疗","lat":35.732818,"lng":139.560389,"stationId":"station-003408","note":"内　消　リハ","count":1,"level":"detail"},{"id":"medical-2-11862","name":"久内医院","categoryId":"medical","categoryLabel":"医疗","lat":35.74258,"lng":139.559701,"stationId":"station-003271","note":"内　消内　糖内","count":1,"level":"detail"},{"id":"medical-2-15483","name":"仁徳クリニック","categoryId":"medical","categoryLabel":"医疗","lat":35.736731,"lng":139.565676,"stationId":"station-003408","note":"内　胃　小","count":1,"level":"detail"},{"id":"medical-3-13193","name":"佐々木歯科医院","categoryId":"medical","categoryLabel":"医疗","lat":35.747289,"lng":139.566698,"stationId":"station-003271","note":"歯科　小児歯科　歯科口腔外科","count":1,"level":"detail"},{"id":"medical-3-13214","name":"佐田歯科医院","categoryId":"medical","categoryLabel":"医疗","lat":35.738016,"lng":139.569255,"stationId":"station-003271","note":"歯科","count":1,"level":"detail"},{"id":"medical-3-13233","name":"佐藤歯科医院","categoryId":"medical","categoryLabel":"医疗","lat":35.747889,"lng":139.572505,"stationId":"station-003271","note":"歯科　小児歯科　矯正歯科　歯科口腔外科","count":1,"level":"detail"},{"id":"medical-2-19772","name":"保谷メンタルクリニック","categoryId":"medical","categoryLabel":"医疗","lat":35.748222,"lng":139.568568,"stationId":"station-003271","note":"心内　精","count":1,"level":"detail"},{"id":"medical-2-19774","name":"保谷医院","categoryId":"medical","categoryLabel":"医疗","lat":35.748495,"lng":139.572113,"stationId":"station-003271","note":"内　腎臓内　糖尿病内　循環器内　胃腸内　整形　リハビリ","count":1,"level":"detail"},{"id":"medical-3-19778","name":"保谷歯科口腔外科クリニック","categoryId":"medical","categoryLabel":"医疗","lat":35.747638,"lng":139.568416,"stationId":"station-003271","note":"歯科　歯科口腔外科　小児歯科","count":1,"level":"detail"},{"id":"medical-2-19776","name":"保谷駅前つだ眼科","categoryId":"medical","categoryLabel":"医疗","lat":35.748222,"lng":139.568568,"stationId":"station-003271","note":"眼","count":1,"level":"detail"},{"id":"medical-2-19775","name":"保谷駅前クリニック","categoryId":"medical","categoryLabel":"医疗","lat":35.747501,"lng":139.567809,"stationId":"station-003271","note":"内　呼吸器内　循環器内　消化器内　内視鏡内　腎臓内　人工透析内　泌尿器　皮　小児　アレルギー　整形","count":1,"level":"detail"},{"id":"medical-2-12430","name":"兼子耳鼻咽喉科医院","categoryId":"medical","categoryLabel":"医疗","lat":35.728535,"lng":139.563291,"stationId":"station-003408","note":"耳　気　ア","count":1,"level":"detail"},{"id":"medical-2-11159","name":"加藤クリニック","categoryId":"medical","categoryLabel":"医疗","lat":35.727139,"lng":139.57665,"stationId":"station-003419","note":"内　胃腸　消化器　循環器　呼吸器","count":1,"level":"detail"},{"id":"medical-3-5451","name":"医療法人社団　国手会　五十嵐歯科医院","categoryId":"medical","categoryLabel":"医疗","lat":35.729449,"lng":139.565267,"stationId":"station-003408","note":"歯　小歯　歯外","count":1,"level":"detail"},{"id":"medical-2-5791","name":"医療法人社団　川満惠光会　川満外科","categoryId":"medical","categoryLabel":"医疗","lat":35.748139,"lng":139.58554,"stationId":"station-003263","note":"内科　胃腸科　外科　整形外科　肛門科","count":1,"level":"detail"},{"id":"medical-1-5586","name":"医療法人社団　純正会　東大泉病院","categoryId":"medical","categoryLabel":"医疗","lat":35.746665,"lng":139.579562,"stationId":"station-003263","note":"内科","count":1,"level":"detail"},{"id":"medical-1-5255","name":"医療法人社団　花みずき会　保谷厚生病院","categoryId":"medical","categoryLabel":"医疗","lat":35.748582,"lng":139.557308,"stationId":"station-003271","note":"内科　呼吸器内科　消化器内科　循環器内科　リウマチ科　外科　整形外科　脳神経外科　呼吸器外科　心臓血管外科　眼科　泌尿器科　リハビリ科　放射線科　麻酔科　糖尿病内科　皮膚科","count":1,"level":"detail"},{"id":"medical-2-6478","name":"医療法人社団こいし会関町ゆいクリニック","categoryId":"medical","categoryLabel":"医疗","lat":35.72658,"lng":139.576485,"stationId":"station-003419","note":"外　整形　心外　内　循環器　皮　糖尿病内　リウマチ　老内","count":1,"level":"detail"},{"id":"medical-2-6638","name":"医療法人社団なごみ会つかさクリニック","categoryId":"medical","categoryLabel":"医疗","lat":35.749814,"lng":139.587156,"stationId":"station-003263","note":"内　消化器内　小児　外　皮　リハビリ","count":1,"level":"detail"},{"id":"medical-2-6328","name":"医療法人社団アイディーエスじぶクリニック","categoryId":"medical","categoryLabel":"医疗","lat":35.731866,"lng":139.581421,"stationId":"station-003419","note":"胃腸内　内　外　肛門外　小児　麻　精神","count":1,"level":"detail"},{"id":"medical-2-6399","name":"医療法人社団エキップ　みわ内科クリニック","categoryId":"medical","categoryLabel":"医疗","lat":35.749695,"lng":139.567418,"stationId":"station-003271","note":"内　神内","count":1,"level":"detail"},{"id":"medical-3-6618","name":"医療法人社団デンタルケアコミュニティ　フォレストデンタルクリニック","categoryId":"medical","categoryLabel":"医疗","lat":35.744668,"lng":139.565333,"stationId":"station-003271","note":"歯　小歯　矯　歯外","count":1,"level":"detail"},{"id":"medical-2-6705","name":"医療法人社団フォルトゥナメディカル　石神井台アイクリニック","categoryId":"medical","categoryLabel":"医疗","lat":35.732106,"lng":139.58363,"stationId":"station-003419","note":"眼","count":1,"level":"detail"},{"id":"medical-2-6973","name":"医療法人社団一位会木村医院","categoryId":"medical","categoryLabel":"医疗","lat":35.729683,"lng":139.57977,"stationId":"station-003419","note":"内　外　小児　小児外　放射線","count":1,"level":"detail"},{"id":"medical-2-6981","name":"医療法人社団一修会　富田いきいきクリニック","categoryId":"medical","categoryLabel":"医疗","lat":35.728082,"lng":139.577937,"stationId":"station-003419","note":"内　外　脳外","count":1,"level":"detail"},{"id":"medical-3-6978","name":"医療法人社団一康会橋本歯科","categoryId":"medical","categoryLabel":"医疗","lat":35.739413,"lng":139.579008,"stationId":"station-003263","note":"歯科　小児歯科　矯正歯科　歯科口腔外科","count":1,"level":"detail"},{"id":"medical-3-8017","name":"医療法人社団三栄会東大泉歯科医院","categoryId":"medical","categoryLabel":"医疗","lat":35.749937,"lng":139.586444,"stationId":"station-003263","note":"歯科","count":1,"level":"detail"},{"id":"medical-2-9868","name":"医療法人社団保谷中央医院","categoryId":"medical","categoryLabel":"医疗","lat":35.744666,"lng":139.562447,"stationId":"station-003271","note":"内　小","count":1,"level":"detail"},{"id":"medical-2-7518","name":"医療法人社団健功会　山川クリニック","categoryId":"medical","categoryLabel":"医疗","lat":35.747034,"lng":139.580598,"stationId":"station-003263","note":"脳外　神経内　整形　内　外","count":1,"level":"detail"},{"id":"medical-2-7584","name":"医療法人社団健和会斎藤整形外科医院","categoryId":"medical","categoryLabel":"医疗","lat":35.749224,"lng":139.588348,"stationId":"station-003263","note":"整形　リハビリ","count":1,"level":"detail"},{"id":"medical-2-7575","name":"医療法人社団健文会小林クリニック","categoryId":"medical","categoryLabel":"医疗","lat":35.745636,"lng":139.580315,"stationId":"station-003263","note":"内　胃腸　リハビリ","count":1,"level":"detail"},{"id":"medical-2-10079","name":"医療法人社団優夏会　川村内科クリニック","categoryId":"medical","categoryLabel":"医疗","lat":35.74938,"lng":139.57416,"stationId":"station-003271","note":"内　小児","count":1,"level":"detail"},{"id":"medical-2-10114","name":"医療法人社団優腎会優人大泉学園クリニック","categoryId":"medical","categoryLabel":"医疗","lat":35.749808,"lng":139.587326,"stationId":"station-003263","note":"内","count":1,"level":"detail"},{"id":"medical-2-7704","name":"医療法人社団向笑会花岡由美子女性サンテクリニック","categoryId":"medical","categoryLabel":"医疗","lat":35.746835,"lng":139.586396,"stationId":"station-003263","note":"産婦　内　皮","count":1,"level":"detail"},{"id":"medical-2-7337","name":"医療法人社団啓厚会　おぎた内科クリニック","categoryId":"medical","categoryLabel":"医疗","lat":35.746705,"lng":139.563379,"stationId":"station-003271","note":"内　循　ア","count":1,"level":"detail"},{"id":"medical-2-7352","name":"医療法人社団啓生会　千賀整形外科","categoryId":"medical","categoryLabel":"医疗","lat":35.729275,"lng":139.56582,"stationId":"station-003408","note":"整　リハ","count":1,"level":"detail"},{"id":"medical-3-8238","name":"医療法人社団実頼会池田歯科クリニック","categoryId":"medical","categoryLabel":"医疗","lat":35.72808,"lng":139.576286,"stationId":"station-003419","note":"歯科　小児歯科　矯正歯科","count":1,"level":"detail"},{"id":"medical-2-7106","name":"医療法人社団岡田医院","categoryId":"medical","categoryLabel":"医疗","lat":35.725039,"lng":139.578476,"stationId":"station-003419","note":"内　循環器内","count":1,"level":"detail"},{"id":"medical-2-7819","name":"医療法人社団弘希会長嶺医院","categoryId":"medical","categoryLabel":"医疗","lat":35.739204,"lng":139.578973,"stationId":"station-003419","note":"内　消化器　小児　外","count":1,"level":"detail"},{"id":"medical-2-7827","name":"医療法人社団弘順会大井手クリニック","categoryId":"medical","categoryLabel":"医疗","lat":35.747225,"lng":139.589734,"stationId":"station-003263","note":"内　消化器内　肝臓内　呼吸器内　小児","count":1,"level":"detail"},{"id":"medical-2-9603","name":"医療法人社団徳枝会　佐藤皮膚科小児科クリニック","categoryId":"medical","categoryLabel":"医疗","lat":35.726522,"lng":139.577448,"stationId":"station-003419","note":"皮　小児","count":1,"level":"detail"},{"id":"medical-2-7362","name":"医療法人社団恵瑛会上杉耳鼻咽喉科医院","categoryId":"medical","categoryLabel":"医疗","lat":35.747264,"lng":139.571074,"stationId":"station-003271","note":"耳鼻科　気　小児","count":1,"level":"detail"},{"id":"medical-2-7365","name":"医療法人社団恵香会　やまぐち眼科クリニック","categoryId":"medical","categoryLabel":"医疗","lat":35.749814,"lng":139.587156,"stationId":"station-003263","note":"眼","count":1,"level":"detail"},{"id":"medical-3-7478","name":"医療法人社団敬世会　富士町歯科クリニック","categoryId":"medical","categoryLabel":"医疗","lat":35.729045,"lng":139.563828,"stationId":"station-003408","note":"歯　小歯　矯　歯外","count":1,"level":"detail"},{"id":"medical-2-9110","name":"医療法人社団斉藤小児科内科クリニック","categoryId":"medical","categoryLabel":"医疗","lat":35.74951,"lng":139.565438,"stationId":"station-003271","note":"内　小　ア","count":1,"level":"detail"},{"id":"medical-2-9975","name":"医療法人社団明葵会　保谷整形外科","categoryId":"medical","categoryLabel":"医疗","lat":35.748006,"lng":139.568862,"stationId":"station-003271","note":"整　リハ","count":1,"level":"detail"},{"id":"medical-2-8868","name":"医療法人社団晴英会　西東京ペインクリニック","categoryId":"medical","categoryLabel":"医疗","lat":35.747732,"lng":139.566204,"stationId":"station-003271","note":"疼内　整　麻","count":1,"level":"detail"},{"id":"medical-2-10176","name":"医療法人社団有実会　はやし内科クリニック","categoryId":"medical","categoryLabel":"医疗","lat":35.739327,"lng":139.565625,"stationId":"station-003271","note":"内　消内　糖内","count":1,"level":"detail"},{"id":"medical-2-8507","name":"医療法人社団松和会大泉学園クリニック","categoryId":"medical","categoryLabel":"医疗","lat":35.748624,"lng":139.586186,"stationId":"station-003263","note":"内　腎臓内　透内","count":1,"level":"detail"},{"id":"medical-2-8491","name":"医療法人社団松生会臼杵クリニック","categoryId":"medical","categoryLabel":"医疗","lat":35.746886,"lng":139.570281,"stationId":"station-003271","note":"内　小児　皮","count":1,"level":"detail"},{"id":"medical-2-9563","name":"医療法人社団桃隆会　サノ皮膚科クリニック","categoryId":"medical","categoryLabel":"医疗","lat":35.748624,"lng":139.586186,"stationId":"station-003263","note":"皮","count":1,"level":"detail"},{"id":"medical-2-8815","name":"医療法人社団澄笛会竹下医院","categoryId":"medical","categoryLabel":"医疗","lat":35.749213,"lng":139.568331,"stationId":"station-003271","note":"内　外　形成　歯科","count":1,"level":"detail"},{"id":"medical-2-8797","name":"医療法人社団瑞朋会　富士クリニック","categoryId":"medical","categoryLabel":"医疗","lat":35.730177,"lng":139.566724,"stationId":"station-003408","note":"内　リウ　消　循　小","count":1,"level":"detail"},{"id":"medical-3-8968","name":"医療法人社団生康会生田ブライト歯科クリニック","categoryId":"medical","categoryLabel":"医疗","lat":35.725376,"lng":139.585165,"stationId":"station-003427","note":"歯科","count":1,"level":"detail"},{"id":"medical-3-9837","name":"医療法人社団福徳会ありふく歯科医院","categoryId":"medical","categoryLabel":"医疗","lat":35.743388,"lng":139.575834,"stationId":"station-003271","note":"歯科","count":1,"level":"detail"},{"id":"medical-3-9822","name":"医療法人社団福慈会　フジニカ歯科","categoryId":"medical","categoryLabel":"医疗","lat":35.730181,"lng":139.565976,"stationId":"station-003408","note":"歯　小歯　矯　歯外","count":1,"level":"detail"},{"id":"medical-2-8527","name":"医療法人社団章曜会　宇佐美整形外科医院","categoryId":"medical","categoryLabel":"医疗","lat":35.74986,"lng":139.565428,"stationId":"station-003271","note":"内　外　整　リハ","count":1,"level":"detail"},{"id":"medical-3-9766","name":"医療法人社団美幸会　畑中歯科医院","categoryId":"medical","categoryLabel":"医疗","lat":35.738681,"lng":139.566073,"stationId":"station-003271","note":"歯","count":1,"level":"detail"},{"id":"medical-2-6956","name":"医療法人社団育慈会わたなべこどもクリニック","categoryId":"medical","categoryLabel":"医疗","lat":35.749224,"lng":139.588348,"stationId":"station-003263","note":"小児　アレルギー","count":1,"level":"detail"},{"id":"medical-2-9925","name":"医療法人社団豊泉会とよしま医院","categoryId":"medical","categoryLabel":"医疗","lat":35.739712,"lng":139.588239,"stationId":"station-003263","note":"内　心療内科　頭部美容皮膚科","count":1,"level":"detail"},{"id":"medical-2-9923","name":"医療法人社団豊聖会　廣川クリニック","categoryId":"medical","categoryLabel":"医疗","lat":35.743521,"lng":139.565817,"stationId":"station-003271","note":"内　呼　ア　小","count":1,"level":"detail"},{"id":"medical-2-9434","name":"医療法人社団長伸会 わかばクリニック","categoryId":"medical","categoryLabel":"医疗","lat":35.727356,"lng":139.578594,"stationId":"station-003419","note":"内　眼","count":1,"level":"detail"},{"id":"medical-3-10257","name":"医療法人社団陽隆会　保谷駅前歯科クリニック","categoryId":"medical","categoryLabel":"医疗","lat":35.749533,"lng":139.567389,"stationId":"station-003271","note":"歯　小歯　歯外","count":1,"level":"detail"},{"id":"medical-2-6269","name":"医療法人社団ＲＭＣ　東伏見整形外科","categoryId":"medical","categoryLabel":"医疗","lat":35.729034,"lng":139.564019,"stationId":"station-003408","note":"整　リハ　内","count":1,"level":"detail"},{"id":"medical-3-18789","name":"南大泉歯科医院","categoryId":"medical","categoryLabel":"医疗","lat":35.744668,"lng":139.567988,"stationId":"station-003271","note":"歯科　小児歯科　歯科口腔外科　矯正歯科","count":1,"level":"detail"},{"id":"medical-2-12707","name":"厚生労働省霞が関診療所上石神井分室","categoryId":"medical","categoryLabel":"医疗","lat":35.730514,"lng":139.589706,"stationId":"station-003427","note":"内","count":1,"level":"detail"},{"id":"medical-2-16610","name":"増田医院","categoryId":"medical","categoryLabel":"医疗","lat":35.740515,"lng":139.566818,"stationId":"station-003271","note":"内　小","count":1,"level":"detail"},{"id":"medical-2-16617","name":"増田整形外科医院","categoryId":"medical","categoryLabel":"医疗","lat":35.725797,"lng":139.573189,"stationId":"station-003419","note":"整形　リウマチ　リハビリ","count":1,"level":"detail"},{"id":"medical-3-16934","name":"大川内歯科医院","categoryId":"medical","categoryLabel":"医疗","lat":35.742514,"lng":139.58926,"stationId":"station-003263","note":"歯科","count":1,"level":"detail"},{"id":"medical-3-16894","name":"大森歯科医院","categoryId":"medical","categoryLabel":"医疗","lat":35.739544,"lng":139.588889,"stationId":"station-003263","note":"歯科","count":1,"level":"detail"},{"id":"medical-3-16937","name":"大泉こどもおとな歯科診療室","categoryId":"medical","categoryLabel":"医疗","lat":35.747707,"lng":139.583843,"stationId":"station-003263","note":"歯科　小児歯科　矯正歯科","count":1,"level":"detail"},{"id":"medical-2-16938","name":"大泉はなわクリニック","categoryId":"medical","categoryLabel":"医疗","lat":35.749808,"lng":139.587326,"stationId":"station-003263","note":"皮　リハビリ","count":1,"level":"detail"},{"id":"medical-2-16939","name":"大泉ゆめりあ眼科クリニック","categoryId":"medical","categoryLabel":"医疗","lat":35.748781,"lng":139.585542,"stationId":"station-003263","note":"眼","count":1,"level":"detail"},{"id":"medical-2-16935","name":"大泉アカデミアクリニック","categoryId":"medical","categoryLabel":"医疗","lat":35.749937,"lng":139.586444,"stationId":"station-003263","note":"内　外　形成　整形　皮　泌尿器　小児","count":1,"level":"detail"},{"id":"medical-2-16940","name":"大泉学園こども・思春期クリニック","categoryId":"medical","categoryLabel":"医疗","lat":35.747514,"lng":139.582503,"stationId":"station-003263","note":"小児　思春期小児","count":1,"level":"detail"},{"id":"medical-2-16942","name":"大泉学園整形外科","categoryId":"medical","categoryLabel":"医疗","lat":35.747767,"lng":139.583261,"stationId":"station-003263","note":"整形","count":1,"level":"detail"},{"id":"medical-1-16945","name":"大泉生協病院","categoryId":"medical","categoryLabel":"医疗","lat":35.741433,"lng":139.584363,"stationId":"station-003263","note":"内科　呼吸器内科　消化器内科　循環器内科　糖尿病内科　小児科　精神科　神経内科　外科　整形外科　婦人科　眼科　皮膚科　泌尿器科　歯科　リハビリ科　内分泌内科","count":1,"level":"detail"},{"id":"medical-2-16973","name":"大竹耳鼻咽喉科","categoryId":"medical","categoryLabel":"医疗","lat":35.726449,"lng":139.577185,"stationId":"station-003419","note":"耳鼻科　気","count":1,"level":"detail"},{"id":"medical-3-17719","name":"天野矯正歯科","categoryId":"medical","categoryLabel":"医疗","lat":35.729527,"lng":139.565719,"stationId":"station-003408","note":"歯　矯","count":1,"level":"detail"},{"id":"medical-2-20076","name":"妹尾眼科医院","categoryId":"medical","categoryLabel":"医疗","lat":35.748187,"lng":139.588986,"stationId":"station-003263","note":"眼","count":1,"level":"detail"},{"id":"medical-3-4725","name":"安達歯科医院","categoryId":"medical","categoryLabel":"医疗","lat":35.726405,"lng":139.575756,"stationId":"station-003419","note":"歯科","count":1,"level":"detail"},{"id":"medical-3-19499","name":"富村歯科医院","categoryId":"medical","categoryLabel":"医疗","lat":35.737274,"lng":139.580685,"stationId":"station-003419","note":"歯科","count":1,"level":"detail"},{"id":"medical-3-14550","name":"小川歯科医院","categoryId":"medical","categoryLabel":"医疗","lat":35.728128,"lng":139.577649,"stationId":"station-003419","note":"歯科　小児歯科　矯正歯科","count":1,"level":"detail"},{"id":"medical-2-14659","name":"小野寺内科クリニック","categoryId":"medical","categoryLabel":"医疗","lat":35.74634,"lng":139.586396,"stationId":"station-003263","note":"内　循環器内","count":1,"level":"detail"},{"id":"medical-3-13677","name":"山中歯科","categoryId":"medical","categoryLabel":"医疗","lat":35.749925,"lng":139.588205,"stationId":"station-003263","note":"歯科　小児歯科　矯正歯科　歯科口腔外科","count":1,"level":"detail"},{"id":"medical-3-13695","name":"山田歯科医院","categoryId":"medical","categoryLabel":"医疗","lat":35.747501,"lng":139.567809,"stationId":"station-003271","note":"歯科","count":1,"level":"detail"},{"id":"medical-3-11020","name":"岡田歯科","categoryId":"medical","categoryLabel":"医疗","lat":35.725039,"lng":139.578476,"stationId":"station-003419","note":"歯科　小児歯科　歯科口腔外科","count":1,"level":"detail"},{"id":"medical-3-11022","name":"岡田歯科医院","categoryId":"medical","categoryLabel":"医疗","lat":35.749008,"lng":139.587105,"stationId":"station-003263","note":"歯科","count":1,"level":"detail"},{"id":"medical-3-19660","name":"文理台歯科医院","categoryId":"medical","categoryLabel":"医疗","lat":35.741722,"lng":139.563293,"stationId":"station-003271","note":"歯　小歯　歯外","count":1,"level":"detail"},{"id":"medical-2-20149","name":"木原クリニック","categoryId":"medical","categoryLabel":"医疗","lat":35.728099,"lng":139.577313,"stationId":"station-003419","note":"心療内科　精神","count":1,"level":"detail"},{"id":"medical-3-20160","name":"木村デンタルクリニック","categoryId":"medical","categoryLabel":"医疗","lat":35.742643,"lng":139.586822,"stationId":"station-003263","note":"歯科　小児歯科","count":1,"level":"detail"},{"id":"medical-3-20164","name":"木村歯科医院","categoryId":"medical","categoryLabel":"医疗","lat":35.742797,"lng":139.584359,"stationId":"station-003263","note":"歯科","count":1,"level":"detail"},{"id":"medical-2-20175","name":"木村耳鼻咽喉科医院","categoryId":"medical","categoryLabel":"医疗","lat":35.742417,"lng":139.586826,"stationId":"station-003263","note":"耳鼻科　小児　内","count":1,"level":"detail"},{"id":"medical-3-16663","name":"村上歯科医院","categoryId":"medical","categoryLabel":"医疗","lat":35.726402,"lng":139.567881,"stationId":"station-003408","note":"歯科　小児歯科","count":1,"level":"detail"},{"id":"medical-2-18389","name":"東伏見皮膚科クリニック","categoryId":"medical","categoryLabel":"医疗","lat":35.727661,"lng":139.565211,"stationId":"station-003408","note":"皮　ア","count":1,"level":"detail"},{"id":"medical-2-18388","name":"東伏見眼科医院","categoryId":"medical","categoryLabel":"医疗","lat":35.730789,"lng":139.565771,"stationId":"station-003408","note":"眼","count":1,"level":"detail"},{"id":"medical-2-18364","name":"東町耳鼻咽喉科","categoryId":"medical","categoryLabel":"医疗","lat":35.747038,"lng":139.563896,"stationId":"station-003271","note":"耳　ア　気　小","count":1,"level":"detail"},{"id":"medical-3-13171","name":"根本歯科","categoryId":"medical","categoryLabel":"医疗","lat":35.748781,"lng":139.585542,"stationId":"station-003263","note":"歯科　小児歯科　歯科口腔外科","count":1,"level":"detail"},{"id":"medical-2-12318","name":"桑原内科クリニック","categoryId":"medical","categoryLabel":"医疗","lat":35.74898,"lng":139.567338,"stationId":"station-003271","note":"内　呼　循","count":1,"level":"detail"},{"id":"medical-3-19010","name":"梅津歯科医院","categoryId":"medical","categoryLabel":"医疗","lat":35.737621,"lng":139.581966,"stationId":"station-003419","note":"歯科　小児歯科　矯正歯科","count":1,"level":"detail"},{"id":"medical-2-15292","name":"森岡整形外科","categoryId":"medical","categoryLabel":"医疗","lat":35.7288,"lng":139.576816,"stationId":"station-003419","note":"整形　リハビリ","count":1,"level":"detail"},{"id":"medical-2-19531","name":"武蔵関かとう耳鼻咽喉科","categoryId":"medical","categoryLabel":"医疗","lat":35.730432,"lng":139.580764,"stationId":"station-003419","note":"耳鼻科","count":1,"level":"detail"},{"id":"medical-3-19530","name":"武蔵関エキナカ歯科","categoryId":"medical","categoryLabel":"医疗","lat":35.727822,"lng":139.576638,"stationId":"station-003419","note":"歯科　歯科口腔外科　矯正歯科　小児歯科","count":1,"level":"detail"},{"id":"medical-3-19532","name":"武蔵関歯科","categoryId":"medical","categoryLabel":"医疗","lat":35.728254,"lng":139.578168,"stationId":"station-003419","note":"歯科　小児歯科","count":1,"level":"detail"},{"id":"medical-3-13876","name":"歯科ブロッサムクリニック","categoryId":"medical","categoryLabel":"医疗","lat":35.733511,"lng":139.589887,"stationId":"station-003427","note":"歯科　小児歯科　矯正歯科　歯科口腔外科","count":1,"level":"detail"},{"id":"medical-2-15519","name":"水谷内科呼吸器科クリニック","categoryId":"medical","categoryLabel":"医疗","lat":35.748792,"lng":139.584398,"stationId":"station-003263","note":"内　呼吸器　小児　アレルギー　放射線","count":1,"level":"detail"},{"id":"medical-3-17917","name":"渡辺歯科","categoryId":"medical","categoryLabel":"医疗","lat":35.730059,"lng":139.588534,"stationId":"station-003427","note":"歯科　小児歯科　矯正歯科　歯科口腔外科","count":1,"level":"detail"},{"id":"medical-2-17122","name":"滝澤クリニック","categoryId":"medical","categoryLabel":"医疗","lat":35.735733,"lng":139.576834,"stationId":"station-003419","note":"内　外　脳外　耳鼻科","count":1,"level":"detail"},{"id":"medical-2-18621","name":"特別養護老人ホームやすらぎシティ東大泉医務室","categoryId":"medical","categoryLabel":"医疗","lat":35.743662,"lng":139.580332,"stationId":"station-003263","note":"内","count":1,"level":"detail"},{"id":"medical-2-18667","name":"特別養護老人ホーム南大泉かがやきの里医務室","categoryId":"medical","categoryLabel":"医疗","lat":35.744659,"lng":139.568546,"stationId":"station-003271","note":"内","count":1,"level":"detail"},{"id":"medical-2-18659","name":"特別養護老人ホーム第二光陽苑医務室","categoryId":"medical","categoryLabel":"医疗","lat":35.732457,"lng":139.571813,"stationId":"station-003419","note":"内","count":1,"level":"detail"},{"id":"medical-3-17817","name":"田中歯科医院","categoryId":"medical","categoryLabel":"医疗","lat":35.749399,"lng":139.570315,"stationId":"station-003271","note":"歯科　小児歯科　矯正歯科　歯科口腔外科","count":1,"level":"detail"},{"id":"medical-2-17767","name":"田村クリニック","categoryId":"medical","categoryLabel":"医疗","lat":35.745911,"lng":139.566377,"stationId":"station-003271","note":"内　脳外　神内　糖内　循内","count":1,"level":"detail"},{"id":"medical-3-17768","name":"田村デンタルクリニック","categoryId":"medical","categoryLabel":"医疗","lat":35.745911,"lng":139.566377,"stationId":"station-003271","note":"歯　小歯　矯　歯外","count":1,"level":"detail"},{"id":"medical-3-17855","name":"田添歯科","categoryId":"medical","categoryLabel":"医疗","lat":35.736052,"lng":139.589108,"stationId":"station-003427","note":"歯科","count":1,"level":"detail"},{"id":"medical-2-19069","name":"白戸医院","categoryId":"medical","categoryLabel":"医疗","lat":35.730092,"lng":139.575429,"stationId":"station-003419","note":"内　循環器","count":1,"level":"detail"},{"id":"medical-3-16079","name":"石井歯科医院","categoryId":"medical","categoryLabel":"医疗","lat":35.727157,"lng":139.576935,"stationId":"station-003419","note":"歯科　小児歯科　矯正歯科","count":1,"level":"detail"},{"id":"medical-2-16124","name":"石神井台皮フ科","categoryId":"medical","categoryLabel":"医疗","lat":35.735656,"lng":139.589281,"stationId":"station-003427","note":"皮","count":1,"level":"detail"},{"id":"medical-2-14147","name":"社会福祉法人さわらび会石神井台特別養護老人ホーム秋月医務室","categoryId":"medical","categoryLabel":"医疗","lat":35.739221,"lng":139.58618,"stationId":"station-003263","note":"内","count":1,"level":"detail"},{"id":"medical-2-17275","name":"竹宮医院","categoryId":"medical","categoryLabel":"医疗","lat":35.741352,"lng":139.575962,"stationId":"station-003271","note":"内","count":1,"level":"detail"},{"id":"medical-3-17293","name":"竹嶋歯科クリニック","categoryId":"medical","categoryLabel":"医疗","lat":35.746898,"lng":139.581079,"stationId":"station-003263","note":"歯科","count":1,"level":"detail"},{"id":"medical-2-17267","name":"築根クリニック","categoryId":"medical","categoryLabel":"医疗","lat":35.725149,"lng":139.580768,"stationId":"station-003419","note":"内　呼吸器　消化器　放射線","count":1,"level":"detail"},{"id":"medical-3-14021","name":"篠岡歯科医院","categoryId":"medical","categoryLabel":"医疗","lat":35.72826,"lng":139.555594,"stationId":"station-003409","note":"歯","count":1,"level":"detail"},{"id":"medical-2-20502","name":"落合眼科","categoryId":"medical","categoryLabel":"医疗","lat":35.749665,"lng":139.569465,"stationId":"station-003271","note":"眼","count":1,"level":"detail"},{"id":"medical-2-18465","name":"藤沼内科クリニック","categoryId":"medical","categoryLabel":"医疗","lat":35.729049,"lng":139.56384,"stationId":"station-003408","note":"内　循","count":1,"level":"detail"},{"id":"medical-3-15892","name":"西村歯科クリニック","categoryId":"medical","categoryLabel":"医疗","lat":35.747562,"lng":139.569116,"stationId":"station-003271","note":"歯科　小児歯科","count":1,"level":"detail"},{"id":"medical-2-15932","name":"西東京市休日診療所","categoryId":"medical","categoryLabel":"医疗","lat":35.738684,"lng":139.555175,"stationId":"station-003409","note":"内　外","count":1,"level":"detail"},{"id":"medical-2-15934","name":"西東京市保谷保健福祉総合センター","categoryId":"medical","categoryLabel":"医疗","lat":35.742213,"lng":139.55899,"stationId":"station-003271","note":"内　小　歯","count":1,"level":"detail"},{"id":"medical-3-16248","name":"赤沢歯科医院","categoryId":"medical","categoryLabel":"医疗","lat":35.749507,"lng":139.565917,"stationId":"station-003271","note":"歯　小歯","count":1,"level":"detail"},{"id":"medical-3-10891","name":"遠藤歯科医院","categoryId":"medical","categoryLabel":"医疗","lat":35.741819,"lng":139.573649,"stationId":"station-003271","note":"歯科","count":1,"level":"detail"},{"id":"medical-3-18697","name":"那須歯科医院","categoryId":"medical","categoryLabel":"医疗","lat":35.725764,"lng":139.573912,"stationId":"station-003419","note":"歯科","count":1,"level":"detail"},{"id":"medical-3-12037","name":"郷家歯科医院","categoryId":"medical","categoryLabel":"医疗","lat":35.749267,"lng":139.586559,"stationId":"station-003263","note":"歯科　小児歯科　矯正歯科","count":1,"level":"detail"},{"id":"medical-2-12125","name":"金子保谷内科クリニック","categoryId":"medical","categoryLabel":"医疗","lat":35.749157,"lng":139.569829,"stationId":"station-003271","note":"内　呼吸器内　アレルギー　漢方内科","count":1,"level":"detail"},{"id":"medical-2-12147","name":"金田医院","categoryId":"medical","categoryLabel":"医疗","lat":35.730676,"lng":139.581198,"stationId":"station-003419","note":"内　消化器内　小児","count":1,"level":"detail"},{"id":"medical-3-20620","name":"鈴木歯科医院","categoryId":"medical","categoryLabel":"医疗","lat":35.735622,"lng":139.576049,"stationId":"station-003419","note":"歯科","count":1,"level":"detail"},{"id":"medical-2-11496","name":"関クリニック","categoryId":"medical","categoryLabel":"医疗","lat":35.744785,"lng":139.582061,"stationId":"station-003263","note":"内　循環器　リハビリ","count":1,"level":"detail"},{"id":"medical-2-11533","name":"関保健相談所","categoryId":"medical","categoryLabel":"医疗","lat":35.726539,"lng":139.581304,"stationId":"station-003419","note":"内　小児　性　歯","count":1,"level":"detail"},{"id":"medical-2-11523","name":"関町こどもクリニック","categoryId":"medical","categoryLabel":"医疗","lat":35.733994,"lng":139.576451,"stationId":"station-003419","note":"小児　呼吸器　アレルギー","count":1,"level":"detail"},{"id":"medical-2-11527","name":"関町内科クリニック","categoryId":"medical","categoryLabel":"医疗","lat":35.73149,"lng":139.574335,"stationId":"station-003419","note":"内　循環器　小児","count":1,"level":"detail"},{"id":"medical-2-11524","name":"関町眼科医院","categoryId":"medical","categoryLabel":"医疗","lat":35.725416,"lng":139.574241,"stationId":"station-003419","note":"眼","count":1,"level":"detail"},{"id":"medical-2-11525","name":"関町耳鼻咽喉科・アレルギー科","categoryId":"medical","categoryLabel":"医疗","lat":35.727005,"lng":139.576193,"stationId":"station-003419","note":"耳鼻科　アレルギー　小児","count":1,"level":"detail"},{"id":"medical-2-13035","name":"高野眼科医院","categoryId":"medical","categoryLabel":"医疗","lat":35.747135,"lng":139.571004,"stationId":"station-003271","note":"眼","count":1,"level":"detail"},{"id":"medical-3-173","name":"Ｅ歯科","categoryId":"medical","categoryLabel":"医疗","lat":35.727049,"lng":139.579249,"stationId":"station-003419","note":"歯科","count":1,"level":"detail"},{"id":"medical-2-399","name":"ＹＹキッズクリニック","categoryId":"medical","categoryLabel":"医疗","lat":35.742473,"lng":139.562726,"stationId":"station-003271","note":"小　小内内","count":1,"level":"detail"},{"id":"public-13229-22730","name":"保谷こもれびホール","categoryId":"public_service","categoryLabel":"公共服务","lat":35.741527,"lng":139.558904,"stationId":"station-003271","note":"西東京市中町1-5-1","count":1,"level":"detail"},{"id":"public-13229-22729","name":"保谷庁舎","categoryId":"public_service","categoryLabel":"公共服务","lat":35.741527,"lng":139.558924,"stationId":"station-003271","note":"西東京市中町1-5-1","count":1,"level":"detail"},{"id":"public-13229-22755","name":"保谷東分庁舎","categoryId":"public_service","categoryLabel":"公共服务","lat":35.741222,"lng":139.559904,"stationId":"station-003271","note":"西東京市中町1-6-8","count":1,"level":"detail"},{"id":"public-13229-22749","name":"保谷障害者福祉センター","categoryId":"public_service","categoryLabel":"公共服务","lat":35.734651,"lng":139.556377,"stationId":"station-003409","note":"西東京市保谷町1-6-20","count":1,"level":"detail"},{"id":"public-13120-22209","name":"勤労福祉会館","categoryId":"public_service","categoryLabel":"公共服务","lat":35.748165,"lng":139.587673,"stationId":"station-003263","note":"練馬区東大泉5-40-36","count":1,"level":"detail"},{"id":"public-13120-22211","name":"南大泉青少年館","categoryId":"public_service","categoryLabel":"公共服务","lat":35.74324,"lng":139.574773,"stationId":"station-003271","note":"練馬区南大泉1-44-7","count":1,"level":"detail"},{"id":"public-13120-22205","name":"大泉区民事務所","categoryId":"public_service","categoryLabel":"公共服务","lat":35.749884,"lng":139.587604,"stationId":"station-003263","note":"練馬区東大泉1-28-1リズモ大泉学園4F","count":1,"level":"detail"},{"id":"public-13229-22753","name":"富士町市民集会所","categoryId":"public_service","categoryLabel":"公共服务","lat":35.734374,"lng":139.560449,"stationId":"station-003408","note":"西東京市富士町1-7-69","count":1,"level":"detail"},{"id":"public-13229-22754","name":"富士町福祉会館","categoryId":"public_service","categoryLabel":"公共服务","lat":35.730066,"lng":139.556902,"stationId":"station-003409","note":"西東京市富士町6-6-13","count":1,"level":"detail"},{"id":"public-13229-22742","name":"東伏見市民集会所","categoryId":"public_service","categoryLabel":"公共服务","lat":35.725086,"lng":139.561402,"stationId":"station-003408","note":"西東京市東伏見6-4-18","count":1,"level":"detail"},{"id":"public-13120-22222","name":"東大泉地域集会所","categoryId":"public_service","categoryLabel":"公共服务","lat":35.74352,"lng":139.580405,"stationId":"station-003263","note":"練馬区東大泉7-27-51","count":1,"level":"detail"},{"id":"public-13229-22739","name":"東町市民集会所","categoryId":"public_service","categoryLabel":"公共服务","lat":35.746344,"lng":139.561006,"stationId":"station-003271","note":"西東京市東町2-4-19","count":1,"level":"detail"},{"id":"public-13229-22738","name":"武道場","categoryId":"public_service","categoryLabel":"公共服务","lat":35.746503,"lng":139.56089,"stationId":"station-003271","note":"西東京市東町2-4-13","count":1,"level":"detail"},{"id":"public-13120-22191","name":"石神井台地域集会所","categoryId":"public_service","categoryLabel":"公共服务","lat":35.73171,"lng":139.585804,"stationId":"station-003427","note":"練馬区石神井台4-5-14","count":1,"level":"detail"},{"id":"public-13229-22703","name":"スポーツセンター","categoryId":"sports","categoryLabel":"体育设施","lat":35.741606,"lng":139.558474,"stationId":"station-003271","note":"西東京市中町1-5-1","count":1,"level":"detail"}]
