[{"id":"public-13116-21931","name":"南長崎第一区民集会室","categoryId":"community","categoryLabel":"社区设施","lat":35.72409,"lng":139.691564,"stationId":"station-003426","note":"豊島区南長崎1-6-1","count":1,"level":"detail"},{"id":"public-13116-21935","name":"南長崎第一区民集会室・区民ひろば富士見台","categoryId":"community","categoryLabel":"社区设施","lat":35.723958,"lng":139.691659,"stationId":"station-003426","note":"豊島区南長崎1-6-1","count":1,"level":"detail"},{"id":"medical-3-488","name":"あおい歯科クリニック","categoryId":"medical","categoryLabel":"医疗","lat":35.713937,"lng":139.669011,"stationId":"station-003489","note":"歯科　矯正歯科　小児歯科","count":1,"level":"detail"},{"id":"medical-2-496","name":"あおきクリニック","categoryId":"medical","categoryLabel":"医疗","lat":35.707272,"lng":139.682964,"stationId":"station-003549","note":"神経科　精神科　心療内科","count":1,"level":"detail"},{"id":"medical-2-570","name":"あけのほし内科クリニック","categoryId":"medical","categoryLabel":"医疗","lat":35.708085,"lng":139.665319,"stationId":"nakano","note":"内科　消化器科　小児科　外科","count":1,"level":"detail"},{"id":"medical-2-617","name":"あしかりクリニック","categoryId":"medical","categoryLabel":"医疗","lat":35.700447,"lng":139.665012,"stationId":"station-003638","note":"精神　神経科　心療内科","count":1,"level":"detail"},{"id":"medical-3-665","name":"あつみ歯科","categoryId":"medical","categoryLabel":"医疗","lat":35.722863,"lng":139.661706,"stationId":"station-003475","note":"歯科","count":1,"level":"detail"},{"id":"medical-3-703","name":"あみなか歯科クリニック","categoryId":"medical","categoryLabel":"医疗","lat":35.706442,"lng":139.682152,"stationId":"station-003549","note":"歯科　矯正歯科　小児歯科","count":1,"level":"detail"},{"id":"medical-3-720","name":"あゆざわ歯科医院","categoryId":"medical","categoryLabel":"医疗","lat":35.717246,"lng":139.672133,"stationId":"station-003489","note":"歯科　小児歯科","count":1,"level":"detail"},{"id":"medical-3-796","name":"いいじま歯科医院","categoryId":"medical","categoryLabel":"医疗","lat":35.717232,"lng":139.676941,"stationId":"station-003489","note":"歯科　小児歯科　歯科口腔外科","count":1,"level":"detail"},{"id":"medical-3-829","name":"いぐみ歯科矯正歯科","categoryId":"medical","categoryLabel":"医疗","lat":35.702433,"lng":139.665523,"stationId":"nakano","note":"歯科　矯正歯科　小児歯科　歯科口腔外科","count":1,"level":"detail"},{"id":"medical-2-890","name":"いたや内科クリニック","categoryId":"medical","categoryLabel":"医疗","lat":35.70736,"lng":139.682575,"stationId":"station-003549","note":"内科　循環器内科　糖尿病内科　代謝内科","count":1,"level":"detail"},{"id":"medical-3-976","name":"いわし歯科","categoryId":"medical","categoryLabel":"医疗","lat":35.706517,"lng":139.686541,"stationId":"station-003549","note":"歯科　小児歯科　歯科口腔外科","count":1,"level":"detail"},{"id":"medical-3-1001","name":"うえすぎ歯科クリニック","categoryId":"medical","categoryLabel":"医疗","lat":35.722711,"lng":139.686939,"stationId":"station-003448","note":"歯科　矯正歯科　小児歯科　歯科口腔外科","count":1,"level":"detail"},{"id":"medical-3-1012","name":"うえの歯科医院","categoryId":"medical","categoryLabel":"医疗","lat":35.706862,"lng":139.69383,"stationId":"station-003604","note":"歯科　小児歯科","count":1,"level":"detail"},{"id":"medical-2-1177","name":"おうじ内科・糖尿病クリニック","categoryId":"medical","categoryLabel":"医疗","lat":35.707453,"lng":139.66888,"stationId":"nakano","note":"内科　糖尿病内科　代謝内科　小児科　漢方内科","count":1,"level":"detail"},{"id":"medical-2-1192","name":"おおくら内科","categoryId":"medical","categoryLabel":"医疗","lat":35.706707,"lng":139.687273,"stationId":"station-003549","note":"内科　消化器内科　胃腸内科","count":1,"level":"detail"},{"id":"medical-3-1221","name":"おおた歯科クリニック","categoryId":"medical","categoryLabel":"医疗","lat":35.703344,"lng":139.665085,"stationId":"nakano","note":"歯科　矯正歯科　小児歯科","count":1,"level":"detail"},{"id":"medical-2-1275","name":"おかむら耳鼻咽喉科","categoryId":"medical","categoryLabel":"医疗","lat":35.703944,"lng":139.664247,"stationId":"nakano","note":"耳鼻咽喉科","count":1,"level":"detail"},{"id":"medical-2-1389","name":"お茶の水医院","categoryId":"medical","categoryLabel":"医疗","lat":35.713367,"lng":139.673525,"stationId":"station-003489","note":"眼科","count":1,"level":"detail"},{"id":"medical-3-1404","name":"かいづ歯科医院","categoryId":"medical","categoryLabel":"医疗","lat":35.702773,"lng":139.66088,"stationId":"nakano","note":"歯科","count":1,"level":"detail"},{"id":"medical-2-1472","name":"かとう皮膚科","categoryId":"medical","categoryLabel":"医疗","lat":35.720645,"lng":139.685674,"stationId":"station-003448","note":"皮膚科","count":1,"level":"detail"},{"id":"medical-3-1538","name":"かりや歯科","categoryId":"medical","categoryLabel":"医疗","lat":35.714897,"lng":139.670523,"stationId":"station-003489","note":"歯科　矯正歯科　小児歯科　歯科口腔外科","count":1,"level":"detail"},{"id":"medical-2-1611","name":"きはらクリニック","categoryId":"medical","categoryLabel":"医疗","lat":35.704664,"lng":139.666185,"stationId":"nakano","note":"内科　循環器科　皮膚科　外科","count":1,"level":"detail"},{"id":"medical-3-1766","name":"くろさか歯科クリニック西落合","categoryId":"medical","categoryLabel":"医疗","lat":35.722031,"lng":139.681575,"stationId":"station-003448","note":"小児歯科　歯科　矯正歯科　歯科口腔外科","count":1,"level":"detail"},{"id":"medical-3-1875","name":"こしだ歯科医院","categoryId":"medical","categoryLabel":"医疗","lat":35.721974,"lng":139.662999,"stationId":"station-003475","note":"歯科　小児歯科","count":1,"level":"detail"},{"id":"medical-3-1897","name":"こだま歯科医院","categoryId":"medical","categoryLabel":"医疗","lat":35.701392,"lng":139.686541,"stationId":"station-003643","note":"歯科　矯正歯科　小児歯科　歯科口腔外科","count":1,"level":"detail"},{"id":"medical-3-1934","name":"こばやし歯科医院","categoryId":"medical","categoryLabel":"医疗","lat":35.707612,"lng":139.665375,"stationId":"nakano","note":"歯科　歯科口腔外科","count":1,"level":"detail"},{"id":"medical-2-2080","name":"さくらライフ中野クリニック","categoryId":"medical","categoryLabel":"医疗","lat":35.707662,"lng":139.661435,"stationId":"nakano","note":"内科　精神科","count":1,"level":"detail"},{"id":"medical-3-2095","name":"さくら歯科医院","categoryId":"medical","categoryLabel":"医疗","lat":35.702873,"lng":139.68571,"stationId":"station-003549","note":"歯科　小児歯科　歯科口腔外科","count":1,"level":"detail"},{"id":"medical-3-2224","name":"しおん歯科医院","categoryId":"medical","categoryLabel":"医疗","lat":35.705834,"lng":139.684783,"stationId":"station-003549","note":"歯科","count":1,"level":"detail"},{"id":"medical-2-2263","name":"しばたこども＆アレルギークリニック","categoryId":"medical","categoryLabel":"医疗","lat":35.706707,"lng":139.687273,"stationId":"station-003549","note":"アレルギー科　小児科","count":1,"level":"detail"},{"id":"medical-2-2468","name":"すみ眼科クリニック","categoryId":"medical","categoryLabel":"医疗","lat":35.706482,"lng":139.666245,"stationId":"nakano","note":"眼科","count":1,"level":"detail"},{"id":"medical-2-2547","name":"そはら医院","categoryId":"medical","categoryLabel":"医疗","lat":35.722802,"lng":139.684152,"stationId":"station-003448","note":"内科　小児科　循環器科　リハビリテーション科","count":1,"level":"detail"},{"id":"medical-2-2553","name":"そめのまち診療所","categoryId":"medical","categoryLabel":"医疗","lat":35.713344,"lng":139.686308,"stationId":"station-003495","note":"外科　整形外科　リハビリテーション科","count":1,"level":"detail"},{"id":"medical-2-2705","name":"たなか耳鼻咽喉科","categoryId":"medical","categoryLabel":"医疗","lat":35.722842,"lng":139.694497,"stationId":"station-003426","note":"耳鼻いんこう科　アレルギー科　小児科","count":1,"level":"detail"},{"id":"medical-2-2723","name":"たの眼科クリニック中野分院","categoryId":"medical","categoryLabel":"医疗","lat":35.704786,"lng":139.665686,"stationId":"nakano","note":"眼科","count":1,"level":"detail"},{"id":"medical-3-2780","name":"ちびっこ歯科","categoryId":"medical","categoryLabel":"医疗","lat":35.706676,"lng":139.668317,"stationId":"nakano","note":"歯科","count":1,"level":"detail"},{"id":"medical-2-2993","name":"とどろき皮膚科クリニック","categoryId":"medical","categoryLabel":"医疗","lat":35.708499,"lng":139.664798,"stationId":"nakano","note":"皮膚科　形成外科","count":1,"level":"detail"},{"id":"medical-3-3189","name":"にえかわ歯科医院","categoryId":"medical","categoryLabel":"医疗","lat":35.70172,"lng":139.694933,"stationId":"station-003604","note":"歯科","count":1,"level":"detail"},{"id":"medical-3-3427","name":"はやと歯科医院","categoryId":"medical","categoryLabel":"医疗","lat":35.724336,"lng":139.682513,"stationId":"station-003448","note":"歯科　小児歯科　矯正歯科","count":1,"level":"detail"},{"id":"medical-2-3441","name":"はりかえメンタルクリニック","categoryId":"medical","categoryLabel":"医疗","lat":35.707288,"lng":139.665497,"stationId":"nakano","note":"内科　神経科　精神科","count":1,"level":"detail"},{"id":"medical-3-3453","name":"はる歯科","categoryId":"medical","categoryLabel":"医疗","lat":35.720274,"lng":139.662288,"stationId":"station-003475","note":"歯科　小児歯科　矯正歯科　歯科口腔外科","count":1,"level":"detail"},{"id":"medical-2-3532","name":"ひまわりアイクリニック中野","categoryId":"medical","categoryLabel":"医疗","lat":35.706758,"lng":139.665639,"stationId":"nakano","note":"眼科","count":1,"level":"detail"},{"id":"medical-3-3578","name":"ひろき歯科クリニック","categoryId":"medical","categoryLabel":"医疗","lat":35.71964,"lng":139.694861,"stationId":"station-003491","note":"歯科　矯正歯科　小児歯科　歯科口腔外科","count":1,"level":"detail"},{"id":"medical-3-3665","name":"ふじい歯科医院","categoryId":"medical","categoryLabel":"医疗","lat":35.715656,"lng":139.671891,"stationId":"station-003489","note":"歯科","count":1,"level":"detail"},{"id":"medical-3-3679","name":"ふじまき歯科","categoryId":"medical","categoryLabel":"医疗","lat":35.70725,"lng":139.682097,"stationId":"station-003549","note":"歯科","count":1,"level":"detail"},{"id":"medical-3-3750","name":"ふれあい歯科ごとう","categoryId":"medical","categoryLabel":"医疗","lat":35.708321,"lng":139.693119,"stationId":"station-003523","note":"歯科","count":1,"level":"detail"},{"id":"medical-2-3791","name":"ほき耳鼻咽喉科クリニック","categoryId":"medical","categoryLabel":"医疗","lat":35.709036,"lng":139.687595,"stationId":"station-003523","note":"耳鼻咽喉科","count":1,"level":"detail"},{"id":"medical-2-3803","name":"ほそかわ内科クリニック","categoryId":"medical","categoryLabel":"医疗","lat":35.715407,"lng":139.68385,"stationId":"station-003495","note":"内科　呼吸器内科　アレルギー科","count":1,"level":"detail"},{"id":"medical-3-3897","name":"まさみデンタルクリニック","categoryId":"medical","categoryLabel":"医疗","lat":35.708499,"lng":139.664798,"stationId":"nakano","note":"歯科","count":1,"level":"detail"},{"id":"medical-3-3938","name":"まつもと歯科医院","categoryId":"medical","categoryLabel":"医疗","lat":35.709103,"lng":139.681068,"stationId":"station-003549","note":"歯科　矯正歯科　小児歯科　歯科口腔外科","count":1,"level":"detail"},{"id":"medical-2-3971","name":"まるたに内科循環器科","categoryId":"medical","categoryLabel":"医疗","lat":35.714068,"lng":139.673139,"stationId":"station-003489","note":"内科　呼吸器科　循環器科","count":1,"level":"detail"},{"id":"medical-3-4154","name":"むとう歯科医院","categoryId":"medical","categoryLabel":"医疗","lat":35.715694,"lng":139.687696,"stationId":"station-003495","note":"歯科　小児歯科　矯正歯科","count":1,"level":"detail"},{"id":"medical-3-4158","name":"むらい歯科医院","categoryId":"medical","categoryLabel":"医疗","lat":35.720236,"lng":139.682447,"stationId":"station-003448","note":"歯科　矯正歯科　小児歯科","count":1,"level":"detail"},{"id":"medical-2-4297","name":"やはぎ皮フ科クリニック","categoryId":"medical","categoryLabel":"医疗","lat":35.70736,"lng":139.682575,"stationId":"station-003549","note":"皮膚科　アレルギー科　小児皮膚科　小児科","count":1,"level":"detail"},{"id":"medical-2-4317","name":"やまさき内科クリニック","categoryId":"medical","categoryLabel":"医疗","lat":35.700435,"lng":139.667048,"stationId":"station-003638","note":"内科　呼吸器内科　アレルギー科　糖尿病内科　代謝内科　内分泌内科","count":1,"level":"detail"},{"id":"medical-3-4384","name":"ゆかり歯科","categoryId":"medical","categoryLabel":"医疗","lat":35.723975,"lng":139.662891,"stationId":"station-003475","note":"歯科","count":1,"level":"detail"},{"id":"medical-3-4557","name":"りば−すデンタルクリニック","categoryId":"medical","categoryLabel":"医疗","lat":35.700396,"lng":139.663491,"stationId":"station-003628","note":"歯科　小児歯科","count":1,"level":"detail"},{"id":"medical-3-564","name":"アクシア中野デンタルクリニック","categoryId":"medical","categoryLabel":"医疗","lat":35.703665,"lng":139.664334,"stationId":"nakano","note":"一般歯科　小児歯科　審美歯科","count":1,"level":"detail"},{"id":"medical-3-661","name":"アップル歯科医院","categoryId":"medical","categoryLabel":"医疗","lat":35.707464,"lng":139.685882,"stationId":"station-003549","note":"歯科　矯正歯科　小児歯科　歯科口腔外科","count":1,"level":"detail"},{"id":"medical-3-695","name":"アポロ歯科診療所","categoryId":"medical","categoryLabel":"医疗","lat":35.712154,"lng":139.678095,"stationId":"station-003489","note":"歯科","count":1,"level":"detail"},{"id":"medical-2-764","name":"アルパカ小児科耳鼻科クリニック","categoryId":"medical","categoryLabel":"医疗","lat":35.724336,"lng":139.682513,"stationId":"station-003448","note":"小児科　アレルギー科　耳鼻いんこう科","count":1,"level":"detail"},{"id":"medical-3-1003","name":"ウエストデンタルクリニック","categoryId":"medical","categoryLabel":"医疗","lat":35.722996,"lng":139.683313,"stationId":"station-003448","note":"歯科　矯正歯科　小児歯科　歯科口腔外科","count":1,"level":"detail"},{"id":"medical-3-1073","name":"エイジ歯科","categoryId":"medical","categoryLabel":"医疗","lat":35.705418,"lng":139.668805,"stationId":"nakano","note":"歯科　矯正歯科　小児歯科","count":1,"level":"detail"},{"id":"medical-3-1098","name":"エス歯科クリニック","categoryId":"medical","categoryLabel":"医疗","lat":35.70023,"lng":139.667073,"stationId":"station-003638","note":"歯科　矯正歯科　小児歯科　歯科口腔外科","count":1,"level":"detail"},{"id":"medical-3-1079","name":"エースデンタルクリニック","categoryId":"medical","categoryLabel":"医疗","lat":35.708832,"lng":139.664591,"stationId":"nakano","note":"歯科　矯正歯科　歯科口腔外科","count":1,"level":"detail"},{"id":"medical-2-1677","name":"クマノミドー眼科","categoryId":"medical","categoryLabel":"医疗","lat":35.707774,"lng":139.669863,"stationId":"nakano","note":"眼科","count":1,"level":"detail"},{"id":"medical-3-1705","name":"クリスタ歯科","categoryId":"medical","categoryLabel":"医疗","lat":35.709553,"lng":139.670113,"stationId":"nakano","note":"歯科　小児歯科","count":1,"level":"detail"},{"id":"medical-2-1713","name":"クリニック　ヨコヤマ","categoryId":"medical","categoryLabel":"医疗","lat":35.71022,"lng":139.666714,"stationId":"nakano","note":"内科　外科　肛門科　脳神経外科　整形外科　形成外科　産婦人科　リハビリテーション科　胃腸科","count":1,"level":"detail"},{"id":"medical-2-1802","name":"ゲンクリニック","categoryId":"medical","categoryLabel":"医疗","lat":35.707288,"lng":139.665497,"stationId":"nakano","note":"内科　アレルギー科　心療内科　婦人科","count":1,"level":"detail"},{"id":"medical-3-1982","name":"コンデンタルクリニック","categoryId":"medical","categoryLabel":"医疗","lat":35.718243,"lng":139.669517,"stationId":"station-003489","note":"歯科　矯正歯科　小児歯科　歯科口腔外科","count":1,"level":"detail"},{"id":"medical-3-2018","name":"サエグサ歯科医院","categoryId":"medical","categoryLabel":"医疗","lat":35.718972,"lng":139.664194,"stationId":"station-003475","note":"歯科　矯正歯科","count":1,"level":"detail"},{"id":"medical-2-2191","name":"サンモールクリニック","categoryId":"medical","categoryLabel":"医疗","lat":35.707025,"lng":139.665602,"stationId":"nakano","note":"内科　消化器科　外科","count":1,"level":"detail"},{"id":"medical-2-2326","name":"ショートステイ友愛医務室","categoryId":"medical","categoryLabel":"医疗","lat":35.717536,"lng":139.665207,"stationId":"station-003475","note":"内科","count":1,"level":"detail"},{"id":"medical-3-2324","name":"ジョージ歯科","categoryId":"medical","categoryLabel":"医疗","lat":35.704362,"lng":139.665284,"stationId":"nakano","note":"歯科","count":1,"level":"detail"},{"id":"medical-2-2483","name":"セイメイ内科","categoryId":"medical","categoryLabel":"医疗","lat":35.701401,"lng":139.685939,"stationId":"station-003643","note":"内科　循環器科","count":1,"level":"detail"},{"id":"medical-3-2583","name":"タカシデンタルクリニック","categoryId":"medical","categoryLabel":"医疗","lat":35.70639,"lng":139.680909,"stationId":"station-003549","note":"歯科　小児歯科","count":1,"level":"detail"},{"id":"medical-3-3590","name":"ヒロデンタルオフィス","categoryId":"medical","categoryLabel":"医疗","lat":35.70532,"lng":139.667889,"stationId":"nakano","note":"歯科　矯正歯科　歯科口腔外科","count":1,"level":"detail"},{"id":"medical-3-3616","name":"ファースト歯科医院","categoryId":"medical","categoryLabel":"医疗","lat":35.71553,"lng":139.671628,"stationId":"station-003489","note":"歯科　小児歯科","count":1,"level":"detail"},{"id":"medical-3-4405","name":"ユニゾンデンタルオフィス","categoryId":"medical","categoryLabel":"医疗","lat":35.706707,"lng":139.687273,"stationId":"station-003549","note":"歯科　矯正歯科　小児歯科　歯科口腔外科","count":1,"level":"detail"},{"id":"medical-3-4597","name":"レオパレスビル　デンタルクリニック","categoryId":"medical","categoryLabel":"医疗","lat":35.71022,"lng":139.666714,"stationId":"nakano","note":"歯科　矯正歯科　小児歯科　歯科口腔外科","count":1,"level":"detail"},{"id":"medical-2-10735","name":"一般社団法人メディカル・トレック・インターナショナル　マリアンヌクリニック東中野","categoryId":"medical","categoryLabel":"医疗","lat":35.706288,"lng":139.683546,"stationId":"station-003549","note":"内科　皮膚科　形成外科　婦人科　乳腺外科　美容皮膚科","count":1,"level":"detail"},{"id":"medical-2-10742","name":"一般社団法人中野区医師会　中野区医師会診療所","categoryId":"medical","categoryLabel":"医疗","lat":35.703838,"lng":139.666197,"stationId":"nakano","note":"内科　小児科","count":1,"level":"detail"},{"id":"medical-3-10743","name":"一般社団法人東京都中野区歯科医師会　スマイル歯科診療所","categoryId":"medical","categoryLabel":"医疗","lat":35.70918,"lng":139.665267,"stationId":"nakano","note":"歯科　小児歯科","count":1,"level":"detail"},{"id":"medical-2-10739","name":"一般社団法人社会福祉友の会　西落合診療所","categoryId":"medical","categoryLabel":"医疗","lat":35.722031,"lng":139.681575,"stationId":"station-003448","note":"内科　精神科","count":1,"level":"detail"},{"id":"medical-3-13473","name":"三戸歯科医院","categoryId":"medical","categoryLabel":"医疗","lat":35.713138,"lng":139.666853,"stationId":"station-003489","note":"歯科　矯正歯科　小児歯科","count":1,"level":"detail"},{"id":"medical-3-13483","name":"三珠歯科医院","categoryId":"medical","categoryLabel":"医疗","lat":35.702039,"lng":139.694398,"stationId":"station-003604","note":"歯科","count":1,"level":"detail"},{"id":"medical-2-14974","name":"上田クリニック","categoryId":"medical","categoryLabel":"医疗","lat":35.703434,"lng":139.685799,"stationId":"station-003549","note":"内科　小児科　心療内科","count":1,"level":"detail"},{"id":"medical-3-15035","name":"上落合歯科クリニック","categoryId":"medical","categoryLabel":"医疗","lat":35.71205,"lng":139.685115,"stationId":"station-003523","note":"歯科　矯正歯科　小児歯科","count":1,"level":"detail"},{"id":"medical-2-15001","name":"上野クリニック","categoryId":"medical","categoryLabel":"医疗","lat":35.712524,"lng":139.663916,"stationId":"station-003475","note":"内科","count":1,"level":"detail"},{"id":"medical-2-14943","name":"上高田ちば整形外科・小児科","categoryId":"medical","categoryLabel":"医疗","lat":35.711507,"lng":139.678502,"stationId":"station-003523","note":"整形外科　小児科　リハビリテーション科　形成外科","count":1,"level":"detail"},{"id":"medical-2-14942","name":"上高田クリニック","categoryId":"medical","categoryLabel":"医疗","lat":35.711507,"lng":139.678502,"stationId":"station-003523","note":"内科　循環器内科　外科　血管外科","count":1,"level":"detail"},{"id":"medical-3-17315","name":"中井駅前歯科","categoryId":"medical","categoryLabel":"医疗","lat":35.714184,"lng":139.686785,"stationId":"station-003495","note":"歯科　小児歯科","count":1,"level":"detail"},{"id":"medical-3-17480","name":"中尾歯科医院","categoryId":"medical","categoryLabel":"医疗","lat":35.70693,"lng":139.68465,"stationId":"station-003549","note":"歯科　矯正歯科　小児歯科　歯科口腔外科","count":1,"level":"detail"},{"id":"medical-3-17458","name":"中島歯科医院","categoryId":"medical","categoryLabel":"医疗","lat":35.718047,"lng":139.672738,"stationId":"station-003489","note":"歯科　小児歯科　歯科口腔外科","count":1,"level":"detail"},{"id":"medical-2-17403","name":"中村外科医院","categoryId":"medical","categoryLabel":"医疗","lat":35.701656,"lng":139.684689,"stationId":"station-003643","note":"皮膚科　外科　泌尿器科　肛門科　整形外科　麻酔科　胃腸科　乳腺外科","count":1,"level":"detail"},{"id":"medical-3-17522","name":"中落合歯科クリニック","categoryId":"medical","categoryLabel":"医疗","lat":35.717128,"lng":139.693366,"stationId":"station-003491","note":"歯科","count":1,"level":"detail"},{"id":"medical-2-17439","name":"中谷内科クリニック","categoryId":"medical","categoryLabel":"医疗","lat":35.707565,"lng":139.683836,"stationId":"station-003549","note":"内科　循環器科","count":1,"level":"detail"},{"id":"medical-2-17438","name":"中谷医院","categoryId":"medical","categoryLabel":"医疗","lat":35.708193,"lng":139.686755,"stationId":"station-003549","note":"内科","count":1,"level":"detail"},{"id":"medical-2-17483","name":"中部すこやか福祉センター","categoryId":"medical","categoryLabel":"医疗","lat":35.700166,"lng":139.673773,"stationId":"station-003638","note":"内科　歯科","count":1,"level":"detail"},{"id":"medical-2-17497","name":"中野の森クリニック","categoryId":"medical","categoryLabel":"医疗","lat":35.709787,"lng":139.673303,"stationId":"station-003489","note":"内科　小児科　呼吸器内科","count":1,"level":"detail"},{"id":"medical-2-17498","name":"中野ひだまりクリニック","categoryId":"medical","categoryLabel":"医疗","lat":35.708072,"lng":139.681534,"stationId":"station-003549","note":"内科　消化器内科　胃腸内科","count":1,"level":"detail"},{"id":"medical-2-17496","name":"中野トータルヘルスケアクリニック","categoryId":"medical","categoryLabel":"医疗","lat":35.707208,"lng":139.665446,"stationId":"nakano","note":"皮膚科　泌尿器科","count":1,"level":"detail"},{"id":"medical-2-17502","name":"中野下肢静脈瘤クリニック　東京中央美容外科","categoryId":"medical","categoryLabel":"医疗","lat":35.703969,"lng":139.664893,"stationId":"nakano","note":"血管外科　形成外科　美容外科　美容皮膚科","count":1,"level":"detail"},{"id":"medical-2-17518","name":"中野中央クリニック","categoryId":"medical","categoryLabel":"医疗","lat":35.701523,"lng":139.676967,"stationId":"station-003643","note":"内科　小児科　理学診療科","count":1,"level":"detail"},{"id":"medical-2-17506","name":"中野区保健所","categoryId":"medical","categoryLabel":"医疗","lat":35.702822,"lng":139.669383,"stationId":"nakano","note":"内科　歯科","count":1,"level":"detail"},{"id":"medical-2-17520","name":"中野南口クリニック","categoryId":"medical","categoryLabel":"医疗","lat":35.7031,"lng":139.665236,"stationId":"nakano","note":"人工透析内科","count":1,"level":"detail"},{"id":"medical-2-17515","name":"中野新井腎クリニック","categoryId":"medical","categoryLabel":"医疗","lat":35.711465,"lng":139.665282,"stationId":"nakano","note":"内科　透析内科","count":1,"level":"detail"},{"id":"medical-2-17503","name":"中野眼科","categoryId":"medical","categoryLabel":"医疗","lat":35.708832,"lng":139.664591,"stationId":"nakano","note":"眼科","count":1,"level":"detail"},{"id":"medical-3-17504","name":"中野矯正歯科診療所","categoryId":"medical","categoryLabel":"医疗","lat":35.706883,"lng":139.665436,"stationId":"nakano","note":"矯正歯科","count":1,"level":"detail"},{"id":"medical-2-17516","name":"中野神経科","categoryId":"medical","categoryLabel":"医疗","lat":35.717769,"lng":139.674151,"stationId":"station-003489","note":"内科　神経科　精神科","count":1,"level":"detail"},{"id":"medical-3-17501","name":"中野駅南歯科クリニック","categoryId":"medical","categoryLabel":"医疗","lat":35.702819,"lng":139.666308,"stationId":"nakano","note":"歯科　矯正歯科　小児歯科　歯科口腔外科","count":1,"level":"detail"},{"id":"medical-2-17494","name":"中野５丁目眼科クリニック","categoryId":"medical","categoryLabel":"医疗","lat":35.708001,"lng":139.665766,"stationId":"nakano","note":"眼科","count":1,"level":"detail"},{"id":"medical-2-11542","name":"丸井健康保険組合診療所","categoryId":"medical","categoryLabel":"医疗","lat":35.700859,"lng":139.663742,"stationId":"nakano","note":"内科　外科　婦人科　眼科","count":1,"level":"detail"},{"id":"medical-2-17155","name":"丹羽クリニック","categoryId":"medical","categoryLabel":"医疗","lat":35.70172,"lng":139.694933,"stationId":"station-003604","note":"内科　消化器内科　胃腸内科　アレルギー科","count":1,"level":"detail"},{"id":"medical-2-11885","name":"久木田医院","categoryId":"medical","categoryLabel":"医疗","lat":35.721289,"lng":139.683169,"stationId":"station-003448","note":"内科　小児科　耳鼻咽喉科　放射線科","count":1,"level":"detail"},{"id":"medical-3-12563","name":"五十嵐歯科","categoryId":"medical","categoryLabel":"医疗","lat":35.707922,"lng":139.66781,"stationId":"nakano","note":"歯科","count":1,"level":"detail"},{"id":"medical-2-10656","name":"井上内科診療所","categoryId":"medical","categoryLabel":"医疗","lat":35.709298,"lng":139.665682,"stationId":"nakano","note":"内科　循環器科　消化器科","count":1,"level":"detail"},{"id":"medical-2-10634","name":"井上医院","categoryId":"medical","categoryLabel":"医疗","lat":35.717002,"lng":139.671857,"stationId":"station-003489","note":"内科　小児科　循環器内科","count":1,"level":"detail"},{"id":"medical-2-4776","name":"伊藤メディカルクリニック","categoryId":"medical","categoryLabel":"医疗","lat":35.71102,"lng":139.686896,"stationId":"station-003523","note":"内科　循環器内科　糖尿病内科　外科　血管外科　皮膚科　アレルギー科","count":1,"level":"detail"},{"id":"medical-3-4785","name":"伊藤歯科クリニック","categoryId":"medical","categoryLabel":"医疗","lat":35.720232,"lng":139.678715,"stationId":"station-003448","note":"歯科　小児歯科　歯科口腔外科","count":1,"level":"detail"},{"id":"medical-3-13210","name":"佐川歯科","categoryId":"medical","categoryLabel":"医疗","lat":35.702076,"lng":139.685501,"stationId":"station-003549","note":"歯科　矯正歯科　小児歯科","count":1,"level":"detail"},{"id":"medical-3-13211","name":"佐竹歯科クリニック","categoryId":"medical","categoryLabel":"医疗","lat":35.709986,"lng":139.669507,"stationId":"nakano","note":"歯科","count":1,"level":"detail"},{"id":"medical-2-13217","name":"佐藤クリニック","categoryId":"medical","categoryLabel":"医疗","lat":35.722462,"lng":139.690299,"stationId":"station-003426","note":"内科　胃腸科　外科　放射線科","count":1,"level":"detail"},{"id":"medical-2-20410","name":"優和メンタルクリニック","categoryId":"medical","categoryLabel":"医疗","lat":35.704664,"lng":139.666185,"stationId":"nakano","note":"内科　神経科　精神科　心療内科","count":1,"level":"detail"},{"id":"medical-2-18700","name":"内科．眼科　栗原医院","categoryId":"medical","categoryLabel":"医疗","lat":35.710701,"lng":139.665025,"stationId":"nakano","note":"内科　眼科","count":1,"level":"detail"},{"id":"medical-3-16483","name":"前原歯科医院","categoryId":"medical","categoryLabel":"医疗","lat":35.701152,"lng":139.671529,"stationId":"station-003638","note":"歯科","count":1,"level":"detail"},{"id":"medical-3-16502","name":"前島歯科医院","categoryId":"medical","categoryLabel":"医疗","lat":35.707809,"lng":139.680418,"stationId":"station-003549","note":"歯科","count":1,"level":"detail"},{"id":"medical-2-16488","name":"前田クリニック","categoryId":"medical","categoryLabel":"医疗","lat":35.71016,"lng":139.664842,"stationId":"nakano","note":"神経科　精神科　心療内科","count":1,"level":"detail"},{"id":"medical-2-19888","name":"北新宿特別養護老人ホーム医務室","categoryId":"medical","categoryLabel":"医疗","lat":35.704744,"lng":139.689835,"stationId":"station-003549","note":"内科　精神科　神経科　整形外科","count":1,"level":"detail"},{"id":"medical-2-19936","name":"北部すこやか福祉センター","categoryId":"medical","categoryLabel":"医疗","lat":35.724631,"lng":139.661562,"stationId":"station-003475","note":"内科　歯科","count":1,"level":"detail"},{"id":"medical-2-5096","name":"医療法人社団　あんず会　いしい内科クリニック","categoryId":"medical","categoryLabel":"医疗","lat":35.723677,"lng":139.662315,"stationId":"station-003475","note":"内科　消化器内科　胃腸内科　循環器内科","count":1,"level":"detail"},{"id":"medical-3-5105","name":"医療法人社団　おきとう矯正歯科","categoryId":"medical","categoryLabel":"医疗","lat":35.707724,"lng":139.665393,"stationId":"nakano","note":"歯科　矯正歯科　小児歯科","count":1,"level":"detail"},{"id":"medical-2-5115","name":"医療法人社団　くまくぼ整形外科","categoryId":"medical","categoryLabel":"医疗","lat":35.718887,"lng":139.664218,"stationId":"station-003475","note":"整形外科　理学診療科","count":1,"level":"detail"},{"id":"medical-2-5119","name":"医療法人社団　こじま内科","categoryId":"medical","categoryLabel":"医疗","lat":35.70475,"lng":139.66085,"stationId":"nakano","note":"内科　小児科　呼吸器内科　アレルギー科","count":1,"level":"detail"},{"id":"medical-2-5151","name":"医療法人社団　なすの華会　島田皮膚科医院","categoryId":"medical","categoryLabel":"医疗","lat":35.703478,"lng":139.673257,"stationId":"nakano","note":"皮膚科　肛門科","count":1,"level":"detail"},{"id":"medical-2-5212","name":"医療法人社団　一新会　南長崎こみ山医院","categoryId":"medical","categoryLabel":"医疗","lat":35.724378,"lng":139.687691,"stationId":"station-003448","note":"内科　小児科　循環器科　消化器科","count":1,"level":"detail"},{"id":"medical-2-5851","name":"医療法人社団　中山レディスクリニック","categoryId":"medical","categoryLabel":"医疗","lat":35.707944,"lng":139.682602,"stationId":"station-003549","note":"産婦人科","count":1,"level":"detail"},{"id":"medical-2-5454","name":"医療法人社団　佐光会　さわだ医院","categoryId":"medical","categoryLabel":"医疗","lat":35.72179,"lng":139.660437,"stationId":"station-003475","note":"内科　消化器科　小児科","count":1,"level":"detail"},{"id":"medical-3-5572","name":"医療法人社団　俊栄会　Ａ−ＯＮＥ歯科クリニック","categoryId":"medical","categoryLabel":"医疗","lat":35.713941,"lng":139.669386,"stationId":"station-003489","note":"歯科　矯正歯科　小児歯科　歯科口腔外科","count":1,"level":"detail"},{"id":"medical-2-5398","name":"医療法人社団　功恵会　武藤耳鼻いんこう科医院","categoryId":"medical","categoryLabel":"医疗","lat":35.704652,"lng":139.685103,"stationId":"station-003549","note":"耳鼻咽喉科","count":1,"level":"detail"},{"id":"medical-2-5941","name":"医療法人社団　博瞳会　上高田眼科","categoryId":"medical","categoryLabel":"医疗","lat":35.716349,"lng":139.671629,"stationId":"station-003489","note":"眼科","count":1,"level":"detail"},{"id":"medical-2-5516","name":"医療法人社団　寺内医院","categoryId":"medical","categoryLabel":"医疗","lat":35.716265,"lng":139.670182,"stationId":"station-003489","note":"内科　産婦人科","count":1,"level":"detail"},{"id":"medical-2-5496","name":"医療法人社団　山田クリニック","categoryId":"medical","categoryLabel":"医疗","lat":35.711841,"lng":139.665234,"stationId":"nakano","note":"内科　小児科　放射線科　胃腸科","count":1,"level":"detail"},{"id":"medical-3-5409","name":"医療法人社団　幸友会　中野デンタルクリニック","categoryId":"medical","categoryLabel":"医疗","lat":35.71016,"lng":139.664842,"stationId":"nakano","note":"歯科　矯正歯科　歯科口腔外科","count":1,"level":"detail"},{"id":"medical-1-5917","name":"医療法人社団　徳静会　横畠病院","categoryId":"medical","categoryLabel":"医疗","lat":35.713009,"lng":139.666114,"stationId":"station-003489","note":"内科　消化器内科　外科　消化器外科　肛門外科　整形外科　リハビリ科　循環器内科","count":1,"level":"detail"},{"id":"medical-2-5651","name":"医療法人社団　心醫会　横内醫院","categoryId":"medical","categoryLabel":"医疗","lat":35.706542,"lng":139.684664,"stationId":"station-003549","note":"内科　外科","count":1,"level":"detail"},{"id":"medical-2-5339","name":"医療法人社団　慶順会　柏木医科クリニック","categoryId":"medical","categoryLabel":"医疗","lat":35.7018,"lng":139.693217,"stationId":"station-003604","note":"内科　胃腸科　外科　整形外科　皮膚科　肛門科","count":1,"level":"detail"},{"id":"medical-2-5576","name":"医療法人社団　春香会　春川内科クリニック","categoryId":"medical","categoryLabel":"医疗","lat":35.720963,"lng":139.672603,"stationId":"station-003489","note":"内科　神経内科　アレルギー科　小児科","count":1,"level":"detail"},{"id":"medical-2-5743","name":"医療法人社団　清仁会　哲学堂きくち皮膚科","categoryId":"medical","categoryLabel":"医疗","lat":35.718683,"lng":139.670253,"stationId":"station-003489","note":"皮膚科　アレルギー科","count":1,"level":"detail"},{"id":"medical-2-5547","name":"医療法人社団　珠ＭＥＤＩＣＡＬ　髙島クリニック","categoryId":"medical","categoryLabel":"医疗","lat":35.71454,"lng":139.687919,"stationId":"station-003495","note":"内科　消化器内科　胃腸内科　外科　乳腺外科　整形外科　美容皮膚科","count":1,"level":"detail"},{"id":"medical-3-5873","name":"医療法人社団　田中歯科クリニック","categoryId":"medical","categoryLabel":"医疗","lat":35.72399,"lng":139.665101,"stationId":"station-003475","note":"歯科　矯正歯科　小児歯科","count":1,"level":"detail"},{"id":"medical-2-5632","name":"医療法人社団　省賢会　古藤クリニック","categoryId":"medical","categoryLabel":"医疗","lat":35.705084,"lng":139.668721,"stationId":"nakano","note":"内科　消化器内科　胃腸内科　糖尿病内科　代謝内科　脂質代謝内科","count":1,"level":"detail"},{"id":"medical-2-5566","name":"医療法人社団　秀俊会　かわかつ耳鼻咽喉科","categoryId":"medical","categoryLabel":"医疗","lat":35.712834,"lng":139.666614,"stationId":"station-003489","note":"耳鼻咽喉科","count":1,"level":"detail"},{"id":"medical-2-5977","name":"医療法人社団　穂積会　井口クリニック","categoryId":"medical","categoryLabel":"医疗","lat":35.72382,"lng":139.690949,"stationId":"station-003426","note":"内科　小児科　神経内科","count":1,"level":"detail"},{"id":"medical-2-5905","name":"医療法人社団　糖真会　上落合真クリニック","categoryId":"medical","categoryLabel":"医疗","lat":35.711289,"lng":139.691181,"stationId":"station-003523","note":"内科　小児科　糖尿病内科","count":1,"level":"detail"},{"id":"medical-3-6111","name":"医療法人社団　翔舞会　エムズ歯科クリニック下落合","categoryId":"medical","categoryLabel":"医疗","lat":35.715932,"lng":139.694823,"stationId":"station-003491","note":"歯科　矯正歯科　小児歯科　歯科口腔外科","count":1,"level":"detail"},{"id":"medical-2-5865","name":"医療法人社団　鉄伸会　かたやま医院","categoryId":"medical","categoryLabel":"医疗","lat":35.710181,"lng":139.692612,"stationId":"station-003523","note":"内科　皮膚科　小児科","count":1,"level":"detail"},{"id":"medical-3-6741","name":"医療法人社団ペリオ会　宮田歯科医院","categoryId":"medical","categoryLabel":"医疗","lat":35.720665,"lng":139.663506,"stationId":"station-003475","note":"歯科　矯正歯科　小児歯科","count":1,"level":"detail"},{"id":"medical-3-8048","name":"医療法人社団三優会　優歯科クリニック沼袋","categoryId":"medical","categoryLabel":"医疗","lat":35.719783,"lng":139.663367,"stationId":"station-003475","note":"歯科　矯正歯科　小児歯科","count":1,"level":"detail"},{"id":"medical-3-9634","name":"医療法人社団二木会　西落合ニキデンタルクリニック","categoryId":"medical","categoryLabel":"医疗","lat":35.722802,"lng":139.684152,"stationId":"station-003448","note":"歯科　矯正歯科　歯科口腔外科","count":1,"level":"detail"},{"id":"medical-2-8714","name":"医療法人社団仁医会　東中野クリニック","categoryId":"medical","categoryLabel":"医疗","lat":35.706067,"lng":139.683635,"stationId":"station-003549","note":"内科　神経内科","count":1,"level":"detail"},{"id":"medical-3-8729","name":"医療法人社団仁慈会　ホワイトデンタルクリニック","categoryId":"medical","categoryLabel":"医疗","lat":35.707272,"lng":139.682964,"stationId":"station-003549","note":"歯科　矯正歯科　小児歯科　歯科口腔外科","count":1,"level":"detail"},{"id":"medical-3-8759","name":"医療法人社団仁晟会　キッズ＆ファミリー歯科","categoryId":"medical","categoryLabel":"医疗","lat":35.707018,"lng":139.682822,"stationId":"station-003549","note":"歯科　矯正歯科　小児歯科　歯科口腔外科","count":1,"level":"detail"},{"id":"medical-3-8760","name":"医療法人社団仁晟会　桜山デンタルクリニック","categoryId":"medical","categoryLabel":"医疗","lat":35.70984,"lng":139.682624,"stationId":"station-003523","note":"歯科　矯正歯科　小児歯科　歯科口腔外科","count":1,"level":"detail"},{"id":"medical-3-8562","name":"医療法人社団伸永会　原歯科医院","categoryId":"medical","categoryLabel":"医疗","lat":35.705953,"lng":139.681407,"stationId":"station-003549","note":"歯科　矯正歯科　小児歯科　歯科口腔外科","count":1,"level":"detail"},{"id":"medical-2-7946","name":"医療法人社団佐介会　田中クリニック","categoryId":"medical","categoryLabel":"医疗","lat":35.70857,"lng":139.681532,"stationId":"station-003549","note":"内科　呼吸器内科　アレルギー科","count":1,"level":"detail"},{"id":"medical-3-7520","name":"医療法人社団健幸会　安藤歯科クリニック","categoryId":"medical","categoryLabel":"医疗","lat":35.707705,"lng":139.683715,"stationId":"station-003549","note":"歯科","count":1,"level":"detail"},{"id":"medical-2-9161","name":"医療法人社団千晶会　落合駅前クリニック","categoryId":"medical","categoryLabel":"医疗","lat":35.710187,"lng":139.68327,"stationId":"station-003523","note":"内科　小児科　精神科　アレルギー科　外科　整形外科　皮膚科","count":1,"level":"detail"},{"id":"medical-2-9152","name":"医療法人社団千秋双葉会　耳鼻咽喉科セントラルパーク中野","categoryId":"medical","categoryLabel":"医疗","lat":35.707828,"lng":139.662931,"stationId":"nakano","note":"アレルギー科　耳鼻いんこう科","count":1,"level":"detail"},{"id":"medical-2-8090","name":"医療法人社団史光会　東中野とみどころ眼科","categoryId":"medical","categoryLabel":"医疗","lat":35.706707,"lng":139.687273,"stationId":"station-003549","note":"眼科","count":1,"level":"detail"},{"id":"medical-2-10414","name":"医療法人社団和光会　藤保クリニック","categoryId":"medical","categoryLabel":"医疗","lat":35.705068,"lng":139.691147,"stationId":"station-003549","note":"内科　神経内科　呼吸器科　胃腸科　循環器科　外科　皮膚科リハビリテーション科　形成外科","count":1,"level":"detail"},{"id":"medical-2-10409","name":"医療法人社団和貴会　きたほり内科クリニック","categoryId":"medical","categoryLabel":"医疗","lat":35.724336,"lng":139.682513,"stationId":"station-003448","note":"循環器内科　呼吸器内科　内科","count":1,"level":"detail"},{"id":"medical-2-8100","name":"医療法人社団四葉会　木島内科クリニック","categoryId":"medical","categoryLabel":"医疗","lat":35.715334,"lng":139.691911,"stationId":"station-003491","note":"内科　小児科　神経内科　呼吸器科　消化器科　胃腸科　循環器科整形外科　皮膚科　リハビリテーション科","count":1,"level":"detail"},{"id":"medical-3-7000","name":"医療法人社団因幡会中野セントラルパークデンタルオフィス","categoryId":"medical","categoryLabel":"医疗","lat":35.707662,"lng":139.661435,"stationId":"nakano","note":"歯科　矯正歯科　小児歯科　歯科口腔外科","count":1,"level":"detail"},{"id":"medical-2-8263","name":"医療法人社団寿慶会小滝橋整形外科","categoryId":"medical","categoryLabel":"医疗","lat":35.709323,"lng":139.694228,"stationId":"station-003491","note":"内科　リウマチ科　整形外科　リハビリテーション科","count":1,"level":"detail"},{"id":"medical-3-9881","name":"医療法人社団峰瑛会中野ニュークリア歯科","categoryId":"medical","categoryLabel":"医疗","lat":35.705326,"lng":139.665225,"stationId":"nakano","note":"歯科　小児歯科","count":1,"level":"detail"},{"id":"medical-3-7766","name":"医療法人社団幸友会　松尾歯科医院","categoryId":"medical","categoryLabel":"医疗","lat":35.71016,"lng":139.664842,"stationId":"nakano","note":"歯科　矯正歯科　小児歯科　歯科口腔外科","count":1,"level":"detail"},{"id":"medical-2-7739","name":"医療法人社団幸毅会　なかの中澤眼科","categoryId":"medical","categoryLabel":"医疗","lat":35.704735,"lng":139.665115,"stationId":"nakano","note":"眼科","count":1,"level":"detail"},{"id":"medical-3-6870","name":"医療法人社団愛育　愛育歯科診療所","categoryId":"medical","categoryLabel":"医疗","lat":35.709298,"lng":139.665682,"stationId":"nakano","note":"歯科　矯正歯科　小児歯科","count":1,"level":"detail"},{"id":"medical-2-8195","name":"医療法人社団慈泰会　中野皮膚科クリニック","categoryId":"medical","categoryLabel":"医疗","lat":35.70418,"lng":139.66569,"stationId":"nakano","note":"皮膚科　美容皮膚科　小児皮膚科　形成外科","count":1,"level":"detail"},{"id":"medical-3-7458","name":"医療法人社団慧正会　ねぎしデンタルクリニック","categoryId":"medical","categoryLabel":"医疗","lat":35.709434,"lng":139.67245,"stationId":"station-003489","note":"歯科","count":1,"level":"detail"},{"id":"medical-2-7436","name":"医療法人社団慶池会　メディカルコート池田耳鼻咽喉科","categoryId":"medical","categoryLabel":"医疗","lat":35.705953,"lng":139.681403,"stationId":"station-003549","note":"耳鼻咽喉科","count":1,"level":"detail"},{"id":"medical-2-7440","name":"医療法人社団慶津会北新宿ホームクリニック","categoryId":"medical","categoryLabel":"医疗","lat":35.708321,"lng":139.693119,"stationId":"station-003523","note":"内科","count":1,"level":"detail"},{"id":"medical-3-7595","name":"医療法人社団憲英会　カモハラ歯科医院","categoryId":"medical","categoryLabel":"医疗","lat":35.70169,"lng":139.692227,"stationId":"station-003604","note":"歯科","count":1,"level":"detail"},{"id":"medical-2-7490","name":"医療法人社団敬裕会　高田整形外科クリニック","categoryId":"medical","categoryLabel":"医疗","lat":35.705953,"lng":139.681403,"stationId":"station-003549","note":"整形外科　形成外科　理学診療科　放射線科","count":1,"level":"detail"},{"id":"medical-2-8638","name":"医療法人社団新裕会　オリエンタル診療所","categoryId":"medical","categoryLabel":"医疗","lat":35.720551,"lng":139.6746,"stationId":"station-003489","note":"内科　小児科　消化器科　外科　皮膚科　アレルギー科","count":1,"level":"detail"},{"id":"medical-2-9978","name":"医療法人社団明雅会　福田眼科医院","categoryId":"medical","categoryLabel":"医疗","lat":35.711079,"lng":139.663014,"stationId":"nakano","note":"眼科","count":1,"level":"detail"},{"id":"medical-2-9979","name":"医療法人社団明雅会　福田眼科医院分室","categoryId":"medical","categoryLabel":"医疗","lat":35.711079,"lng":139.663014,"stationId":"nakano","note":"眼科","count":1,"level":"detail"},{"id":"medical-2-8421","name":"医療法人社団曙光会　落合内科クリニック","categoryId":"medical","categoryLabel":"医疗","lat":35.721802,"lng":139.681132,"stationId":"station-003448","note":"内科　皮膚科","count":1,"level":"detail"},{"id":"medical-2-7331","name":"医療法人社団桑原医院","categoryId":"medical","categoryLabel":"医疗","lat":35.703803,"lng":139.692516,"stationId":"station-003604","note":"内科　消化器科　循環器科","count":1,"level":"detail"},{"id":"medical-3-8149","name":"医療法人社団歯優会　東中野歯科クリニック","categoryId":"medical","categoryLabel":"医疗","lat":35.704731,"lng":139.683018,"stationId":"station-003549","note":"歯科　矯正歯科　小児歯科","count":1,"level":"detail"},{"id":"medical-2-8767","name":"医療法人社団水神会　中井駅前クリニック","categoryId":"medical","categoryLabel":"医疗","lat":35.714635,"lng":139.686961,"stationId":"station-003495","note":"内科　小児科　アレルギー科　皮膚科","count":1,"level":"detail"},{"id":"medical-2-8773","name":"医療法人社団水聖会メディカルスキャニング中野","categoryId":"medical","categoryLabel":"医疗","lat":35.708653,"lng":139.665293,"stationId":"nakano","note":"内科　放射線科","count":1,"level":"detail"},{"id":"medical-2-9963","name":"医療法人社団満真会　上落合おばたクリニック","categoryId":"medical","categoryLabel":"医疗","lat":35.710744,"lng":139.689332,"stationId":"station-003523","note":"内科　消化器科　外科","count":1,"level":"detail"},{"id":"medical-3-8668","name":"医療法人社団真波会　マナミ歯科クリニック","categoryId":"medical","categoryLabel":"医疗","lat":35.701892,"lng":139.664947,"stationId":"nakano","note":"歯科　小児歯科　歯科口腔外科","count":1,"level":"detail"},{"id":"medical-3-8320","name":"医療法人社団秀心会　小滝橋歯科","categoryId":"medical","categoryLabel":"医疗","lat":35.714619,"lng":139.693219,"stationId":"station-003491","note":"歯科　小児歯科","count":1,"level":"detail"},{"id":"medical-3-10386","name":"医療法人社団練廣会　松山デンタルオフィス中野","categoryId":"medical","categoryLabel":"医疗","lat":35.70418,"lng":139.66569,"stationId":"nakano","note":"歯科　矯正歯科　小児歯科　歯科口腔外科","count":1,"level":"detail"},{"id":"medical-3-10519","name":"医療法人社団翔舞会　エムズ歯科　予防・口腔ケアクリニック","categoryId":"medical","categoryLabel":"医疗","lat":35.70753,"lng":139.686389,"stationId":"station-003549","note":"歯科　矯正歯科　小児歯科　歯科口腔外科","count":1,"level":"detail"},{"id":"medical-3-10520","name":"医療法人社団翔舞会　エムズ歯科クリニック","categoryId":"medical","categoryLabel":"医疗","lat":35.706006,"lng":139.686198,"stationId":"station-003549","note":"歯科　矯正歯科　小児歯科　歯科口腔外科","count":1,"level":"detail"},{"id":"medical-3-8246","name":"医療法人社団若桐会　林歯科医院","categoryId":"medical","categoryLabel":"医疗","lat":35.706392,"lng":139.668662,"stationId":"nakano","note":"歯科","count":1,"level":"detail"},{"id":"medical-3-9061","name":"医療法人社団誠美会　木村歯科医院","categoryId":"medical","categoryLabel":"医疗","lat":35.723416,"lng":139.679262,"stationId":"station-003448","note":"歯科　矯正歯科　小児歯科","count":1,"level":"detail"},{"id":"medical-2-10252","name":"医療法人社団陽輝会　河合眼科医院","categoryId":"medical","categoryLabel":"医疗","lat":35.707272,"lng":139.682964,"stationId":"station-003549","note":"眼科","count":1,"level":"detail"},{"id":"medical-2-9076","name":"医療法人社団青弘会　はまやホームケアクリニック","categoryId":"medical","categoryLabel":"医疗","lat":35.7224,"lng":139.675915,"stationId":"station-003448","note":"内科　消化器内科　外科","count":1,"level":"detail"},{"id":"medical-2-16333","name":"千代田診療所","categoryId":"medical","categoryLabel":"医疗","lat":35.705806,"lng":139.684167,"stationId":"station-003549","note":"内科","count":1,"level":"detail"},{"id":"medical-3-18809","name":"南保歯科医院","categoryId":"medical","categoryLabel":"医疗","lat":35.716031,"lng":139.688219,"stationId":"station-003495","note":"歯科　歯科口腔外科","count":1,"level":"detail"},{"id":"medical-3-18758","name":"南口歯科","categoryId":"medical","categoryLabel":"医疗","lat":35.71906,"lng":139.663351,"stationId":"station-003475","note":"歯科　矯正歯科　小児歯科","count":1,"level":"detail"},{"id":"medical-2-18795","name":"南長崎整形リハビリクリニック","categoryId":"medical","categoryLabel":"医疗","lat":35.724336,"lng":139.682513,"stationId":"station-003448","note":"整形外科　リハビリテーション科　リウマチ科","count":1,"level":"detail"},{"id":"medical-2-18796","name":"南長崎皮フ科医院","categoryId":"medical","categoryLabel":"医疗","lat":35.722832,"lng":139.691025,"stationId":"station-003426","note":"皮膚科","count":1,"level":"detail"},{"id":"medical-3-12464","name":"原歯科室","categoryId":"medical","categoryLabel":"医疗","lat":35.705498,"lng":139.674279,"stationId":"nakano","note":"歯科","count":1,"level":"detail"},{"id":"medical-2-12524","name":"古明地医院","categoryId":"medical","categoryLabel":"医疗","lat":35.724897,"lng":139.693712,"stationId":"station-003426","note":"内科　小児科","count":1,"level":"detail"},{"id":"medical-3-11704","name":"吉永歯科医院","categoryId":"medical","categoryLabel":"医疗","lat":35.706296,"lng":139.669534,"stationId":"nakano","note":"歯科","count":1,"level":"detail"},{"id":"medical-3-20738","name":"和田歯科医院","categoryId":"medical","categoryLabel":"医疗","lat":35.708199,"lng":139.686211,"stationId":"station-003549","note":"歯科　歯科口腔外科","count":1,"level":"detail"},{"id":"medical-2-17696","name":"哲学堂　石井眼科医院","categoryId":"medical","categoryLabel":"医疗","lat":35.72419,"lng":139.675242,"stationId":"station-003448","note":"眼科","count":1,"level":"detail"},{"id":"medical-3-17697","name":"哲学堂デンタルクリニック","categoryId":"medical","categoryLabel":"医疗","lat":35.723792,"lng":139.676191,"stationId":"station-003448","note":"歯科　矯正歯科　小児歯科　歯科口腔外科","count":1,"level":"detail"},{"id":"medical-2-17698","name":"哲学堂石井内科医院","categoryId":"medical","categoryLabel":"医疗","lat":35.72419,"lng":139.675242,"stationId":"station-003448","note":"内科　消化器内科　胃腸内科","count":1,"level":"detail"},{"id":"medical-3-19975","name":"堀歯科診療所","categoryId":"medical","categoryLabel":"医疗","lat":35.704948,"lng":139.682286,"stationId":"station-003549","note":"歯科　小児歯科　歯科口腔外科","count":1,"level":"detail"},{"id":"medical-2-16810","name":"大久保渡辺クリニック","categoryId":"medical","categoryLabel":"医疗","lat":35.702024,"lng":139.694687,"stationId":"station-003604","note":"内科　泌尿器科","count":1,"level":"detail"},{"id":"medical-3-16821","name":"大橋歯科医院","categoryId":"medical","categoryLabel":"医疗","lat":35.71162,"lng":139.663727,"stationId":"nakano","note":"歯科　小児歯科","count":1,"level":"detail"},{"id":"medical-3-16924","name":"大石歯科クリニック","categoryId":"medical","categoryLabel":"医疗","lat":35.707415,"lng":139.672786,"stationId":"nakano","note":"歯科","count":1,"level":"detail"},{"id":"medical-3-16971","name":"大竹歯科医院","categoryId":"medical","categoryLabel":"医疗","lat":35.715163,"lng":139.669736,"stationId":"station-003489","note":"歯科","count":1,"level":"detail"},{"id":"medical-3-17728","name":"天祐堂歯科医院","categoryId":"medical","categoryLabel":"医疗","lat":35.708049,"lng":139.691803,"stationId":"station-003523","note":"歯科","count":1,"level":"detail"},{"id":"medical-2-17717","name":"天野医院","categoryId":"medical","categoryLabel":"医疗","lat":35.715678,"lng":139.670882,"stationId":"station-003489","note":"耳鼻咽喉科","count":1,"level":"detail"},{"id":"medical-3-17721","name":"天野歯科クリニック","categoryId":"medical","categoryLabel":"医疗","lat":35.708522,"lng":139.665303,"stationId":"nakano","note":"歯科　矯正歯科","count":1,"level":"detail"},{"id":"medical-2-16698","name":"太田医院","categoryId":"medical","categoryLabel":"医疗","lat":35.711021,"lng":139.666498,"stationId":"nakano","note":"耳鼻咽喉科","count":1,"level":"detail"},{"id":"medical-3-16701","name":"太田歯科","categoryId":"medical","categoryLabel":"医疗","lat":35.70964,"lng":139.667696,"stationId":"nakano","note":"歯科","count":1,"level":"detail"},{"id":"medical-2-16707","name":"太田皮膚科","categoryId":"medical","categoryLabel":"医疗","lat":35.705693,"lng":139.682931,"stationId":"station-003549","note":"皮膚科","count":1,"level":"detail"},{"id":"medical-3-10771","name":"宇井歯科医院","categoryId":"medical","categoryLabel":"医疗","lat":35.721518,"lng":139.694251,"stationId":"station-003426","note":"歯科","count":1,"level":"detail"},{"id":"medical-2-10782","name":"宇野医院","categoryId":"medical","categoryLabel":"医疗","lat":35.701878,"lng":139.678574,"stationId":"station-003643","note":"内科　小児科","count":1,"level":"detail"},{"id":"medical-3-4732","name":"安田歯科医院","categoryId":"medical","categoryLabel":"医疗","lat":35.71067,"lng":139.665376,"stationId":"nakano","note":"歯科　矯正歯科","count":1,"level":"detail"},{"id":"medical-3-11900","name":"宮下歯科クリニック","categoryId":"medical","categoryLabel":"医疗","lat":35.701343,"lng":139.678286,"stationId":"station-003643","note":"歯科","count":1,"level":"detail"},{"id":"medical-2-11892","name":"宮医院","categoryId":"medical","categoryLabel":"医疗","lat":35.712172,"lng":139.677347,"stationId":"station-003489","note":"内科　消化器科　小児科","count":1,"level":"detail"},{"id":"medical-2-11926","name":"宮地内科医院","categoryId":"medical","categoryLabel":"医疗","lat":35.709357,"lng":139.674973,"stationId":"station-003489","note":"内科　循環器科　小児科","count":1,"level":"detail"},{"id":"medical-3-11920","name":"宮川歯科診療所","categoryId":"medical","categoryLabel":"医疗","lat":35.717706,"lng":139.667481,"stationId":"station-003475","note":"歯科","count":1,"level":"detail"},{"id":"medical-3-14585","name":"小池歯科クリニック","categoryId":"medical","categoryLabel":"医疗","lat":35.710938,"lng":139.689169,"stationId":"station-003523","note":"歯科　小児歯科　歯科口腔外科","count":1,"level":"detail"},{"id":"medical-2-14576","name":"小滝橋西野眼科クリニック","categoryId":"medical","categoryLabel":"医疗","lat":35.709361,"lng":139.693383,"stationId":"station-003523","note":"眼科","count":1,"level":"detail"},{"id":"medical-3-14534","name":"小西歯科医院","categoryId":"medical","categoryLabel":"医疗","lat":35.711511,"lng":139.667762,"stationId":"station-003489","note":"歯科","count":1,"level":"detail"},{"id":"medical-3-14536","name":"小西歯科医院","categoryId":"medical","categoryLabel":"医疗","lat":35.720269,"lng":139.691099,"stationId":"station-003491","note":"歯科","count":1,"level":"detail"},{"id":"medical-2-19296","name":"尾崎内科","categoryId":"medical","categoryLabel":"医疗","lat":35.708405,"lng":139.667956,"stationId":"nakano","note":"内科","count":1,"level":"detail"},{"id":"medical-2-13591","name":"山下眼科","categoryId":"medical","categoryLabel":"医疗","lat":35.705885,"lng":139.681183,"stationId":"station-003549","note":"眼科","count":1,"level":"detail"},{"id":"medical-3-13718","name":"山内歯科医院","categoryId":"medical","categoryLabel":"医疗","lat":35.706568,"lng":139.684345,"stationId":"station-003549","note":"歯科　矯正歯科　小児歯科","count":1,"level":"detail"},{"id":"medical-3-13618","name":"山口歯科医院","categoryId":"medical","categoryLabel":"医疗","lat":35.723552,"lng":139.690712,"stationId":"station-003426","note":"歯科","count":1,"level":"detail"},{"id":"medical-2-13602","name":"山岸クリニック","categoryId":"medical","categoryLabel":"医疗","lat":35.707566,"lng":139.668265,"stationId":"nakano","note":"内科　小児科","count":1,"level":"detail"},{"id":"medical-3-13605","name":"山岸歯科医院","categoryId":"medical","categoryLabel":"医疗","lat":35.713336,"lng":139.690581,"stationId":"station-003495","note":"歯科","count":1,"level":"detail"},{"id":"medical-2-13727","name":"山本りかアイクリニック","categoryId":"medical","categoryLabel":"医疗","lat":35.714076,"lng":139.687032,"stationId":"station-003495","note":"眼科","count":1,"level":"detail"},{"id":"medical-3-13748","name":"山本歯科医院","categoryId":"medical","categoryLabel":"医疗","lat":35.715298,"lng":139.666027,"stationId":"station-003475","note":"歯科","count":1,"level":"detail"},{"id":"medical-2-13684","name":"山田医院","categoryId":"medical","categoryLabel":"医疗","lat":35.704978,"lng":139.66948,"stationId":"nakano","note":"内科　皮膚科　小児科　産婦人科","count":1,"level":"detail"},{"id":"medical-3-11006","name":"岡歯科医院","categoryId":"medical","categoryLabel":"医疗","lat":35.705084,"lng":139.668721,"stationId":"nakano","note":"歯科　矯正歯科　小児歯科　歯科口腔外科","count":1,"level":"detail"},{"id":"medical-2-11036","name":"岡部眼科","categoryId":"medical","categoryLabel":"医疗","lat":35.704664,"lng":139.666185,"stationId":"nakano","note":"眼科","count":1,"level":"detail"},{"id":"medical-3-16375","name":"川中歯科医院","categoryId":"medical","categoryLabel":"医疗","lat":35.714411,"lng":139.683664,"stationId":"station-003495","note":"歯科","count":1,"level":"detail"},{"id":"medical-2-16360","name":"川勝医院","categoryId":"medical","categoryLabel":"医疗","lat":35.712834,"lng":139.666614,"stationId":"station-003489","note":"内科　産婦人科","count":1,"level":"detail"},{"id":"medical-3-19683","name":"平山歯科クリニック","categoryId":"medical","categoryLabel":"医疗","lat":35.722591,"lng":139.6849,"stationId":"station-003448","note":"歯科　矯正歯科　小児歯科","count":1,"level":"detail"},{"id":"medical-2-12733","name":"広川医院","categoryId":"medical","categoryLabel":"医疗","lat":35.724629,"lng":139.662534,"stationId":"station-003475","note":"内科　循環器科　神経内科　理学診療科","count":1,"level":"detail"},{"id":"medical-3-14736","name":"庄司歯科医院","categoryId":"medical","categoryLabel":"医疗","lat":35.710071,"lng":139.69451,"stationId":"station-003491","note":"歯科","count":1,"level":"detail"},{"id":"medical-2-12604","name":"後藤クリニック","categoryId":"medical","categoryLabel":"医疗","lat":35.708175,"lng":139.682191,"stationId":"station-003549","note":"神経科　精神科　心療内科","count":1,"level":"detail"},{"id":"medical-2-12608","name":"後藤眼科","categoryId":"medical","categoryLabel":"医疗","lat":35.7031,"lng":139.665236,"stationId":"nakano","note":"眼科","count":1,"level":"detail"},{"id":"medical-3-4674","name":"愛育歯科新井","categoryId":"medical","categoryLabel":"医疗","lat":35.715619,"lng":139.670809,"stationId":"station-003489","note":"歯科　矯正歯科　小児歯科","count":1,"level":"detail"},{"id":"medical-3-16063","name":"斉藤歯科医院","categoryId":"medical","categoryLabel":"医疗","lat":35.705949,"lng":139.682211,"stationId":"station-003549","note":"歯科","count":1,"level":"detail"},{"id":"medical-2-15091","name":"新井クリニック","categoryId":"medical","categoryLabel":"医疗","lat":35.708306,"lng":139.683362,"stationId":"station-003549","note":"内科　循環器科　消化器科","count":1,"level":"detail"},{"id":"medical-2-15094","name":"新井五行堂医院","categoryId":"medical","categoryLabel":"医疗","lat":35.711195,"lng":139.673229,"stationId":"station-003489","note":"漢方内科　神経内科　脳神経外科　耳鼻咽喉科","count":1,"level":"detail"},{"id":"medical-3-15096","name":"新井歯科クリニック","categoryId":"medical","categoryLabel":"医疗","lat":35.719673,"lng":139.663392,"stationId":"station-003475","note":"歯科　矯正歯科　小児歯科　歯科口腔外科","count":1,"level":"detail"},{"id":"medical-3-15106","name":"新井薬師駅前歯科・こども歯科","categoryId":"medical","categoryLabel":"医疗","lat":35.715425,"lng":139.671876,"stationId":"station-003489","note":"歯科　矯正歯科　小児歯科　歯科口腔外科","count":1,"level":"detail"},{"id":"medical-2-15119","name":"新橋医院","categoryId":"medical","categoryLabel":"医疗","lat":35.712585,"lng":139.665355,"stationId":"station-003475","note":"内科　消化器科","count":1,"level":"detail"},{"id":"medical-1-15267","name":"新渡戸記念中野総合病院","categoryId":"medical","categoryLabel":"医疗","lat":35.702492,"lng":139.667056,"stationId":"nakano","note":"内科　小児科　精神科　脳神経内科　外科　整形外科　脳神経外科　婦人科　眼科　耳鼻いんこう科　皮膚科　泌尿器科　放射線科　麻酔科　病理診断科　消化器外科　循環器内科","count":1,"level":"detail"},{"id":"medical-2-18936","name":"日本光電工業株式会社医務室","categoryId":"medical","categoryLabel":"医疗","lat":35.719521,"lng":139.679088,"stationId":"station-003448","note":"内科","count":1,"level":"detail"},{"id":"medical-2-15701","name":"星野こどもクリニック","categoryId":"medical","categoryLabel":"医疗","lat":35.71939,"lng":139.692847,"stationId":"station-003491","note":"内科　小児科","count":1,"level":"detail"},{"id":"medical-3-12375","name":"景山歯科医院","categoryId":"medical","categoryLabel":"医疗","lat":35.701743,"lng":139.675954,"stationId":"station-003638","note":"歯科　矯正歯科　小児歯科　歯科口腔外科","count":1,"level":"detail"},{"id":"medical-2-20180","name":"木村内科","categoryId":"medical","categoryLabel":"医疗","lat":35.704474,"lng":139.686276,"stationId":"station-003549","note":"内科　小児科","count":1,"level":"detail"},{"id":"medical-3-18363","name":"東中野矯正歯科","categoryId":"medical","categoryLabel":"医疗","lat":35.70767,"lng":139.682091,"stationId":"station-003549","note":"矯正歯科","count":1,"level":"detail"},{"id":"medical-2-18099","name":"東京セントラルクリニック","categoryId":"medical","categoryLabel":"医疗","lat":35.701801,"lng":139.685448,"stationId":"station-003643","note":"内科","count":1,"level":"detail"},{"id":"medical-2-18150","name":"東京医療生活協同組合　中野クリニック","categoryId":"medical","categoryLabel":"医疗","lat":35.703453,"lng":139.667463,"stationId":"nakano","note":"内科","count":1,"level":"detail"},{"id":"medical-2-18237","name":"東京都児童相談センター　診療所","categoryId":"medical","categoryLabel":"医疗","lat":35.708271,"lng":139.693841,"stationId":"station-003523","note":"精神科　小児科","count":1,"level":"detail"},{"id":"medical-2-18239","name":"東京都情報サービス産業健康保険組合東中野保健センター","categoryId":"medical","categoryLabel":"医疗","lat":35.70589,"lng":139.686153,"stationId":"station-003549","note":"内科　消化器科","count":1,"level":"detail"},{"id":"medical-3-11836","name":"杵渕歯科医院","categoryId":"medical","categoryLabel":"医疗","lat":35.705675,"lng":139.686431,"stationId":"station-003549","note":"歯科　矯正歯科　歯科口腔外科","count":1,"level":"detail"},{"id":"medical-2-14752","name":"松が丘医院","categoryId":"medical","categoryLabel":"医疗","lat":35.723437,"lng":139.671346,"stationId":"station-003475","note":"内科　呼吸器科　循環器科　消化器科　小児科","count":1,"level":"detail"},{"id":"medical-3-14761","name":"松井歯科医院","categoryId":"medical","categoryLabel":"医疗","lat":35.710442,"lng":139.68422,"stationId":"station-003523","note":"歯科","count":1,"level":"detail"},{"id":"medical-3-14837","name":"松尾歯科医院","categoryId":"medical","categoryLabel":"医疗","lat":35.720064,"lng":139.664124,"stationId":"station-003475","note":"歯科","count":1,"level":"detail"},{"id":"medical-2-14811","name":"松山皮膚科","categoryId":"medical","categoryLabel":"医疗","lat":35.710725,"lng":139.666331,"stationId":"nakano","note":"皮膚科","count":1,"level":"detail"},{"id":"medical-2-14872","name":"松本皮膚科","categoryId":"medical","categoryLabel":"医疗","lat":35.707042,"lng":139.689652,"stationId":"station-003549","note":"内科　皮膚科　小児科","count":1,"level":"detail"},{"id":"medical-2-14813","name":"松瀬医院","categoryId":"medical","categoryLabel":"医疗","lat":35.718676,"lng":139.671261,"stationId":"station-003489","note":"皮膚科　泌尿器科","count":1,"level":"detail"},{"id":"medical-3-14876","name":"松葉歯科医院","categoryId":"medical","categoryLabel":"医疗","lat":35.708011,"lng":139.686659,"stationId":"station-003549","note":"歯科　矯正歯科　小児歯科","count":1,"level":"detail"},{"id":"medical-3-12306","name":"栗原歯科医院","categoryId":"medical","categoryLabel":"医疗","lat":35.716057,"lng":139.688497,"stationId":"station-003495","note":"歯科　矯正歯科　小児歯科","count":1,"level":"detail"},{"id":"medical-2-12312","name":"栗田工業　本社医務室","categoryId":"medical","categoryLabel":"医疗","lat":35.707828,"lng":139.662931,"stationId":"nakano","note":"内科","count":1,"level":"detail"},{"id":"medical-3-18416","name":"桃園なかの歯科クリニック","categoryId":"medical","categoryLabel":"医疗","lat":35.700955,"lng":139.666877,"stationId":"station-003638","note":"歯科　矯正歯科　小児歯科","count":1,"level":"detail"},{"id":"medical-2-18417","name":"桃園医院","categoryId":"medical","categoryLabel":"医疗","lat":35.70533,"lng":139.663724,"stationId":"nakano","note":"内科","count":1,"level":"detail"},{"id":"medical-3-18418","name":"桃園通り村上歯科医院","categoryId":"medical","categoryLabel":"医疗","lat":35.703882,"lng":139.663777,"stationId":"nakano","note":"歯科　矯正歯科　小児歯科　歯科口腔外科","count":1,"level":"detail"},{"id":"medical-3-15305","name":"森山歯科医院","categoryId":"medical","categoryLabel":"医疗","lat":35.702699,"lng":139.667972,"stationId":"nakano","note":"歯科","count":1,"level":"detail"},{"id":"medical-3-15314","name":"森歯科医院","categoryId":"medical","categoryLabel":"医疗","lat":35.707119,"lng":139.689915,"stationId":"station-003549","note":"歯科","count":1,"level":"detail"},{"id":"medical-3-15068","name":"植杉歯科医院","categoryId":"medical","categoryLabel":"医疗","lat":35.72226,"lng":139.688002,"stationId":"station-003448","note":"歯科","count":1,"level":"detail"},{"id":"medical-3-10875","name":"榎本歯科医院","categoryId":"medical","categoryLabel":"医疗","lat":35.712585,"lng":139.673879,"stationId":"station-003489","note":"歯科　小児歯科","count":1,"level":"detail"},{"id":"medical-3-10956","name":"横山歯科診療所","categoryId":"medical","categoryLabel":"医疗","lat":35.703847,"lng":139.669235,"stationId":"nakano","note":"歯科　矯正歯科　小児歯科","count":1,"level":"detail"},{"id":"medical-2-12009","name":"橋爪医院","categoryId":"medical","categoryLabel":"医疗","lat":35.706478,"lng":139.690605,"stationId":"station-003549","note":"内科　眼科","count":1,"level":"detail"},{"id":"medical-3-12010","name":"橋爪歯科医院","categoryId":"medical","categoryLabel":"医疗","lat":35.706478,"lng":139.690605,"stationId":"station-003549","note":"歯科","count":1,"level":"detail"},{"id":"medical-2-19516","name":"武医院","categoryId":"medical","categoryLabel":"医疗","lat":35.705633,"lng":139.683285,"stationId":"station-003549","note":"皮膚科　小児科　外科　理学診療科","count":1,"level":"detail"},{"id":"medical-3-13908","name":"歯科仲井診療所","categoryId":"medical","categoryLabel":"医疗","lat":35.702656,"lng":139.665279,"stationId":"nakano","note":"歯科　矯正歯科　小児歯科　歯科口腔外科","count":1,"level":"detail"},{"id":"medical-2-11218","name":"河住内科循環器科","categoryId":"medical","categoryLabel":"医疗","lat":35.723317,"lng":139.692333,"stationId":"station-003426","note":"内科　循環器科　呼吸器科　消化器科","count":1,"level":"detail"},{"id":"medical-3-14889","name":"沼崎歯科医院","categoryId":"medical","categoryLabel":"医疗","lat":35.710052,"lng":139.662001,"stationId":"nakano","note":"歯科　小児歯科","count":1,"level":"detail"},{"id":"medical-2-14891","name":"沼袋すがなみ眼科","categoryId":"medical","categoryLabel":"医疗","lat":35.720665,"lng":139.663506,"stationId":"station-003475","note":"眼科","count":1,"level":"detail"},{"id":"medical-3-14892","name":"沼袋ソレイユ歯科・矯正歯科","categoryId":"medical","categoryLabel":"医疗","lat":35.722294,"lng":139.662736,"stationId":"station-003475","note":"歯科　矯正歯科　小児歯科　歯科口腔外科","count":1,"level":"detail"},{"id":"medical-3-15770","name":"清田歯科医院","categoryId":"medical","categoryLabel":"医疗","lat":35.716658,"lng":139.677168,"stationId":"station-003489","note":"歯科","count":1,"level":"detail"},{"id":"medical-2-14352","name":"渋谷医院","categoryId":"medical","categoryLabel":"医疗","lat":35.711698,"lng":139.670648,"stationId":"station-003489","note":"内科","count":1,"level":"detail"},{"id":"medical-2-17899","name":"渡辺クリニック","categoryId":"medical","categoryLabel":"医疗","lat":35.708099,"lng":139.684653,"stationId":"station-003549","note":"内科　アレルギー科","count":1,"level":"detail"},{"id":"medical-2-17910","name":"渡辺医院","categoryId":"medical","categoryLabel":"医疗","lat":35.706622,"lng":139.681257,"stationId":"station-003549","note":"内科","count":1,"level":"detail"},{"id":"medical-2-12299","name":"熊埜御堂耳鼻咽喉科","categoryId":"medical","categoryLabel":"医疗","lat":35.709482,"lng":139.672705,"stationId":"station-003489","note":"気管食道科　耳鼻咽喉科","count":1,"level":"detail"},{"id":"medical-3-12294","name":"熊谷歯科医院","categoryId":"medical","categoryLabel":"医疗","lat":35.707795,"lng":139.681815,"stationId":"station-003549","note":"歯科","count":1,"level":"detail"},{"id":"medical-2-19961","name":"牧野クリニック","categoryId":"medical","categoryLabel":"医疗","lat":35.706707,"lng":139.687273,"stationId":"station-003549","note":"精神科　心療内科","count":1,"level":"detail"},{"id":"medical-2-18535","name":"特別区人事・厚生事務組合更生施設けやき荘","categoryId":"medical","categoryLabel":"医疗","lat":35.721606,"lng":139.681058,"stationId":"station-003448","note":"内科　精神科","count":1,"level":"detail"},{"id":"medical-2-18536","name":"特別区人事・厚生事務組合更生施設淀橋荘医務室","categoryId":"medical","categoryLabel":"医疗","lat":35.704524,"lng":139.694129,"stationId":"station-003604","note":"内科　精神科","count":1,"level":"detail"},{"id":"medical-2-18563","name":"特別養護老人ホーム　もみの樹園医務室","categoryId":"medical","categoryLabel":"医疗","lat":35.716054,"lng":139.694095,"stationId":"station-003491","note":"内科","count":1,"level":"detail"},{"id":"medical-2-18579","name":"特別養護老人ホーム　小淀ホーム","categoryId":"medical","categoryLabel":"医疗","lat":35.700188,"lng":139.687248,"stationId":"station-003643","note":"内科","count":1,"level":"detail"},{"id":"medical-3-17814","name":"田中歯科クリニック","categoryId":"medical","categoryLabel":"医疗","lat":35.722842,"lng":139.694497,"stationId":"station-003426","note":"歯科　小児歯科　歯科口腔外科","count":1,"level":"detail"},{"id":"medical-3-17824","name":"田中歯科医院","categoryId":"medical","categoryLabel":"医疗","lat":35.709298,"lng":139.665682,"stationId":"nakano","note":"歯科","count":1,"level":"detail"},{"id":"medical-3-17558","name":"町田歯科","categoryId":"medical","categoryLabel":"医疗","lat":35.707773,"lng":139.665733,"stationId":"nakano","note":"歯科","count":1,"level":"detail"},{"id":"medical-3-19265","name":"番田歯科医院","categoryId":"medical","categoryLabel":"医疗","lat":35.714754,"lng":139.687026,"stationId":"station-003495","note":"歯科　小児歯科","count":1,"level":"detail"},{"id":"medical-2-19273","name":"皮フ科末広橋クリニック","categoryId":"medical","categoryLabel":"医疗","lat":35.701401,"lng":139.685939,"stationId":"station-003643","note":"皮膚科","count":1,"level":"detail"},{"id":"medical-3-20249","name":"目白荒井歯科医院","categoryId":"medical","categoryLabel":"医疗","lat":35.722202,"lng":139.694974,"stationId":"station-003426","note":"歯科","count":1,"level":"detail"},{"id":"medical-3-20232","name":"目白５丁目歯科","categoryId":"medical","categoryLabel":"医疗","lat":35.722453,"lng":139.694383,"stationId":"station-003426","note":"歯科　矯正歯科　小児歯科　歯科口腔外科","count":1,"level":"detail"},{"id":"medical-2-20372","name":"矢野クリニック","categoryId":"medical","categoryLabel":"医疗","lat":35.7033,"lng":139.664722,"stationId":"nakano","note":"内科　アレルギー科　小児科","count":1,"level":"detail"},{"id":"medical-2-16111","name":"石坂整形外科","categoryId":"medical","categoryLabel":"医疗","lat":35.70852,"lng":139.67428,"stationId":"station-003489","note":"整形外科　理学診療科","count":1,"level":"detail"},{"id":"medical-3-16148","name":"石川歯科医院","categoryId":"medical","categoryLabel":"医疗","lat":35.708306,"lng":139.683362,"stationId":"station-003549","note":"歯科","count":1,"level":"detail"},{"id":"medical-1-14082","name":"社会医療法人社団　健友会　中野共立病院","categoryId":"medical","categoryLabel":"医疗","lat":35.708761,"lng":139.66743,"stationId":"nakano","note":"内科　呼吸器内科　消化器内科　循環器内科　人工透析内科　外科　リハビリ科　放射線科　救急科","count":1,"level":"detail"},{"id":"medical-2-14097","name":"社会医療法人社団健友会　中野共立病院付属中野共立診療所","categoryId":"medical","categoryLabel":"医疗","lat":35.70811,"lng":139.667394,"stationId":"nakano","note":"内科　呼吸器内科　循環器内科　消化器内科　皮膚科　外科　整形外科　眼科　リハビリテーション科　糖尿病内科　代謝内科　腎臓内科　神経内科","count":1,"level":"detail"},{"id":"medical-2-14096","name":"社会医療法人社団健友会　中野共立病院付属城西診療所","categoryId":"medical","categoryLabel":"医疗","lat":35.700354,"lng":139.662689,"stationId":"station-003628","note":"内科　循環器内科　消化器内科　胃腸内科　整形外科","count":1,"level":"detail"},{"id":"medical-2-14093","name":"社会医療法人社団健友会　桜山診療所","categoryId":"medical","categoryLabel":"医疗","lat":35.708867,"lng":139.681086,"stationId":"station-003549","note":"内科　消化器科　整形外科　循環器内科","count":1,"level":"detail"},{"id":"medical-2-14092","name":"社会医療法人社団健友会　江古田沼袋診療所","categoryId":"medical","categoryLabel":"医疗","lat":35.721963,"lng":139.662671,"stationId":"station-003475","note":"内科","count":1,"level":"detail"},{"id":"medical-1-14131","name":"社会福祉法人　聖母会　聖母病院","categoryId":"medical","categoryLabel":"医疗","lat":35.720003,"lng":139.694431,"stationId":"station-003491","note":"内科　皮膚科　小児科　精神科　外科　乳腺外科　泌尿器科　整形外科　眼科　耳鼻いんこう科　産婦人科　放射線科　麻酔科　消化器内視鏡内科　病理診断科","count":1,"level":"detail"},{"id":"medical-2-14144","name":"社会福祉法人ケアネット　特別養護老人ホーム　おたきほうむ","categoryId":"medical","categoryLabel":"医疗","lat":35.709398,"lng":139.688666,"stationId":"station-003523","note":"内科","count":1,"level":"detail"},{"id":"medical-2-14180","name":"社会福祉法人聖母会特別養護老人ホーム聖母ホーム診療所","categoryId":"medical","categoryLabel":"医疗","lat":35.719021,"lng":139.694359,"stationId":"station-003491","note":"内科","count":1,"level":"detail"},{"id":"medical-2-14181","name":"社会福祉法人聖母会養護老人ホーム聖母ホーム診療所","categoryId":"medical","categoryLabel":"医疗","lat":35.719021,"lng":139.694359,"stationId":"station-003491","note":"内科","count":1,"level":"detail"},{"id":"medical-3-15394","name":"神戸歯科医院","categoryId":"medical","categoryLabel":"医疗","lat":35.722684,"lng":139.667317,"stationId":"station-003475","note":"歯科　矯正歯科　小児歯科　歯科口腔外科","count":1,"level":"detail"},{"id":"medical-3-10754","name":"稲垣歯科医院","categoryId":"medical","categoryLabel":"医疗","lat":35.711494,"lng":139.685464,"stationId":"station-003523","note":"歯科　小児歯科　歯科口腔外科","count":1,"level":"detail"},{"id":"medical-3-20529","name":"立浪歯科クリニック","categoryId":"medical","categoryLabel":"医疗","lat":35.707534,"lng":139.687108,"stationId":"station-003549","note":"歯科","count":1,"level":"detail"},{"id":"medical-3-17283","name":"竹村歯科クリニック","categoryId":"medical","categoryLabel":"医疗","lat":35.720963,"lng":139.672603,"stationId":"station-003489","note":"歯科","count":1,"level":"detail"},{"id":"medical-3-14032","name":"篠田歯科","categoryId":"medical","categoryLabel":"医疗","lat":35.708928,"lng":139.681604,"stationId":"station-003549","note":"歯科　矯正歯科　小児歯科　歯科口腔外科","count":1,"level":"detail"},{"id":"medical-3-10792","name":"羽生歯科医院","categoryId":"medical","categoryLabel":"医疗","lat":35.704526,"lng":139.686205,"stationId":"station-003549","note":"歯科","count":1,"level":"detail"},{"id":"medical-3-11268","name":"花岡歯科医院","categoryId":"medical","categoryLabel":"医疗","lat":35.700997,"lng":139.686177,"stationId":"station-003643","note":"歯科","count":1,"level":"detail"},{"id":"medical-2-11081","name":"荻原医院","categoryId":"medical","categoryLabel":"医疗","lat":35.724996,"lng":139.666695,"stationId":"station-003475","note":"内科　小児科","count":1,"level":"detail"},{"id":"medical-2-15611","name":"菅谷医院","categoryId":"medical","categoryLabel":"医疗","lat":35.722145,"lng":139.691113,"stationId":"station-003426","note":"内科　整形外科","count":1,"level":"detail"},{"id":"medical-2-14927","name":"菖医院","categoryId":"medical","categoryLabel":"医疗","lat":35.703618,"lng":139.685458,"stationId":"station-003549","note":"内科　皮膚科　心療内科","count":1,"level":"detail"},{"id":"medical-2-20498","name":"落合パークサイドクリニック","categoryId":"medical","categoryLabel":"医疗","lat":35.714619,"lng":139.693219,"stationId":"station-003491","note":"内科　小児科　消化器科　循環器科　アレルギー科　呼吸器科","count":1,"level":"detail"},{"id":"medical-2-20499","name":"落合ファミリークリニック","categoryId":"medical","categoryLabel":"医疗","lat":35.711999,"lng":139.689726,"stationId":"station-003523","note":"内科　小児科","count":1,"level":"detail"},{"id":"medical-2-20507","name":"落合中野眼科","categoryId":"medical","categoryLabel":"医疗","lat":35.70984,"lng":139.682624,"stationId":"station-003523","note":"眼科","count":1,"level":"detail"},{"id":"medical-3-20503","name":"落合歯科医院","categoryId":"medical","categoryLabel":"医疗","lat":35.711742,"lng":139.660113,"stationId":"nakano","note":"歯科","count":1,"level":"detail"},{"id":"medical-3-20504","name":"落合歯科医院","categoryId":"medical","categoryLabel":"医疗","lat":35.722044,"lng":139.690861,"stationId":"station-003426","note":"歯科","count":1,"level":"detail"},{"id":"medical-3-20501","name":"落合駅前歯科","categoryId":"medical","categoryLabel":"医疗","lat":35.710647,"lng":139.685199,"stationId":"station-003523","note":"歯科　矯正歯科　小児歯科　歯科口腔外科","count":1,"level":"detail"},{"id":"medical-3-15828","name":"西原デンタルオフィス","categoryId":"medical","categoryLabel":"医疗","lat":35.705075,"lng":139.666294,"stationId":"nakano","note":"歯科　矯正歯科　歯科口腔外科","count":1,"level":"detail"},{"id":"medical-3-15878","name":"西川デンタルクリニック","categoryId":"medical","categoryLabel":"医疗","lat":35.724171,"lng":139.675517,"stationId":"station-003448","note":"歯科","count":1,"level":"detail"},{"id":"medical-3-15897","name":"西村歯科医院","categoryId":"medical","categoryLabel":"医疗","lat":35.705025,"lng":139.683963,"stationId":"station-003549","note":"歯科","count":1,"level":"detail"},{"id":"medical-2-15949","name":"西武沼袋医院","categoryId":"medical","categoryLabel":"医疗","lat":35.718887,"lng":139.664218,"stationId":"station-003475","note":"内科　循環器科　外科　皮膚泌尿器科","count":1,"level":"detail"},{"id":"medical-3-15963","name":"西落合歯科","categoryId":"medical","categoryLabel":"医疗","lat":35.723516,"lng":139.683186,"stationId":"station-003448","note":"歯科","count":1,"level":"detail"},{"id":"medical-2-16247","name":"赤沢医院","categoryId":"medical","categoryLabel":"医疗","lat":35.706841,"lng":139.668493,"stationId":"nakano","note":"老年内科","count":1,"level":"detail"},{"id":"medical-3-16626","name":"足代歯科医院","categoryId":"medical","categoryLabel":"医疗","lat":35.719766,"lng":139.689518,"stationId":"station-003495","note":"歯科　矯正歯科　小児歯科　歯科口腔外科","count":1,"level":"detail"},{"id":"medical-2-12074","name":"近藤クリニック","categoryId":"medical","categoryLabel":"医疗","lat":35.703758,"lng":139.664054,"stationId":"nakano","note":"内科　皮膚科　肛門科　整形外科","count":1,"level":"detail"},{"id":"medical-2-12100","name":"近藤泌尿器科内科クリニック","categoryId":"medical","categoryLabel":"医疗","lat":35.706006,"lng":139.686198,"stationId":"station-003549","note":"内科　泌尿器科","count":1,"level":"detail"},{"id":"medical-2-12329","name":"郡司クリニック","categoryId":"medical","categoryLabel":"医疗","lat":35.713871,"lng":139.669271,"stationId":"station-003489","note":"リウマチ科　整形外科　理学診療科","count":1,"level":"detail"},{"id":"medical-3-14254","name":"酒井歯科医院","categoryId":"medical","categoryLabel":"医疗","lat":35.707288,"lng":139.665497,"stationId":"nakano","note":"歯科","count":1,"level":"detail"},{"id":"medical-2-20271","name":"野原産婦人科クリニック","categoryId":"medical","categoryLabel":"医疗","lat":35.715272,"lng":139.671836,"stationId":"station-003489","note":"産婦人科","count":1,"level":"detail"},{"id":"medical-2-20279","name":"野口医院","categoryId":"medical","categoryLabel":"医疗","lat":35.709716,"lng":139.66352,"stationId":"nakano","note":"内科　皮膚科　産婦人科","count":1,"level":"detail"},{"id":"medical-2-17630","name":"長澤内科","categoryId":"medical","categoryLabel":"医疗","lat":35.705885,"lng":139.681183,"stationId":"station-003549","note":"内科　小児科　外科　麻酔科","count":1,"level":"detail"},{"id":"medical-3-16026","name":"青木歯科クリニック","categoryId":"medical","categoryLabel":"医疗","lat":35.704664,"lng":139.666185,"stationId":"nakano","note":"歯科　矯正歯科　小児歯科　歯科口腔外科","count":1,"level":"detail"},{"id":"medical-2-15076","name":"食・楽・健康協会　診療所","categoryId":"medical","categoryLabel":"医疗","lat":35.707662,"lng":139.661435,"stationId":"nakano","note":"内科","count":1,"level":"detail"},{"id":"medical-2-12924","name":"高橋医院","categoryId":"medical","categoryLabel":"医疗","lat":35.703447,"lng":139.688733,"stationId":"station-003549","note":"内科　呼吸器内科　消化器内科　皮膚科　小児科","count":1,"level":"detail"},{"id":"medical-3-12989","name":"高津歯科クリニック","categoryId":"medical","categoryLabel":"医疗","lat":35.700751,"lng":139.666943,"stationId":"station-003638","note":"歯科　小児歯科","count":1,"level":"detail"},{"id":"medical-2-13010","name":"高田皮膚科クリニック","categoryId":"medical","categoryLabel":"医疗","lat":35.705799,"lng":139.681413,"stationId":"station-003549","note":"皮膚科　形成外科","count":1,"level":"detail"},{"id":"medical-2-165","name":"Ｄｒ．孝志郎のクリニック","categoryId":"medical","categoryLabel":"医疗","lat":35.723023,"lng":139.68641,"stationId":"station-003448","note":"内科　リハビリテーション科　循環器内科","count":1,"level":"detail"},{"id":"medical-2-197","name":"ＨＯＹＡ健康保険組合健康相談室","categoryId":"medical","categoryLabel":"医疗","lat":35.707662,"lng":139.661435,"stationId":"nakano","note":"内科","count":1,"level":"detail"},{"id":"medical-3-238","name":"ＫＵＭＡデンタルクリニック","categoryId":"medical","categoryLabel":"医疗","lat":35.707126,"lng":139.666701,"stationId":"nakano","note":"歯科　歯科口腔外科","count":1,"level":"detail"},{"id":"medical-3-268","name":"ＭＡＹＵＭＩ矯正歯科クリニック","categoryId":"medical","categoryLabel":"医疗","lat":35.711121,"lng":139.664788,"stationId":"nakano","note":"矯正歯科","count":1,"level":"detail"},{"id":"medical-3-277","name":"ＭＯＤＯＯＮ　ＤＥＮＴＡＬ（モドゥーン　デンタル）","categoryId":"medical","categoryLabel":"医疗","lat":35.722728,"lng":139.68361,"stationId":"station-003448","note":"歯科　小児歯科　矯正歯科　歯科口腔外科","count":1,"level":"detail"},{"id":"medical-2-342","name":"ＴＡＣ診療所","categoryId":"medical","categoryLabel":"医疗","lat":35.704927,"lng":139.669189,"stationId":"nakano","note":"内科","count":1,"level":"detail"},{"id":"medical-2-366","name":"Ｔｏｋｙｏ　ｈｉｌｌｓ　ｃｌｉｎｉｃ　新宿院","categoryId":"medical","categoryLabel":"医疗","lat":35.710299,"lng":139.694956,"stationId":"station-003491","note":"美容外科　美容皮膚科","count":1,"level":"detail"},{"id":"public-13114-21775","name":"なかの芸能小劇場","categoryId":"public_service","categoryLabel":"公共服务","lat":35.709251,"lng":139.665154,"stationId":"nakano","note":"中野区中野5-68-7","count":1,"level":"detail"},{"id":"public-13114-21735","name":"もみじ山文化センター","categoryId":"public_service","categoryLabel":"公共服务","lat":35.704842,"lng":139.67142,"stationId":"nakano","note":"中野区中野2-9-7","count":1,"level":"detail"},{"id":"public-13114-21770","name":"もみじ山文化センターなかのＺＥＲＯ","categoryId":"public_service","categoryLabel":"公共服务","lat":35.70455,"lng":139.671693,"stationId":"nakano","note":"中野区中野2-9-7","count":1,"level":"detail"},{"id":"public-13104-20986","name":"上落合地域交流館","categoryId":"public_service","categoryLabel":"公共服务","lat":35.711051,"lng":139.685379,"stationId":"station-003523","note":"新宿区上落合2-28-8","count":1,"level":"detail"},{"id":"public-13114-21756","name":"上高田区民活動センター","categoryId":"public_service","categoryLabel":"公共服务","lat":35.711391,"lng":139.672688,"stationId":"station-003489","note":"中野区上高田2-11-1","count":1,"level":"detail"},{"id":"public-13114-21757","name":"上高田東高齢者会館","categoryId":"public_service","categoryLabel":"公共服务","lat":35.712845,"lng":139.677891,"stationId":"station-003489","note":"中野区上高田4-17-3","count":1,"level":"detail"},{"id":"public-13114-21751","name":"上高田高齢者会館","categoryId":"public_service","categoryLabel":"公共服务","lat":35.710838,"lng":139.672611,"stationId":"station-003489","note":"中野区上高田2-8-11","count":1,"level":"detail"},{"id":"public-13104-21011","name":"中落合地域交流館","categoryId":"public_service","categoryLabel":"公共服务","lat":35.718004,"lng":139.693918,"stationId":"station-003491","note":"新宿区中落合2-7-24","count":1,"level":"detail"},{"id":"public-13114-21765","name":"中部すこやか福祉センター","categoryId":"public_service","categoryLabel":"公共服务","lat":35.700115,"lng":139.674258,"stationId":"station-003638","note":"中野区中央3-19-1","count":1,"level":"detail"},{"id":"public-13114-21772","name":"中野サンプラザ","categoryId":"public_service","categoryLabel":"公共服务","lat":35.707618,"lng":139.664688,"stationId":"nakano","note":"中野区中野4-1-1","count":1,"level":"detail"},{"id":"public-13114-21771","name":"中野北地域包括支援センター","categoryId":"public_service","categoryLabel":"公共服务","lat":35.721256,"lng":139.671848,"stationId":"station-003489","note":"中野区松が丘1-32-10","count":1,"level":"detail"},{"id":"public-13114-21768","name":"中野区保健所","categoryId":"public_service","categoryLabel":"公共服务","lat":35.702824,"lng":139.669338,"stationId":"nakano","note":"中野区中野2-17-4","count":1,"level":"detail"},{"id":"public-13114-21774","name":"中野区役所","categoryId":"public_service","categoryLabel":"公共服务","lat":35.707546,"lng":139.663821,"stationId":"nakano","note":"中野区中野4-8-1","count":1,"level":"detail"},{"id":"public-13114-21769","name":"中野地域包括支援センター","categoryId":"public_service","categoryLabel":"公共服务","lat":35.700085,"lng":139.674228,"stationId":"station-003638","note":"中野区中央3-19-1","count":1,"level":"detail"},{"id":"public-13104-21019","name":"北新宿生涯学習館","categoryId":"public_service","categoryLabel":"公共服务","lat":35.702972,"lng":139.689465,"stationId":"station-003549","note":"新宿区北新宿3-20-2","count":1,"level":"detail"},{"id":"public-13114-21794","name":"北部すこやか福祉センター","categoryId":"public_service","categoryLabel":"公共服务","lat":35.724762,"lng":139.661534,"stationId":"station-003475","note":"中野区江古田4-31-10","count":1,"level":"detail"},{"id":"public-13114-21762","name":"城山ふれあいの家","categoryId":"public_service","categoryLabel":"公共服务","lat":35.703766,"lng":139.67702,"stationId":"station-003549","note":"中野区中野1-20-4","count":1,"level":"detail"},{"id":"public-13114-21766","name":"城山ふれあいの家・さくら館","categoryId":"public_service","categoryLabel":"公共服务","lat":35.70413,"lng":139.677024,"stationId":"station-003549","note":"中野区中野1-20-4","count":1,"level":"detail"},{"id":"public-13114-21736","name":"宮園高齢者会館","categoryId":"public_service","categoryLabel":"公共服务","lat":35.700222,"lng":139.683006,"stationId":"station-003643","note":"中野区中央2-18-21","count":1,"level":"detail"},{"id":"public-13114-21763","name":"新井区民活動センター","categoryId":"public_service","categoryLabel":"公共服务","lat":35.714741,"lng":139.663716,"stationId":"station-003475","note":"中野区新井3-11-4","count":1,"level":"detail"},{"id":"public-13114-21753","name":"昭和区民活動センター","categoryId":"public_service","categoryLabel":"公共服务","lat":35.707291,"lng":139.67519,"stationId":"station-003549","note":"中野区中野6-16-20","count":1,"level":"detail"},{"id":"public-13114-21779","name":"昭和高齢者会館","categoryId":"public_service","categoryLabel":"公共服务","lat":35.708427,"lng":139.680744,"stationId":"station-003549","note":"中野区東中野3-19-18","count":1,"level":"detail"},{"id":"public-13114-21780","name":"東中野いこいの家","categoryId":"public_service","categoryLabel":"公共服务","lat":35.707603,"lng":139.685703,"stationId":"station-003549","note":"中野区東中野4-9-22-201","count":1,"level":"detail"},{"id":"public-13114-21776","name":"東中野区民活動センター","categoryId":"public_service","categoryLabel":"公共服务","lat":35.710026,"lng":139.690113,"stationId":"station-003523","note":"中野区東中野5-27-5","count":1,"level":"detail"},{"id":"public-13114-21777","name":"東中野地域包括支援センター","categoryId":"public_service","categoryLabel":"公共服务","lat":35.70153,"lng":139.685215,"stationId":"station-003643","note":"中野区東中野1-5-1","count":1,"level":"detail"},{"id":"public-13114-21778","name":"東部区民活動センター","categoryId":"public_service","categoryLabel":"公共服务","lat":35.700222,"lng":139.682986,"stationId":"station-003643","note":"中野区中央2-18-21","count":1,"level":"detail"},{"id":"public-13114-21781","name":"桃園区民活動センター","categoryId":"public_service","categoryLabel":"公共服务","lat":35.702347,"lng":139.667529,"stationId":"nakano","note":"中野区中央4-57-1","count":1,"level":"detail"},{"id":"public-13114-21739","name":"江古田地域包括支援センター","categoryId":"public_service","categoryLabel":"公共服务","lat":35.724762,"lng":139.661554,"stationId":"station-003475","note":"中野区江古田4-31-10","count":1,"level":"detail"},{"id":"public-13114-21754","name":"沼袋区民活動センター","categoryId":"public_service","categoryLabel":"公共服务","lat":35.723747,"lng":139.663018,"stationId":"station-003475","note":"中野区沼袋2-40-18","count":1,"level":"detail"},{"id":"public-13114-21747","name":"沼袋高齢者会館","categoryId":"public_service","categoryLabel":"公共服务","lat":35.719723,"lng":139.665287,"stationId":"station-003475","note":"中野区沼袋1-34-14","count":1,"level":"detail"},{"id":"public-13114-21749","name":"産業振興センター","categoryId":"public_service","categoryLabel":"公共服务","lat":35.704716,"lng":139.667819,"stationId":"nakano","note":"中野区中野2-13-14","count":1,"level":"detail"},{"id":"public-13114-21752","name":"社会福祉会館","categoryId":"public_service","categoryLabel":"公共服务","lat":35.709251,"lng":139.665134,"stationId":"nakano","note":"中野区中野5-68-7","count":1,"level":"detail"},{"id":"public-13104-20969","name":"落合第一特別出張所","categoryId":"public_service","categoryLabel":"公共服务","lat":35.718717,"lng":139.694998,"stationId":"station-003491","note":"新宿区下落合4-6-7","count":1,"level":"detail"},{"id":"public-13104-21009","name":"落合第二地域センター","categoryId":"public_service","categoryLabel":"公共服务","lat":35.719834,"lng":139.683088,"stationId":"station-003448","note":"新宿区中落合4-17-13","count":1,"level":"detail"},{"id":"public-13104-21010","name":"落合第二特別出張所","categoryId":"public_service","categoryLabel":"公共服务","lat":35.719834,"lng":139.683068,"stationId":"station-003448","note":"新宿区中落合4-17-13","count":1,"level":"detail"},{"id":"public-13114-21755","name":"障害者福祉会館","categoryId":"public_service","categoryLabel":"公共服务","lat":35.723747,"lng":139.662998,"stationId":"station-003475","note":"中野区沼袋2-40-18","count":1,"level":"detail"},{"id":"public-13114-21767","name":"中部スポーツ・コミュニティプラザ","categoryId":"sports","categoryLabel":"体育设施","lat":35.700085,"lng":139.674248,"stationId":"station-003638","note":"中野区中央3-19-1","count":1,"level":"detail"},{"id":"public-13114-21773","name":"中野体育館","categoryId":"sports","categoryLabel":"体育设施","lat":35.709118,"lng":139.662616,"stationId":"nakano","note":"中野区中野4-11-14","count":1,"level":"detail"},{"id":"public-13116-21936","name":"南長崎中央公園スポーツセンター","categoryId":"sports","categoryLabel":"体育设施","lat":35.72449,"lng":139.683694,"stationId":"station-003448","note":"豊島区南長崎4-13-5","count":1,"level":"detail"}]
