[{"id":"medical-2-518","name":"あおよこ整形外科クリニック","categoryId":"medical","categoryLabel":"医疗","lat":35.608226,"lng":139.744434,"stationId":"station-004184","note":"整形外科　リウマチ科　リハビリテーション科","count":1,"level":"detail"},{"id":"medical-2-517","name":"あおよこ眼科","categoryId":"medical","categoryLabel":"医疗","lat":35.610129,"lng":139.743553,"stationId":"station-004184","note":"眼科","count":1,"level":"detail"},{"id":"medical-3-685","name":"あべ歯科医院","categoryId":"medical","categoryLabel":"医疗","lat":35.606698,"lng":139.737697,"stationId":"station-004193","note":"歯科　矯正歯科　小児歯科","count":1,"level":"detail"},{"id":"medical-3-942","name":"いばた歯科","categoryId":"medical","categoryLabel":"医疗","lat":35.618556,"lng":139.731845,"stationId":"station-004136","note":"歯科　歯科口腔外科","count":1,"level":"detail"},{"id":"medical-2-954","name":"いやしの森皮ふ科","categoryId":"medical","categoryLabel":"医疗","lat":35.60765,"lng":139.730252,"stationId":"station-004188","note":"アレルギー科　皮膚科　美容皮膚科","count":1,"level":"detail"},{"id":"medical-3-1068","name":"うらら歯科ケアクリニック品川","categoryId":"medical","categoryLabel":"医疗","lat":35.611212,"lng":139.745607,"stationId":"station-004184","note":"歯科　矯正歯科　小児歯科　歯科口腔外科","count":1,"level":"detail"},{"id":"medical-3-1238","name":"おおはし歯科","categoryId":"medical","categoryLabel":"医疗","lat":35.6136,"lng":139.747312,"stationId":"station-004182","note":"歯科","count":1,"level":"detail"},{"id":"medical-3-1339","name":"おの歯科クリニック","categoryId":"medical","categoryLabel":"医疗","lat":35.60814,"lng":139.743886,"stationId":"station-004184","note":"歯科　矯正歯科　歯科口腔外科","count":1,"level":"detail"},{"id":"medical-3-1442","name":"かすや歯科東海クリニック","categoryId":"medical","categoryLabel":"医疗","lat":35.607862,"lng":139.743993,"stationId":"station-004184","note":"歯科　矯正歯科　小児歯科　歯科口腔外科","count":1,"level":"detail"},{"id":"medical-3-1487","name":"かなもり歯科クリニック","categoryId":"medical","categoryLabel":"医疗","lat":35.618416,"lng":139.741578,"stationId":"station-004153","note":"歯科　矯正歯科　小児歯科　歯科口腔外科","count":1,"level":"detail"},{"id":"medical-3-1489","name":"かねこデンタルクリニック","categoryId":"medical","categoryLabel":"医疗","lat":35.61152,"lng":139.740279,"stationId":"station-004184","note":"歯科　小児歯科　矯正歯科","count":1,"level":"detail"},{"id":"medical-3-1567","name":"かわもり歯科医院","categoryId":"medical","categoryLabel":"医疗","lat":35.603449,"lng":139.732391,"stationId":"station-004193","note":"歯科　矯正歯科　小児歯科　歯科口腔外科","count":1,"level":"detail"},{"id":"medical-3-1628","name":"きょういち歯科医院","categoryId":"medical","categoryLabel":"医疗","lat":35.607473,"lng":139.736548,"stationId":"station-004193","note":"歯科　小児歯科","count":1,"level":"detail"},{"id":"medical-2-1787","name":"けいひんファミリークリニック","categoryId":"medical","categoryLabel":"医疗","lat":35.602123,"lng":139.740061,"stationId":"station-004220","note":"内科　小児科　アレルギー科　皮膚科","count":1,"level":"detail"},{"id":"medical-3-2009","name":"さいとう歯科医院","categoryId":"medical","categoryLabel":"医疗","lat":35.620354,"lng":139.741422,"stationId":"station-004125","note":"歯科","count":1,"level":"detail"},{"id":"medical-2-2031","name":"さかうえ内科クリニック","categoryId":"medical","categoryLabel":"医疗","lat":35.609242,"lng":139.748837,"stationId":"station-004182","note":"内科　呼吸器科　循環器科　アレルギー科","count":1,"level":"detail"},{"id":"medical-2-2117","name":"さとうクリニック","categoryId":"medical","categoryLabel":"医疗","lat":35.611161,"lng":139.744305,"stationId":"station-004184","note":"内科　胃腸科　外科　肛門科","count":1,"level":"detail"},{"id":"medical-3-2130","name":"さとう歯科クリニック","categoryId":"medical","categoryLabel":"医疗","lat":35.606181,"lng":139.736602,"stationId":"station-004193","note":"歯科　矯正歯科　小児歯科","count":1,"level":"detail"},{"id":"medical-3-2264","name":"しばた歯科矯正クリニック","categoryId":"medical","categoryLabel":"医疗","lat":35.606265,"lng":139.732438,"stationId":"station-004193","note":"矯正歯科","count":1,"level":"detail"},{"id":"medical-3-2407","name":"すずき歯科クリニック","categoryId":"medical","categoryLabel":"医疗","lat":35.618324,"lng":139.742692,"stationId":"station-004153","note":"歯科　小児歯科　歯科口腔外科","count":1,"level":"detail"},{"id":"medical-2-2546","name":"そばにクリニック大井町","categoryId":"medical","categoryLabel":"医疗","lat":35.606597,"lng":139.732682,"stationId":"station-004193","note":"精神科　心療内科","count":1,"level":"detail"},{"id":"medical-2-2687","name":"たつのシティタワークリニック","categoryId":"medical","categoryLabel":"医疗","lat":35.605539,"lng":139.730842,"stationId":"station-004193","note":"小児科　小児神経　精神科","count":1,"level":"detail"},{"id":"medical-2-3221","name":"にっせいかん青物横丁クリニック","categoryId":"medical","categoryLabel":"医疗","lat":35.607073,"lng":139.745128,"stationId":"station-004184","note":"児童精神科　精神科　心療内科","count":1,"level":"detail"},{"id":"medical-2-3273","name":"のぞみクリニック","categoryId":"medical","categoryLabel":"医疗","lat":35.618874,"lng":139.742973,"stationId":"station-004153","note":"内科　消化器内科　小児科　外科","count":1,"level":"detail"},{"id":"medical-2-3415","name":"はやしクリニック","categoryId":"medical","categoryLabel":"医疗","lat":35.60336,"lng":139.733631,"stationId":"station-004193","note":"内科　呼吸器内科　アレルギー科","count":1,"level":"detail"},{"id":"medical-2-3533","name":"ひまわりクリニック","categoryId":"medical","categoryLabel":"医疗","lat":35.600779,"lng":139.735745,"stationId":"station-004244","note":"心療内科","count":1,"level":"detail"},{"id":"medical-3-3664","name":"ふじい歯科医院","categoryId":"medical","categoryLabel":"医疗","lat":35.60674,"lng":139.735652,"stationId":"station-004193","note":"歯科　矯正歯科　小児歯科","count":1,"level":"detail"},{"id":"medical-2-4096","name":"みやざきＲＣクリニック","categoryId":"medical","categoryLabel":"医疗","lat":35.618106,"lng":139.742617,"stationId":"station-004153","note":"内科　呼吸器内科　アレルギー科　小児科","count":1,"level":"detail"},{"id":"medical-3-4289","name":"やなぎさわ歯科クリニック","categoryId":"medical","categoryLabel":"医疗","lat":35.620086,"lng":139.732236,"stationId":"station-004136","note":"歯科　矯正歯科　小児歯科　歯科口腔外科","count":1,"level":"detail"},{"id":"medical-3-4333","name":"やまなか歯科クリニック","categoryId":"medical","categoryLabel":"医疗","lat":35.60684,"lng":139.738348,"stationId":"station-004193","note":"歯科　矯正歯科　小児歯科　歯科口腔外科","count":1,"level":"detail"},{"id":"medical-2-428","name":"アイクリニック大井町","categoryId":"medical","categoryLabel":"医疗","lat":35.60619,"lng":139.734835,"stationId":"station-004193","note":"眼科","count":1,"level":"detail"},{"id":"medical-2-634","name":"アズビル株式会社　大崎健康管理室","categoryId":"medical","categoryLabel":"医疗","lat":35.622177,"lng":139.73093,"stationId":"station-004136","note":"内科","count":1,"level":"detail"},{"id":"medical-2-1096","name":"エスト美容外科形成外科クリニック","categoryId":"medical","categoryLabel":"医疗","lat":35.607976,"lng":139.739291,"stationId":"station-004184","note":"形成外科　美容外科　皮膚科　泌尿器科","count":1,"level":"detail"},{"id":"medical-3-2206","name":"シイヤ歯科","categoryId":"medical","categoryLabel":"医疗","lat":35.612951,"lng":139.744313,"stationId":"station-004184","note":"歯科　矯正歯科　小児歯科　歯科口腔外科","count":1,"level":"detail"},{"id":"medical-3-2299","name":"シモジ歯科医院","categoryId":"medical","categoryLabel":"医疗","lat":35.618387,"lng":139.74364,"stationId":"station-004153","note":"歯科","count":1,"level":"detail"},{"id":"medical-2-2472","name":"スリープ・サポートクリニック","categoryId":"medical","categoryLabel":"医疗","lat":35.603806,"lng":139.742489,"stationId":"station-004220","note":"精神科　神経内科　心療内科　呼吸器内科","count":1,"level":"detail"},{"id":"medical-2-2574","name":"ダウ・ケミカル日本株式会社健康管理室","categoryId":"medical","categoryLabel":"医疗","lat":35.62271,"lng":139.748683,"stationId":"station-004123","note":"内科","count":1,"level":"detail"},{"id":"medical-2-3036","name":"トヨタメトロジック株式会社品川センター医務室","categoryId":"medical","categoryLabel":"医疗","lat":35.622051,"lng":139.756102,"stationId":"station-004123","note":"内科","count":1,"level":"detail"},{"id":"medical-3-3168","name":"ナムラ御殿山ガーデン歯科","categoryId":"medical","categoryLabel":"医疗","lat":35.62208,"lng":139.736995,"stationId":"station-004125","note":"歯科　小児歯科","count":1,"level":"detail"},{"id":"medical-2-3392","name":"パナソニック健康保険組合ＣＭＳＪ品川オフィス健康管理室","categoryId":"medical","categoryLabel":"医疗","lat":35.618987,"lng":139.747448,"stationId":"station-004123","note":"内科","count":1,"level":"detail"},{"id":"medical-3-3302","name":"パークタウン歯科","categoryId":"medical","categoryLabel":"医疗","lat":35.604439,"lng":139.753529,"stationId":"station-004182","note":"歯科　矯正歯科　小児歯科　歯科口腔外科","count":1,"level":"detail"},{"id":"medical-3-3731","name":"ブラン品川大井町歯科","categoryId":"medical","categoryLabel":"医疗","lat":35.604644,"lng":139.730812,"stationId":"station-004193","note":"歯科　小児歯科","count":1,"level":"detail"},{"id":"medical-3-3919","name":"マツダデンタルクリニック","categoryId":"medical","categoryLabel":"医疗","lat":35.624863,"lng":139.730405,"stationId":"station-004136","note":"歯科　矯正歯科　小児歯科","count":1,"level":"detail"},{"id":"medical-2-4540","name":"リコー三愛グループ健康保険組合診療所","categoryId":"medical","categoryLabel":"医疗","lat":35.60943,"lng":139.736309,"stationId":"station-004193","note":"内科","count":1,"level":"detail"},{"id":"medical-2-10746","name":"一般社団法人品川区医師会　品川区医師会診療所","categoryId":"medical","categoryLabel":"医疗","lat":35.617077,"lng":139.740683,"stationId":"station-004153","note":"内科　小児科　外科","count":1,"level":"detail"},{"id":"medical-3-13555","name":"三木歯科医院","categoryId":"medical","categoryLabel":"医疗","lat":35.604891,"lng":139.730934,"stationId":"station-004193","note":"歯科","count":1,"level":"detail"},{"id":"medical-3-13445","name":"三間歯科医院","categoryId":"medical","categoryLabel":"医疗","lat":35.624726,"lng":139.730917,"stationId":"station-004136","note":"歯科　歯科口腔外科　矯正歯科　小児歯科","count":1,"level":"detail"},{"id":"medical-2-14982","name":"上田診療所","categoryId":"medical","categoryLabel":"医疗","lat":35.624546,"lng":139.742328,"stationId":"station-004125","note":"内科　リウマチ科　皮膚科","count":1,"level":"detail"},{"id":"medical-2-15009","name":"上野医院","categoryId":"medical","categoryLabel":"医疗","lat":35.617953,"lng":139.741468,"stationId":"station-004153","note":"内科","count":1,"level":"detail"},{"id":"medical-2-11988","name":"京野アートクリニック品川","categoryId":"medical","categoryLabel":"医疗","lat":35.621636,"lng":139.733737,"stationId":"station-004125","note":"婦人科","count":1,"level":"detail"},{"id":"medical-3-16286","name":"仙田歯科医院","categoryId":"medical","categoryLabel":"医疗","lat":35.606738,"lng":139.736522,"stationId":"station-004193","note":"歯科","count":1,"level":"detail"},{"id":"medical-3-19103","name":"八ッ山パークサイド能勢歯科","categoryId":"medical","categoryLabel":"医疗","lat":35.624643,"lng":139.74276,"stationId":"station-004125","note":"歯科　小児歯科　歯科口腔外科","count":1,"level":"detail"},{"id":"medical-2-19134","name":"八潮クリニック","categoryId":"medical","categoryLabel":"医疗","lat":35.602755,"lng":139.753143,"stationId":"station-004182","note":"内科　胃腸科　小児科　リハビリテーション科　放射線科","count":1,"level":"detail"},{"id":"medical-3-19135","name":"八潮歯科医院","categoryId":"medical","categoryLabel":"医疗","lat":35.602755,"lng":139.753143,"stationId":"station-004182","note":"歯科","count":1,"level":"detail"},{"id":"medical-1-12655","name":"公益財団法人　河野臨牀医学研究所附属品川リハビリテーション病院","categoryId":"medical","categoryLabel":"医疗","lat":35.623249,"lng":139.731748,"stationId":"station-004136","note":"リハビリ科　内科","count":1,"level":"detail"},{"id":"medical-1-12654","name":"公益財団法人　河野臨牀医学研究所附属第三北品川病院","categoryId":"medical","categoryLabel":"医疗","lat":35.621339,"lng":139.738875,"stationId":"station-004125","note":"内科　リウマチ科　外科　整形外科　形成外科　脳神経外科　リハビリ科　放射線科　消化器外科　循環器内科　糖尿病内科　漢方内科　ペインクリニック内科　神経内科　消化器内科","count":1,"level":"detail"},{"id":"medical-2-12676","name":"公益財団法人河野臨牀医学研究所附属北品川クリニック","categoryId":"medical","categoryLabel":"医疗","lat":35.620047,"lng":139.740963,"stationId":"station-004125","note":"内科","count":1,"level":"detail"},{"id":"medical-2-11156","name":"加知耳鼻咽喉科","categoryId":"medical","categoryLabel":"医疗","lat":35.610302,"lng":139.743767,"stationId":"station-004184","note":"アレルギー科　耳鼻咽喉科　気管食道科","count":1,"level":"detail"},{"id":"medical-3-11186","name":"加藤歯科口腔外科医院","categoryId":"medical","categoryLabel":"医疗","lat":35.604022,"lng":139.732078,"stationId":"station-004193","note":"歯科　小児歯科　歯科口腔外科","count":1,"level":"detail"},{"id":"medical-2-19935","name":"北品川眼科","categoryId":"medical","categoryLabel":"医疗","lat":35.62086,"lng":139.741304,"stationId":"station-004125","note":"眼科","count":1,"level":"detail"},{"id":"medical-1-5676","name":"医療法人社団　仁生堂　大村病院","categoryId":"medical","categoryLabel":"医疗","lat":35.600232,"lng":139.730164,"stationId":"station-004235","note":"内科　呼吸器内科　皮膚科","count":1,"level":"detail"},{"id":"medical-1-5270","name":"医療法人社団　冠心会　大崎病院　東京ハートセンター","categoryId":"medical","categoryLabel":"医疗","lat":35.621447,"lng":139.732116,"stationId":"station-004136","note":"循環器内科　心臓血管外科","count":1,"level":"detail"},{"id":"medical-1-5891","name":"医療法人社団　東京巨樹の会　東京品川病院","categoryId":"medical","categoryLabel":"医疗","lat":35.602861,"lng":139.734897,"stationId":"station-004193","note":"内科　消化器内科　呼吸器内科　血液内科　神経内科　産婦人科　泌尿器科　眼科　皮膚科　麻酔科　歯科口腔外科　循環器内科　腎臓内科　代謝　内分泌内科　小児科　神経精神科　外科　整形外科　リハビリテーション科　耳鼻咽喉科　放射線科　病理診断科　脳神経外科","count":1,"level":"detail"},{"id":"medical-2-5220","name":"医療法人社団　永光会　林耳鼻咽喉科医院","categoryId":"medical","categoryLabel":"医疗","lat":35.602494,"lng":139.731441,"stationId":"station-004193","note":"耳鼻咽喉科","count":1,"level":"detail"},{"id":"medical-2-6331","name":"医療法人社団あおば　つばめクリニック","categoryId":"medical","categoryLabel":"医疗","lat":35.618981,"lng":139.736477,"stationId":"station-004125","note":"内科　歯科","count":1,"level":"detail"},{"id":"medical-2-6333","name":"医療法人社団あおよこ皮膚科クリニック","categoryId":"medical","categoryLabel":"医疗","lat":35.611067,"lng":139.744303,"stationId":"station-004184","note":"皮膚科","count":1,"level":"detail"},{"id":"medical-2-6411","name":"医療法人社団おおいまち消化器外科クリニック","categoryId":"medical","categoryLabel":"医疗","lat":35.606006,"lng":139.730378,"stationId":"station-004193","note":"消化器内科　大腸　肛門外科","count":1,"level":"detail"},{"id":"medical-2-6476","name":"医療法人社団けいわ会　和智クリニック","categoryId":"medical","categoryLabel":"医疗","lat":35.621797,"lng":139.749291,"stationId":"station-004123","note":"内科","count":1,"level":"detail"},{"id":"medical-3-6394","name":"医療法人社団ウケデンタルオフィス宇毛デンタルオフィス大井町","categoryId":"medical","categoryLabel":"医疗","lat":35.608029,"lng":139.73572,"stationId":"station-004193","note":"歯科","count":1,"level":"detail"},{"id":"medical-3-6563","name":"医療法人社団スマイルパートナーズ山手歯科クリニック","categoryId":"medical","categoryLabel":"医疗","lat":35.606212,"lng":139.738062,"stationId":"station-004193","note":"歯科　矯正歯科　小児歯科　歯科口腔外科","count":1,"level":"detail"},{"id":"medical-2-6635","name":"医療法人社団ナイズ　キャップスクリニック東品川","categoryId":"medical","categoryLabel":"医疗","lat":35.609124,"lng":139.746769,"stationId":"station-004182","note":"小児科","count":1,"level":"detail"},{"id":"medical-2-6707","name":"医療法人社団フジシロ会　伊藤内科","categoryId":"medical","categoryLabel":"医疗","lat":35.620086,"lng":139.732236,"stationId":"station-004136","note":"内科　小児科　放射線科","count":1,"level":"detail"},{"id":"medical-3-7269","name":"医療法人社団京和会　南品川ＫＵ歯科","categoryId":"medical","categoryLabel":"医疗","lat":35.610129,"lng":139.743553,"stationId":"station-004184","note":"歯科　矯正歯科　小児歯科　歯科口腔外科","count":1,"level":"detail"},{"id":"medical-2-8715","name":"医療法人社団仁医尾島会　品川シーサイド肛門科胃腸科クリニック","categoryId":"medical","categoryLabel":"医疗","lat":35.609242,"lng":139.748837,"stationId":"station-004182","note":"胃腸科　肛門科","count":1,"level":"detail"},{"id":"medical-2-7549","name":"医療法人社団健腎会　大井小川クリニック","categoryId":"medical","categoryLabel":"医疗","lat":35.605987,"lng":139.733176,"stationId":"station-004193","note":"内科","count":1,"level":"detail"},{"id":"medical-2-7548","name":"医療法人社団健腎会　小川クリニック","categoryId":"medical","categoryLabel":"医疗","lat":35.609792,"lng":139.744485,"stationId":"station-004184","note":"泌尿器科","count":1,"level":"detail"},{"id":"medical-2-10081","name":"医療法人社団優紀会　ホワイトラビット歯科医院","categoryId":"medical","categoryLabel":"医疗","lat":35.605144,"lng":139.735043,"stationId":"station-004193","note":"歯科　歯科口腔外科　小児歯科　矯正歯科　内科","count":1,"level":"detail"},{"id":"medical-2-7677","name":"医療法人社団光耀会　平田内科泌尿器クリニック","categoryId":"medical","categoryLabel":"医疗","lat":35.604455,"lng":139.731946,"stationId":"station-004193","note":"内科　アレルギー科　皮膚科　泌尿器科","count":1,"level":"detail"},{"id":"medical-2-10391","name":"医療法人社団六医会　品川シーサイドセントラルクリニック","categoryId":"medical","categoryLabel":"医疗","lat":35.610243,"lng":139.749315,"stationId":"station-004182","note":"内科　心療内科　皮膚科　精神科","count":1,"level":"detail"},{"id":"medical-3-9285","name":"医療法人社団則真会　大崎シティデンタルクリニック","categoryId":"medical","categoryLabel":"医疗","lat":35.619126,"lng":139.731241,"stationId":"station-004136","note":"歯科　矯正歯科　小児歯科","count":1,"level":"detail"},{"id":"medical-3-7701","name":"医療法人社団厚和会　くまの歯科医院","categoryId":"medical","categoryLabel":"医疗","lat":35.607025,"lng":139.738696,"stationId":"station-004193","note":"歯科　小児歯科","count":1,"level":"detail"},{"id":"medical-3-10142","name":"医療法人社団友正会　品川御殿山クレイン歯科","categoryId":"medical","categoryLabel":"医疗","lat":35.623696,"lng":139.733915,"stationId":"station-004125","note":"歯科　歯科口腔外科　矯正歯科","count":1,"level":"detail"},{"id":"medical-2-9237","name":"医療法人社団双愛会ファミリークリニック品川","categoryId":"medical","categoryLabel":"医疗","lat":35.603983,"lng":139.732953,"stationId":"station-004193","note":"内科　外科　循環器内科　精神科　リハビリテーション科　糖尿病内科　皮膚科　整形外科　緩和ケア内科","count":1,"level":"detail"},{"id":"medical-3-6999","name":"医療法人社団因幡会　ブリリア大井町ラヴィアンタワー歯科クリニック","categoryId":"medical","categoryLabel":"医疗","lat":35.60765,"lng":139.730252,"stationId":"station-004188","note":"歯科　矯正歯科　小児歯科　歯科口腔外科","count":1,"level":"detail"},{"id":"medical-2-7717","name":"医療法人社団孝徳会　孝仁クリニック","categoryId":"medical","categoryLabel":"医疗","lat":35.60605,"lng":139.736698,"stationId":"station-004193","note":"内科　小児科","count":1,"level":"detail"},{"id":"medical-3-7716","name":"医療法人社団孝誠会　クレール歯科クリニック","categoryId":"medical","categoryLabel":"医疗","lat":35.60619,"lng":139.734835,"stationId":"station-004193","note":"歯科　矯正歯科　小児歯科　歯科口腔外科","count":1,"level":"detail"},{"id":"medical-3-7768","name":"医療法人社団幸亮会　野村歯科医院","categoryId":"medical","categoryLabel":"医疗","lat":35.605617,"lng":139.732225,"stationId":"station-004193","note":"歯科","count":1,"level":"detail"},{"id":"medical-2-10164","name":"医療法人社団悠翔会　悠翔会在宅クリニック品川","categoryId":"medical","categoryLabel":"医疗","lat":35.603668,"lng":139.734327,"stationId":"station-004193","note":"内科　精神科　皮膚科　脳神経外科　リウマチ科　緩和ケア内科","count":1,"level":"detail"},{"id":"medical-2-6901","name":"医療法人社団旭清会　ゲートシティ大崎メディカルクリニック","categoryId":"medical","categoryLabel":"医疗","lat":35.619126,"lng":139.731241,"stationId":"station-004136","note":"内科　外科　皮膚科　消化器内科　胃腸内科　肛門内科　乳腺外科","count":1,"level":"detail"},{"id":"medical-3-8472","name":"医療法人社団昭清会　千葉歯科クリニック","categoryId":"medical","categoryLabel":"医疗","lat":35.60375,"lng":139.732361,"stationId":"station-004193","note":"歯科　小児歯科　歯科口腔外科","count":1,"level":"detail"},{"id":"medical-3-10183","name":"医療法人社団有夢会　おはらデンタルクリニック","categoryId":"medical","categoryLabel":"医疗","lat":35.61034,"lng":139.743116,"stationId":"station-004184","note":"歯科　矯正歯科　小児歯科　歯科口腔外科","count":1,"level":"detail"},{"id":"medical-3-9815","name":"医療法人社団服部歯科医院","categoryId":"medical","categoryLabel":"医疗","lat":35.608247,"lng":139.736866,"stationId":"station-004193","note":"歯科","count":1,"level":"detail"},{"id":"medical-3-8810","name":"医療法人社団杉友会　エービーシーユリ歯科","categoryId":"medical","categoryLabel":"医疗","lat":35.60719,"lng":139.733918,"stationId":"station-004193","note":"歯科　矯正歯科　小児歯科　歯科口腔外科","count":1,"level":"detail"},{"id":"medical-2-9539","name":"医療法人社団東健会大崎消化器内科クリニック","categoryId":"medical","categoryLabel":"医疗","lat":35.62175,"lng":139.731811,"stationId":"station-004136","note":"内科　消化器内科　アレルギー科","count":1,"level":"detail"},{"id":"medical-2-9552","name":"医療法人社団東品川クリニック","categoryId":"medical","categoryLabel":"医疗","lat":35.613899,"lng":139.749968,"stationId":"station-004182","note":"内科　消化器科　小児科　外科　整形外科　皮膚科　リハビリテーション科","count":1,"level":"detail"},{"id":"medical-3-7011","name":"医療法人社団栄潤会　シーフォート歯科クリニック","categoryId":"medical","categoryLabel":"医疗","lat":35.623249,"lng":139.750967,"stationId":"station-004123","note":"歯科　矯正歯科　小児歯科　歯科口腔外科","count":1,"level":"detail"},{"id":"medical-2-8209","name":"医療法人社団次宏会　まつうら整形外科","categoryId":"medical","categoryLabel":"医疗","lat":35.611249,"lng":139.740432,"stationId":"station-004184","note":"整形外科　リハビリテーション科","count":1,"level":"detail"},{"id":"medical-3-8884","name":"医療法人社団正基会　愈稀歯科医院","categoryId":"medical","categoryLabel":"医疗","lat":35.605784,"lng":139.743714,"stationId":"station-004220","note":"歯科　小児歯科","count":1,"level":"detail"},{"id":"medical-2-8907","name":"医療法人社団正望会　正望クリニック","categoryId":"medical","categoryLabel":"医疗","lat":35.620808,"lng":139.732986,"stationId":"station-004136","note":"内科　循環器内科　麻酔科","count":1,"level":"detail"},{"id":"medical-3-8921","name":"医療法人社団清貴会　小川歯科","categoryId":"medical","categoryLabel":"医疗","lat":35.623455,"lng":139.749091,"stationId":"station-004123","note":"歯科　矯正歯科","count":1,"level":"detail"},{"id":"medical-2-10058","name":"医療法人社団癒合会医道五十三次クリニック","categoryId":"medical","categoryLabel":"医疗","lat":35.622037,"lng":139.740509,"stationId":"station-004125","note":"内科","count":1,"level":"detail"},{"id":"medical-3-8321","name":"医療法人社団秀成会　ジュン歯科クリニック","categoryId":"medical","categoryLabel":"医疗","lat":35.610103,"lng":139.742659,"stationId":"station-004184","note":"歯科　小児歯科","count":1,"level":"detail"},{"id":"medical-3-10363","name":"医療法人社団緑陽会　小野歯科医院","categoryId":"medical","categoryLabel":"医疗","lat":35.620722,"lng":139.741109,"stationId":"station-004125","note":"歯科　矯正歯科","count":1,"level":"detail"},{"id":"medical-3-8996","name":"医療法人社団聖恒会　わたなべ歯科クリニック","categoryId":"medical","categoryLabel":"医疗","lat":35.607503,"lng":139.745008,"stationId":"station-004184","note":"歯科　矯正歯科　小児歯科　歯科口腔外科","count":1,"level":"detail"},{"id":"medical-2-7120","name":"医療法人社団花橘会　みんなのクリニック大井町","categoryId":"medical","categoryLabel":"医疗","lat":35.610435,"lng":139.739143,"stationId":"station-004184","note":"内科　皮膚科　泌尿器科　小児科","count":1,"level":"detail"},{"id":"medical-2-9578","name":"医療法人社団藤樹会　北品川藤クリニック","categoryId":"medical","categoryLabel":"医疗","lat":35.62091,"lng":139.74119,"stationId":"station-004125","note":"内科　循環器内科　糖尿病内科　内分泌内科　小児科　精神科　心療内科","count":1,"level":"detail"},{"id":"medical-3-9062","name":"医療法人社団誠明会　カトレア歯科クリニック","categoryId":"medical","categoryLabel":"医疗","lat":35.606242,"lng":139.732344,"stationId":"station-004193","note":"歯科","count":1,"level":"detail"},{"id":"medical-3-9054","name":"医療法人社団誠正会　大石歯科クリニック","categoryId":"medical","categoryLabel":"医疗","lat":35.62091,"lng":139.74119,"stationId":"station-004125","note":"歯科","count":1,"level":"detail"},{"id":"medical-3-9922","name":"医療法人社団豊成会　大崎デンタルオフィス","categoryId":"medical","categoryLabel":"医疗","lat":35.619126,"lng":139.731241,"stationId":"station-004136","note":"歯科　矯正歯科　小児歯科　歯科口腔外科","count":1,"level":"detail"},{"id":"medical-2-9912","name":"医療法人社団豊越会　こうの内科クリニック","categoryId":"medical","categoryLabel":"医疗","lat":35.606847,"lng":139.738045,"stationId":"station-004193","note":"内科　小児科　消化器内科","count":1,"level":"detail"},{"id":"medical-2-10050","name":"医療法人社団躍心会　大井町皮フ科形成外科","categoryId":"medical","categoryLabel":"医疗","lat":35.604756,"lng":139.733942,"stationId":"station-004193","note":"内科　外科　形成外科　美容外科　皮膚科","count":1,"level":"detail"},{"id":"medical-2-9931","name":"医療法人社団邦腎会　大井町駅前クリニック","categoryId":"medical","categoryLabel":"医疗","lat":35.606049,"lng":139.733375,"stationId":"station-004193","note":"小児科　外科　循環器内科　消化器内科　人工透析内科　内科　放射線科","count":1,"level":"detail"},{"id":"medical-2-10443","name":"医療法人社団雙葉会はなおかＩＶＦクリニック品川","categoryId":"medical","categoryLabel":"医疗","lat":35.618556,"lng":139.731845,"stationId":"station-004136","note":"婦人科","count":1,"level":"detail"},{"id":"medical-2-9092","name":"医療法人社団青峯会　医聖よろずクリニック　あおよこ院","categoryId":"medical","categoryLabel":"医疗","lat":35.608226,"lng":139.744434,"stationId":"station-004184","note":"内科　小児科　皮膚科　アレルギー科","count":1,"level":"detail"},{"id":"medical-3-9086","name":"医療法人社団青松会品川シーサイドステーションビル歯科","categoryId":"medical","categoryLabel":"医疗","lat":35.609947,"lng":139.750348,"stationId":"station-004182","note":"歯科　矯正歯科　小児歯科　歯科口腔外科","count":1,"level":"detail"},{"id":"medical-3-7940","name":"医療法人社団高輪会　サンフラワービル歯科","categoryId":"medical","categoryLabel":"医疗","lat":35.61094,"lng":139.743896,"stationId":"station-004184","note":"歯科　矯正歯科　小児歯科","count":1,"level":"detail"},{"id":"medical-2-10384","name":"医療法人社団麗星会　品川ガーデンクリニック","categoryId":"medical","categoryLabel":"医疗","lat":35.61811,"lng":139.730213,"stationId":"station-004136","note":"内科　泌尿器科　人工透析内科　リハビリテーション科　人工透析内科","count":1,"level":"detail"},{"id":"medical-2-6177","name":"医療法人社団ＨＥＰＡＴＯ柴田内科・消化器科クリニック","categoryId":"medical","categoryLabel":"医疗","lat":35.610464,"lng":139.744072,"stationId":"station-004184","note":"内科　消化器科　胃腸科","count":1,"level":"detail"},{"id":"medical-3-6180","name":"医療法人社団ＨＳ会　まるは歯科・矯正歯科","categoryId":"medical","categoryLabel":"医疗","lat":35.604204,"lng":139.732799,"stationId":"station-004193","note":"歯科　矯正歯科　小児歯科　歯科口腔外科","count":1,"level":"detail"},{"id":"medical-3-6282","name":"医療法人社団Ｓｍｉｌｅ　Ａｒｔ大井町フラミンゴ歯科","categoryId":"medical","categoryLabel":"医疗","lat":35.605872,"lng":139.734001,"stationId":"station-004193","note":"歯科　歯科口腔外科　矯正歯科　小児歯科","count":1,"level":"detail"},{"id":"medical-3-6316","name":"医療法人社団ＷｉＮ　愛Ｄ歯科＆矯正歯科","categoryId":"medical","categoryLabel":"医疗","lat":35.605019,"lng":139.732903,"stationId":"station-004193","note":"歯科　矯正歯科","count":1,"level":"detail"},{"id":"medical-1-4912","name":"医療法人財団　佐花会　大井中央病院","categoryId":"medical","categoryLabel":"医疗","lat":35.601355,"lng":139.733555,"stationId":"station-004244","note":"内科　呼吸器科　循環器内科　消化器内科　糖尿病　代謝内科　アレルギー科　外科　整形外科　婦人科　リハビリ科","count":1,"level":"detail"},{"id":"medical-1-4898","name":"医療法人財団　岩井医療財団　稲波脊椎・関節病院","categoryId":"medical","categoryLabel":"医疗","lat":35.614494,"lng":139.749822,"stationId":"station-004182","note":"整形外科　リハビリテーション科　内科　麻酔科　放射線科","count":1,"level":"detail"},{"id":"medical-2-4955","name":"医療法人財団ティーダ　大井町整形外科・外科クリニック","categoryId":"medical","categoryLabel":"医疗","lat":35.606242,"lng":139.732344,"stationId":"station-004193","note":"整形外科　リハビリテーション科　リウマチ科　外科　形成外科　皮膚科","count":1,"level":"detail"},{"id":"medical-2-4846","name":"医療法人ＡｖｅｃＶｏｕｓ大井町こころのクリニック","categoryId":"medical","categoryLabel":"医疗","lat":35.605987,"lng":139.733176,"stationId":"station-004193","note":"精神科　神経科　心療内科","count":1,"level":"detail"},{"id":"medical-2-4823","name":"医道品川クリニック","categoryId":"medical","categoryLabel":"医疗","lat":35.622037,"lng":139.740509,"stationId":"station-004125","note":"内科","count":1,"level":"detail"},{"id":"medical-2-16340","name":"千葉医院","categoryId":"medical","categoryLabel":"医疗","lat":35.617625,"lng":139.742621,"stationId":"station-004153","note":"内科　小児科","count":1,"level":"detail"},{"id":"medical-2-18750","name":"南医院","categoryId":"medical","categoryLabel":"医疗","lat":35.621922,"lng":139.742328,"stationId":"station-004125","note":"内科　外科","count":1,"level":"detail"},{"id":"medical-3-19367","name":"品川シーサイドイーストタワー歯科","categoryId":"medical","categoryLabel":"医疗","lat":35.609242,"lng":139.748837,"stationId":"station-004182","note":"歯科　矯正歯科　小児歯科　歯科口腔外科","count":1,"level":"detail"},{"id":"medical-3-19368","name":"品川シーサイド歯科","categoryId":"medical","categoryLabel":"医疗","lat":35.610243,"lng":139.749315,"stationId":"station-004182","note":"歯科　矯正歯科　小児歯科　歯科口腔外科","count":1,"level":"detail"},{"id":"medical-2-19369","name":"品川シーサイド皮膚・形成外科クリニック","categoryId":"medical","categoryLabel":"医疗","lat":35.609242,"lng":139.748837,"stationId":"station-004182","note":"アレルギー科　形成外科　皮膚科","count":1,"level":"detail"},{"id":"medical-2-19389","name":"品川区保健所品川保健センター","categoryId":"medical","categoryLabel":"医疗","lat":35.616579,"lng":139.740684,"stationId":"station-004153","note":"内科　小児科　歯科","count":1,"level":"detail"},{"id":"medical-2-19388","name":"品川区保健所大井保健センター","categoryId":"medical","categoryLabel":"医疗","lat":35.604029,"lng":139.730429,"stationId":"station-004193","note":"内科　小児科　歯科","count":1,"level":"detail"},{"id":"medical-2-19397","name":"品川御殿山皮膚科","categoryId":"medical","categoryLabel":"医疗","lat":35.623696,"lng":139.733915,"stationId":"station-004125","note":"皮膚科　小児皮膚科　美容皮膚科　アレルギー科","count":1,"level":"detail"},{"id":"medical-1-19398","name":"品川志匠会病院","categoryId":"medical","categoryLabel":"医疗","lat":35.620926,"lng":139.741939,"stationId":"station-004125","note":"整形外科　脳神経外科　麻酔科　リハビリ科","count":1,"level":"detail"},{"id":"medical-3-19385","name":"品川気づき歯科クリニック","categoryId":"medical","categoryLabel":"医疗","lat":35.605921,"lng":139.732499,"stationId":"station-004193","note":"歯科","count":1,"level":"detail"},{"id":"medical-2-19402","name":"品川診療所","categoryId":"medical","categoryLabel":"医疗","lat":35.614752,"lng":139.744255,"stationId":"station-004153","note":"内科　胃腸科　放射線科","count":1,"level":"detail"},{"id":"medical-3-13321","name":"坂井歯科医院","categoryId":"medical","categoryLabel":"医疗","lat":35.605447,"lng":139.730257,"stationId":"station-004193","note":"歯科","count":1,"level":"detail"},{"id":"medical-3-13335","name":"坂本歯科医院","categoryId":"medical","categoryLabel":"医疗","lat":35.62098,"lng":139.745809,"stationId":"station-004123","note":"歯科　小児歯科","count":1,"level":"detail"},{"id":"medical-3-13327","name":"坂爪歯科医院","categoryId":"medical","categoryLabel":"医疗","lat":35.611474,"lng":139.744396,"stationId":"station-004184","note":"歯科","count":1,"level":"detail"},{"id":"medical-2-15055","name":"城南こどもハート・アレルギークリニック","categoryId":"medical","categoryLabel":"医疗","lat":35.611474,"lng":139.744396,"stationId":"station-004184","note":"小児科　アレルギー科　小児循環器内科","count":1,"level":"detail"},{"id":"medical-3-10911","name":"塩津歯科医院","categoryId":"medical","categoryLabel":"医疗","lat":35.610453,"lng":139.742606,"stationId":"station-004184","note":"歯科","count":1,"level":"detail"},{"id":"medical-2-16764","name":"大井クリニック","categoryId":"medical","categoryLabel":"医疗","lat":35.608184,"lng":139.736502,"stationId":"station-004193","note":"内科　小児科　胃腸内科　皮膚科　漢方内科","count":1,"level":"detail"},{"id":"medical-2-16766","name":"大井三ツ又クリニック","categoryId":"medical","categoryLabel":"医疗","lat":35.606842,"lng":139.738252,"stationId":"station-004193","note":"泌尿器科","count":1,"level":"detail"},{"id":"medical-3-16768","name":"大井歯科クリニック","categoryId":"medical","categoryLabel":"医疗","lat":35.607704,"lng":139.731251,"stationId":"station-004193","note":"歯科　矯正歯科　小児歯科","count":1,"level":"detail"},{"id":"medical-2-16770","name":"大井町とうまクリニック","categoryId":"medical","categoryLabel":"医疗","lat":35.60765,"lng":139.730252,"stationId":"station-004188","note":"内科　呼吸器内科　循環器内科　消化器内科","count":1,"level":"detail"},{"id":"medical-3-16772","name":"大井町にこにこ歯科","categoryId":"medical","categoryLabel":"医疗","lat":35.608114,"lng":139.737164,"stationId":"station-004193","note":"歯科","count":1,"level":"detail"},{"id":"medical-2-16769","name":"大井町クリニック","categoryId":"medical","categoryLabel":"医疗","lat":35.604756,"lng":139.733942,"stationId":"station-004193","note":"精神科　神経科　心療内科","count":1,"level":"detail"},{"id":"medical-2-16773","name":"大井町メディカルクリニック","categoryId":"medical","categoryLabel":"医疗","lat":35.606286,"lng":139.736471,"stationId":"station-004193","note":"内科　外科　皮膚科　循環器内科　胃腸内科　整形外科　美容皮膚科","count":1,"level":"detail"},{"id":"medical-2-16774","name":"大井町メンタルクリニック","categoryId":"medical","categoryLabel":"医疗","lat":35.60605,"lng":139.736698,"stationId":"station-004193","note":"内科　精神科　神経科　心療内科","count":1,"level":"detail"},{"id":"medical-2-16779","name":"大井町中村眼科","categoryId":"medical","categoryLabel":"医疗","lat":35.608029,"lng":139.73572,"stationId":"station-004193","note":"眼科","count":1,"level":"detail"},{"id":"medical-2-16778","name":"大井町心臓クリニック","categoryId":"medical","categoryLabel":"医疗","lat":35.608029,"lng":139.73572,"stationId":"station-004193","note":"内科　循環器内科","count":1,"level":"detail"},{"id":"medical-2-16777","name":"大井町耳鼻咽喉科","categoryId":"medical","categoryLabel":"医疗","lat":35.60455,"lng":139.734925,"stationId":"station-004193","note":"耳鼻咽喉科","count":1,"level":"detail"},{"id":"medical-3-16776","name":"大井町駅前歯科クリニック","categoryId":"medical","categoryLabel":"医疗","lat":35.606255,"lng":139.732921,"stationId":"station-004193","note":"歯科　矯正歯科　小児歯科　歯科口腔外科","count":1,"level":"detail"},{"id":"medical-2-16840","name":"大崎こどもハート・アレルギークリニック","categoryId":"medical","categoryLabel":"医疗","lat":35.620086,"lng":139.732236,"stationId":"station-004136","note":"小児科　アレルギー科　小児循環器内科","count":1,"level":"detail"},{"id":"medical-3-16841","name":"大崎スクエア歯科・矯正歯科","categoryId":"medical","categoryLabel":"医疗","lat":35.621244,"lng":139.731948,"stationId":"station-004136","note":"歯科　小児歯科　矯正歯科　歯科口腔外科","count":1,"level":"detail"},{"id":"medical-3-16843","name":"大崎ブライトタワー歯科クリニック","categoryId":"medical","categoryLabel":"医疗","lat":35.621418,"lng":139.730541,"stationId":"station-004136","note":"歯科　矯正歯科　小児歯科　歯科口腔外科","count":1,"level":"detail"},{"id":"medical-3-17060","name":"大木歯科医院","categoryId":"medical","categoryLabel":"医疗","lat":35.623648,"lng":139.741816,"stationId":"station-004125","note":"歯科　歯科口腔外科","count":1,"level":"detail"},{"id":"medical-3-17701","name":"天王洲オーシャンスクエア歯科クリニック","categoryId":"medical","categoryLabel":"医疗","lat":35.622408,"lng":139.749528,"stationId":"station-004123","note":"歯科　小児歯科　歯科口腔外科","count":1,"level":"detail"},{"id":"medical-3-17702","name":"天王洲パークサイドビル歯科","categoryId":"medical","categoryLabel":"医疗","lat":35.621283,"lng":139.750291,"stationId":"station-004123","note":"歯科","count":1,"level":"detail"},{"id":"medical-2-17703","name":"天王洲内科医院","categoryId":"medical","categoryLabel":"医疗","lat":35.622739,"lng":139.74919,"stationId":"station-004123","note":"内科","count":1,"level":"detail"},{"id":"medical-2-19496","name":"富士電機東京診療所","categoryId":"medical","categoryLabel":"医疗","lat":35.618556,"lng":139.731845,"stationId":"station-004136","note":"内科","count":1,"level":"detail"},{"id":"medical-3-14692","name":"小林歯科医院","categoryId":"medical","categoryLabel":"医疗","lat":35.616765,"lng":139.741789,"stationId":"station-004153","note":"歯科","count":1,"level":"detail"},{"id":"medical-2-14731","name":"小澤医院","categoryId":"medical","categoryLabel":"医疗","lat":35.60459,"lng":139.737688,"stationId":"station-004193","note":"内科　小児科　アレルギー科　皮膚科","count":1,"level":"detail"},{"id":"medical-2-11599","name":"岩端医院","categoryId":"medical","categoryLabel":"医疗","lat":35.604453,"lng":139.733211,"stationId":"station-004193","note":"内科　胃腸科　小児科","count":1,"level":"detail"},{"id":"medical-2-18034","name":"嶋本皮膚科内科医院","categoryId":"medical","categoryLabel":"医疗","lat":35.618387,"lng":139.74364,"stationId":"station-004153","note":"内科　皮膚科","count":1,"level":"detail"},{"id":"medical-2-12628","name":"御殿山整形外科リハビリクリニック","categoryId":"medical","categoryLabel":"医疗","lat":35.62175,"lng":139.731811,"stationId":"station-004136","note":"整形外科　リハビリテーション科　ペインクリニック外科　循環器内科","count":1,"level":"detail"},{"id":"medical-2-12627","name":"御殿山耳鼻咽喉科醫院","categoryId":"medical","categoryLabel":"医疗","lat":35.62175,"lng":139.731811,"stationId":"station-004136","note":"耳鼻咽喉科","count":1,"level":"detail"},{"id":"medical-2-15084","name":"心越クリニック","categoryId":"medical","categoryLabel":"医疗","lat":35.624293,"lng":139.730845,"stationId":"station-004136","note":"内科　リハビリテーション科","count":1,"level":"detail"},{"id":"medical-3-16060","name":"斉藤歯科医院","categoryId":"medical","categoryLabel":"医疗","lat":35.604702,"lng":139.738364,"stationId":"station-004220","note":"歯科","count":1,"level":"detail"},{"id":"medical-2-15271","name":"新馬場眼科","categoryId":"medical","categoryLabel":"医疗","lat":35.618106,"lng":139.742617,"stationId":"station-004153","note":"眼科","count":1,"level":"detail"},{"id":"medical-3-16564","name":"早川歯科医院","categoryId":"medical","categoryLabel":"医疗","lat":35.600161,"lng":139.730334,"stationId":"station-004244","note":"歯科","count":1,"level":"detail"},{"id":"medical-2-15703","name":"星野医院","categoryId":"medical","categoryLabel":"医疗","lat":35.600112,"lng":139.735329,"stationId":"station-004244","note":"内科　リハビリテーション科　外科　小児外科　小児科","count":1,"level":"detail"},{"id":"medical-2-15717","name":"晴楓ホーム医務室","categoryId":"medical","categoryLabel":"医疗","lat":35.617024,"lng":139.74659,"stationId":"station-004153","note":"内科","count":1,"level":"detail"},{"id":"medical-2-20022","name":"本村耳鼻咽喉科クリニック","categoryId":"medical","categoryLabel":"医疗","lat":35.618119,"lng":139.741829,"stationId":"station-004153","note":"内科　小児科　アレルギー科　耳鼻咽喉科　気管食道科","count":1,"level":"detail"},{"id":"medical-2-18091","name":"東京シーフォートスクエアクリニック","categoryId":"medical","categoryLabel":"医疗","lat":35.623703,"lng":139.75071,"stationId":"station-004123","note":"内科　消化器内科　漢方内科","count":1,"level":"detail"},{"id":"medical-3-18379","name":"東品川歯科クリニック","categoryId":"medical","categoryLabel":"医疗","lat":35.613899,"lng":139.749968,"stationId":"station-004182","note":"歯科　矯正歯科　小児歯科　歯科口腔外科","count":1,"level":"detail"},{"id":"medical-3-18355","name":"東川歯科医院","categoryId":"medical","categoryLabel":"医疗","lat":35.615315,"lng":139.743954,"stationId":"station-004153","note":"歯科　小児歯科","count":1,"level":"detail"},{"id":"medical-2-14881","name":"松脇クリニック品川","categoryId":"medical","categoryLabel":"医疗","lat":35.623696,"lng":139.733915,"stationId":"station-004125","note":"耳鼻咽喉科　アレルギー科　呼吸器内科　麻酔科","count":1,"level":"detail"},{"id":"medical-2-20554","name":"林医院","categoryId":"medical","categoryLabel":"医疗","lat":35.600229,"lng":139.737363,"stationId":"station-004244","note":"内科　循環器科　小児科　皮膚科","count":1,"level":"detail"},{"id":"medical-2-20575","name":"林小児科内科医院","categoryId":"medical","categoryLabel":"医疗","lat":35.602494,"lng":139.731441,"stationId":"station-004193","note":"小児科　内科","count":1,"level":"detail"},{"id":"medical-2-11447","name":"株式会社日本総合研究所　第二健康管理室","categoryId":"medical","categoryLabel":"医疗","lat":35.623696,"lng":139.733915,"stationId":"station-004125","note":"内科","count":1,"level":"detail"},{"id":"medical-2-11448","name":"株式会社日立ソリューションズ　健康管理室センタ","categoryId":"medical","categoryLabel":"医疗","lat":35.609821,"lng":139.749273,"stationId":"station-004182","note":"内科","count":1,"level":"detail"},{"id":"medical-2-11437","name":"株式会社神戸製鋼所東京本社健康管理室","categoryId":"medical","categoryLabel":"医疗","lat":35.619089,"lng":139.734824,"stationId":"station-004125","note":"内科　歯科","count":1,"level":"detail"},{"id":"medical-2-19009","name":"梅沢医院","categoryId":"medical","categoryLabel":"医疗","lat":35.611384,"lng":139.741047,"stationId":"station-004184","note":"内科　小児科　リハビリテーション科","count":1,"level":"detail"},{"id":"medical-2-11219","name":"河瀬眼科医院","categoryId":"medical","categoryLabel":"医疗","lat":35.611748,"lng":139.74637,"stationId":"station-004182","note":"眼科","count":1,"level":"detail"},{"id":"medical-2-20782","name":"濱崎眼科医院","categoryId":"medical","categoryLabel":"医疗","lat":35.601349,"lng":139.730836,"stationId":"station-004193","note":"眼科","count":1,"level":"detail"},{"id":"medical-2-18601","name":"特別養護老人ホームグランアークみづほ内診療所","categoryId":"medical","categoryLabel":"医疗","lat":35.614846,"lng":139.738669,"stationId":"station-004153","note":"内科　神経内科","count":1,"level":"detail"},{"id":"medical-2-18530","name":"特定非営利活動法人ルネサンス　巡回健診クリニック　東京支部","categoryId":"medical","categoryLabel":"医疗","lat":35.605778,"lng":139.742208,"stationId":"station-004220","note":"内科","count":1,"level":"detail"},{"id":"medical-2-17736","name":"田園調布メディカルクリニック","categoryId":"medical","categoryLabel":"医疗","lat":35.606286,"lng":139.736471,"stationId":"station-004193","note":"内科　皮膚科","count":1,"level":"detail"},{"id":"medical-3-16176","name":"石田歯科医院","categoryId":"medical","categoryLabel":"医疗","lat":35.617911,"lng":139.740644,"stationId":"station-004153","note":"歯科","count":1,"level":"detail"},{"id":"medical-2-14198","name":"社会福祉法人品川総合福祉センター医務室","categoryId":"medical","categoryLabel":"医疗","lat":35.605035,"lng":139.753318,"stationId":"station-004182","note":"内科","count":1,"level":"detail"},{"id":"medical-2-17298","name":"竹内医院","categoryId":"medical","categoryLabel":"医疗","lat":35.610477,"lng":139.744291,"stationId":"station-004184","note":"耳鼻咽喉科","count":1,"level":"detail"},{"id":"medical-2-17101","name":"第一三共株式会社品川研究開発センター品川健康推進室","categoryId":"medical","categoryLabel":"医疗","lat":35.615219,"lng":139.734333,"stationId":"station-004153","note":"内科","count":1,"level":"detail"},{"id":"medical-3-11679","name":"菊地歯科医院","categoryId":"medical","categoryLabel":"医疗","lat":35.612091,"lng":139.744071,"stationId":"station-004184","note":"歯科　小児歯科","count":1,"level":"detail"},{"id":"medical-2-11334","name":"角レディースクリニック","categoryId":"medical","categoryLabel":"医疗","lat":35.608029,"lng":139.73572,"stationId":"station-004193","note":"産婦人科　内科","count":1,"level":"detail"},{"id":"medical-2-15975","name":"誠快醫院","categoryId":"medical","categoryLabel":"医疗","lat":35.602763,"lng":139.733664,"stationId":"station-004193","note":"内科　リウマチ科　整形外科","count":1,"level":"detail"},{"id":"medical-2-20650","name":"鈴木内科医院","categoryId":"medical","categoryLabel":"医疗","lat":35.603708,"lng":139.736819,"stationId":"station-004193","note":"内科　リハビリテーション科　放射線科","count":1,"level":"detail"},{"id":"medical-2-17617","name":"長谷川皮膚科内科医院","categoryId":"medical","categoryLabel":"医疗","lat":35.608029,"lng":139.73572,"stationId":"station-004193","note":"皮膚科　内科","count":1,"level":"detail"},{"id":"medical-2-13043","name":"高梨医院","categoryId":"medical","categoryLabel":"医疗","lat":35.616285,"lng":139.740162,"stationId":"station-004153","note":"内科　皮膚科　外科　リハビリテーション科","count":1,"level":"detail"},{"id":"medical-2-20833","name":"髙橋眼科クリニック","categoryId":"medical","categoryLabel":"医疗","lat":35.606698,"lng":139.737697,"stationId":"station-004193","note":"眼科","count":1,"level":"detail"},{"id":"medical-2-20792","name":"齋藤眼科医院","categoryId":"medical","categoryLabel":"医疗","lat":35.606738,"lng":139.736522,"stationId":"station-004193","note":"眼科","count":1,"level":"detail"},{"id":"medical-2-217","name":"Ｊスクエア中央健康増進室","categoryId":"medical","categoryLabel":"医疗","lat":35.623317,"lng":139.750912,"stationId":"station-004123","note":"内科　精神神経科","count":1,"level":"detail"},{"id":"medical-2-213","name":"ＪＲ東日本健康推進センター","categoryId":"medical","categoryLabel":"医疗","lat":35.60934,"lng":139.733407,"stationId":"station-004193","note":"内科　精神科","count":1,"level":"detail"},{"id":"medical-2-332","name":"ＳＯグレイスクリニック御殿山","categoryId":"medical","categoryLabel":"医疗","lat":35.620994,"lng":139.733337,"stationId":"station-004136","note":"内科　美容外科　脳神経外科　美容皮膚科","count":1,"level":"detail"},{"id":"public-13109-21347","name":"八潮児童センター","categoryId":"public_service","categoryLabel":"公共服务","lat":35.600202,"lng":139.751237,"stationId":"station-004220","note":"品川区八潮5-10-27八潮地域センター","count":1,"level":"detail"},{"id":"public-13109-21346","name":"八潮区民集会所","categoryId":"public_service","categoryLabel":"公共服务","lat":35.600153,"lng":139.751258,"stationId":"station-004220","note":"品川区八潮5-10-27","count":1,"level":"detail"},{"id":"public-13109-21345","name":"八潮地域センター","categoryId":"public_service","categoryLabel":"公共服务","lat":35.600153,"lng":139.751278,"stationId":"station-004220","note":"品川区八潮5-10-27","count":1,"level":"detail"},{"id":"public-13109-21356","name":"北品川児童センター","categoryId":"public_service","categoryLabel":"公共服务","lat":35.618761,"lng":139.743983,"stationId":"station-004153","note":"品川区北品川2-7-21","count":1,"level":"detail"},{"id":"public-13109-21326","name":"区立総合区民会館","categoryId":"public_service","categoryLabel":"公共服务","lat":35.606177,"lng":139.735839,"stationId":"station-004193","note":"品川区東大井5-18-1きゅりあん","count":1,"level":"detail"},{"id":"public-13109-21344","name":"南品川児童センター","categoryId":"public_service","categoryLabel":"公共服务","lat":35.613435,"lng":139.7387,"stationId":"station-004153","note":"品川区南品川4-5-28","count":1,"level":"detail"},{"id":"public-13109-21336","name":"南大井文化センター","categoryId":"public_service","categoryLabel":"公共服务","lat":35.608906,"lng":139.730311,"stationId":"station-004188","note":"品川区南大井1-12-6","count":1,"level":"detail"},{"id":"public-13109-21359","name":"品川健康センター","categoryId":"public_service","categoryLabel":"公共服务","lat":35.61657,"lng":139.740646,"stationId":"station-004153","note":"品川区北品川3-11-22","count":1,"level":"detail"},{"id":"public-13109-21351","name":"品川区保健所","categoryId":"public_service","categoryLabel":"公共服务","lat":35.608811,"lng":139.730292,"stationId":"station-004188","note":"品川区広町2-1-36","count":1,"level":"detail"},{"id":"public-13109-21286","name":"品川区役所","categoryId":"public_service","categoryLabel":"公共服务","lat":35.609066,"lng":139.730253,"stationId":"station-004188","note":"品川区広町2-1-36","count":1,"level":"detail"},{"id":"public-13109-21358","name":"品川第一区民集会所","categoryId":"public_service","categoryLabel":"公共服务","lat":35.61662,"lng":139.740059,"stationId":"station-004153","note":"品川区北品川3-11-16","count":1,"level":"detail"},{"id":"public-13109-21357","name":"品川第一地域センター","categoryId":"public_service","categoryLabel":"公共服务","lat":35.6167,"lng":139.739992,"stationId":"station-004153","note":"品川区北品川3-11-16","count":1,"level":"detail"},{"id":"public-13109-21340","name":"品川第二区民集会所","categoryId":"public_service","categoryLabel":"公共服务","lat":35.611278,"lng":139.741271,"stationId":"station-004184","note":"品川区南品川5-3-20","count":1,"level":"detail"},{"id":"public-13109-21341","name":"品川第二地域センター","categoryId":"public_service","categoryLabel":"公共服务","lat":35.611336,"lng":139.741282,"stationId":"station-004184","note":"品川区南品川5-3-20","count":1,"level":"detail"},{"id":"public-13109-21309","name":"大井倉田児童センター","categoryId":"public_service","categoryLabel":"公共服务","lat":35.602322,"lng":139.733848,"stationId":"station-004193","note":"品川区大井4-11-34","count":1,"level":"detail"},{"id":"public-13109-21312","name":"大井町サービスコーナー","categoryId":"public_service","categoryLabel":"公共服务","lat":35.606215,"lng":139.734892,"stationId":"station-004193","note":"品川区大井1-2-1大井町駅ビルアトレ中央西口階段下","count":1,"level":"detail"},{"id":"public-13109-21311","name":"大井第二区民集会所","categoryId":"public_service","categoryLabel":"公共服务","lat":35.604091,"lng":139.730386,"stationId":"station-004193","note":"品川区大井2-27-20","count":1,"level":"detail"},{"id":"public-13109-21310","name":"大井第二地域センター","categoryId":"public_service","categoryLabel":"公共服务","lat":35.604091,"lng":139.730406,"stationId":"station-004193","note":"品川区大井2-27-20","count":1,"level":"detail"},{"id":"public-13109-21305","name":"小関児童センター","categoryId":"public_service","categoryLabel":"公共服务","lat":35.619595,"lng":139.7328,"stationId":"station-004136","note":"品川区北品川5-8-15","count":1,"level":"detail"},{"id":"public-13109-21334","name":"東品川シルバーセンター","categoryId":"public_service","categoryLabel":"公共服务","lat":35.612871,"lng":139.750635,"stationId":"station-004182","note":"品川区東品川3-32-10","count":1,"level":"detail"},{"id":"public-13109-21332","name":"東品川児童センター","categoryId":"public_service","categoryLabel":"公共服务","lat":35.619198,"lng":139.746202,"stationId":"station-004153","note":"品川区東品川1-34-9","count":1,"level":"detail"},{"id":"public-13109-21333","name":"東品川文化センター","categoryId":"public_service","categoryLabel":"公共服务","lat":35.614074,"lng":139.75052,"stationId":"station-004182","note":"品川区東品川3-32-10","count":1,"level":"detail"},{"id":"public-13109-21330","name":"東大井児童センター","categoryId":"public_service","categoryLabel":"公共服务","lat":35.603338,"lng":139.741365,"stationId":"station-004220","note":"品川区東大井1-22-16","count":1,"level":"detail"},{"id":"public-13109-21325","name":"東大井区民集会所","categoryId":"public_service","categoryLabel":"公共服务","lat":35.600719,"lng":139.7417,"stationId":"station-004244","note":"品川区東大井2-16-12","count":1,"level":"detail"},{"id":"public-13109-21327","name":"男女共同参画センター","categoryId":"public_service","categoryLabel":"公共服务","lat":35.606368,"lng":139.735813,"stationId":"station-004193","note":"品川区東大井5-18-1きゅりあん","count":1,"level":"detail"},{"id":"public-13109-21329","name":"関ケ原シルバーセンター","categoryId":"public_service","categoryLabel":"公共服务","lat":35.601883,"lng":139.736508,"stationId":"station-004244","note":"品川区東大井6-11-11","count":1,"level":"detail"}]
