[{"id":"medical-3-600","name":"あさの歯科","categoryId":"medical","categoryLabel":"医疗","lat":35.76379,"lng":139.736455,"stationId":"station-003207","note":"歯科　矯正歯科　小児歯科　歯科口腔外科","count":1,"level":"detail"},{"id":"medical-2-844","name":"いさ内科クリニック","categoryId":"medical","categoryLabel":"医疗","lat":35.755977,"lng":139.739774,"stationId":"station-003236","note":"内科　神経内科　リハビリテーション科　小児科","count":1,"level":"detail"},{"id":"medical-2-913","name":"いとう王子神谷内科外科クリニック","categoryId":"medical","categoryLabel":"医疗","lat":35.76379,"lng":139.736455,"stationId":"station-003207","note":"内科　外科　乳腺外科　内視鏡内科　消化器内科　呼吸器内科　循環器内科　麻酔科　救急科　小児科　泌尿器科　皮膚科","count":1,"level":"detail"},{"id":"medical-2-1017","name":"うえやま眼科","categoryId":"medical","categoryLabel":"医疗","lat":35.765548,"lng":139.731805,"stationId":"station-003207","note":"眼科　小児眼科","count":1,"level":"detail"},{"id":"medical-2-1176","name":"おうじキッズクリニック","categoryId":"medical","categoryLabel":"医疗","lat":35.765548,"lng":139.731805,"stationId":"station-003207","note":"小児科","count":1,"level":"detail"},{"id":"medical-2-1216","name":"おおたけ整形外科・内科","categoryId":"medical","categoryLabel":"医疗","lat":35.753975,"lng":139.738349,"stationId":"station-003236","note":"整形外科　リハビリテーション科　リウマチ科　内科　糖尿病内科","count":1,"level":"detail"},{"id":"medical-3-1545","name":"かわかみ歯科","categoryId":"medical","categoryLabel":"医疗","lat":35.769941,"lng":139.733079,"stationId":"station-003207","note":"歯科　小児歯科　歯科口腔外科","count":1,"level":"detail"},{"id":"medical-3-1622","name":"きむら歯科医院","categoryId":"medical","categoryLabel":"医疗","lat":35.759603,"lng":139.735361,"stationId":"station-003207","note":"歯科","count":1,"level":"detail"},{"id":"medical-2-1906","name":"ごとう内科","categoryId":"medical","categoryLabel":"医疗","lat":35.765548,"lng":139.731805,"stationId":"station-003207","note":"内科　消化器内科　内視鏡内科","count":1,"level":"detail"},{"id":"medical-3-1904","name":"ごとう歯科医院","categoryId":"medical","categoryLabel":"医疗","lat":35.766154,"lng":139.736372,"stationId":"station-003207","note":"歯科　小児歯科　歯科口腔外科","count":1,"level":"detail"},{"id":"medical-2-2062","name":"さくらクリニック","categoryId":"medical","categoryLabel":"医疗","lat":35.753847,"lng":139.736419,"stationId":"station-003236","note":"泌尿器科　内科","count":1,"level":"detail"},{"id":"medical-3-2171","name":"さわべ歯科クリニック王子神谷","categoryId":"medical","categoryLabel":"医疗","lat":35.767548,"lng":139.732829,"stationId":"station-003207","note":"歯科　矯正歯科　小児歯科　歯科口腔外科","count":1,"level":"detail"},{"id":"medical-2-2225","name":"しかだこどもクリニック","categoryId":"medical","categoryLabel":"医疗","lat":35.752506,"lng":139.749167,"stationId":"station-003246","note":"小児科","count":1,"level":"detail"},{"id":"medical-3-2405","name":"すずき歯科","categoryId":"medical","categoryLabel":"医疗","lat":35.752387,"lng":139.753797,"stationId":"station-003252","note":"歯科　矯正歯科　小児歯科　歯科口腔外科","count":1,"level":"detail"},{"id":"medical-2-2478","name":"せいおん耳鼻咽喉科","categoryId":"medical","categoryLabel":"医疗","lat":35.752466,"lng":139.735202,"stationId":"station-003236","note":"小児科　耳鼻咽喉科","count":1,"level":"detail"},{"id":"medical-3-2649","name":"たきのがわ歯科","categoryId":"medical","categoryLabel":"医疗","lat":35.750451,"lng":139.730479,"stationId":"station-003276","note":"歯科　小児歯科","count":1,"level":"detail"},{"id":"medical-3-2700","name":"たなか歯科医院","categoryId":"medical","categoryLabel":"医疗","lat":35.752802,"lng":139.748865,"stationId":"station-003246","note":"歯科　小児歯科　矯正歯科　歯科口腔外科","count":1,"level":"detail"},{"id":"medical-3-2722","name":"たねだ歯科医院","categoryId":"medical","categoryLabel":"医疗","lat":35.765402,"lng":139.736111,"stationId":"station-003207","note":"歯科","count":1,"level":"detail"},{"id":"medical-3-3489","name":"ひかり歯科医院","categoryId":"medical","categoryLabel":"医疗","lat":35.761817,"lng":139.736986,"stationId":"station-003207","note":"歯科　小児歯科　歯科口腔外科","count":1,"level":"detail"},{"id":"medical-3-3792","name":"ほくと歯科医院","categoryId":"medical","categoryLabel":"医疗","lat":35.762627,"lng":139.73661,"stationId":"station-003207","note":"歯科　小児歯科　矯正歯科　歯科口腔外科","count":1,"level":"detail"},{"id":"medical-2-3891","name":"まさき循環器科内科","categoryId":"medical","categoryLabel":"医疗","lat":35.756982,"lng":139.737747,"stationId":"station-003236","note":"内科　循環器科　呼吸器科　胃腸科","count":1,"level":"detail"},{"id":"medical-3-4089","name":"みやぎ歯科","categoryId":"medical","categoryLabel":"医疗","lat":35.757648,"lng":139.757043,"stationId":"station-003254","note":"歯科　小児歯科","count":1,"level":"detail"},{"id":"medical-3-4250","name":"もりや歯科医院","categoryId":"medical","categoryLabel":"医疗","lat":35.758868,"lng":139.740326,"stationId":"station-003236","note":"歯科　小児歯科","count":1,"level":"detail"},{"id":"medical-2-4267","name":"やぎゅう医院","categoryId":"medical","categoryLabel":"医疗","lat":35.754353,"lng":139.747892,"stationId":"station-003246","note":"内科　小児科　外科　小児外科","count":1,"level":"detail"},{"id":"medical-2-4476","name":"よつばクリニック","categoryId":"medical","categoryLabel":"医疗","lat":35.754007,"lng":139.734994,"stationId":"station-003236","note":"内科","count":1,"level":"detail"},{"id":"medical-2-4643","name":"わたなべ耳鼻咽喉科","categoryId":"medical","categoryLabel":"医疗","lat":35.765548,"lng":139.731805,"stationId":"station-003207","note":"耳鼻咽喉科　小児耳鼻咽喉科　アレルギー科","count":1,"level":"detail"},{"id":"medical-2-1703","name":"クリスタル眼科","categoryId":"medical","categoryLabel":"医疗","lat":35.754353,"lng":139.747892,"stationId":"station-003246","note":"眼科","count":1,"level":"detail"},{"id":"medical-2-2275","name":"シマダ皮膚科クリニック","categoryId":"medical","categoryLabel":"医疗","lat":35.753163,"lng":139.7373,"stationId":"station-003239","note":"皮膚科　美容皮膚科　小児皮膚科　形成外科　アレルギー科","count":1,"level":"detail"},{"id":"medical-2-2476","name":"スワンレディースクリニック","categoryId":"medical","categoryLabel":"医疗","lat":35.762633,"lng":139.737736,"stationId":"station-003207","note":"産婦人科","count":1,"level":"detail"},{"id":"medical-2-2989","name":"トッパングループ健康保険組合城北診療所","categoryId":"medical","categoryLabel":"医疗","lat":35.766889,"lng":139.733498,"stationId":"station-003207","note":"内科　歯科","count":1,"level":"detail"},{"id":"medical-2-2990","name":"トッパングループ健康保険組合東京書籍診療所","categoryId":"medical","categoryLabel":"医疗","lat":35.75226,"lng":139.744954,"stationId":"station-003246","note":"内科　歯科","count":1,"level":"detail"},{"id":"medical-2-3307","name":"ハートアイランド耳鼻いんこう科","categoryId":"medical","categoryLabel":"医疗","lat":35.772099,"lng":139.744781,"stationId":"station-003207","note":"耳鼻いんこう科　小児耳鼻いんこう科　アレルギー科","count":1,"level":"detail"},{"id":"medical-3-3315","name":"ハート歯科クリニック","categoryId":"medical","categoryLabel":"医疗","lat":35.769809,"lng":139.747281,"stationId":"station-003207","note":"歯科　矯正歯科　小児歯科　歯科口腔外科","count":1,"level":"detail"},{"id":"medical-3-3637","name":"フォレスト歯科","categoryId":"medical","categoryLabel":"医疗","lat":35.753574,"lng":139.736468,"stationId":"station-003236","note":"歯科　小児歯科　矯正歯科","count":1,"level":"detail"},{"id":"medical-3-3845","name":"マーガレット歯科クリニック","categoryId":"medical","categoryLabel":"医疗","lat":35.757458,"lng":139.74339,"stationId":"station-003236","note":"歯科　小児歯科　歯科口腔外科","count":1,"level":"detail"},{"id":"medical-3-17461","name":"中島歯科医院","categoryId":"medical","categoryLabel":"医疗","lat":35.757928,"lng":139.756094,"stationId":"station-003254","note":"歯科","count":1,"level":"detail"},{"id":"medical-3-11856","name":"久松歯科医院","categoryId":"medical","categoryLabel":"医疗","lat":35.750563,"lng":139.748187,"stationId":"station-003246","note":"歯科","count":1,"level":"detail"},{"id":"medical-2-16753","name":"代田クリニック","categoryId":"medical","categoryLabel":"医疗","lat":35.765067,"lng":139.738737,"stationId":"station-003207","note":"外科　内科　胃腸科　放射線科　皮膚科　理学診療科","count":1,"level":"detail"},{"id":"medical-2-13176","name":"佐久間医院","categoryId":"medical","categoryLabel":"医疗","lat":35.754996,"lng":139.73332,"stationId":"station-003236","note":"内科　小児科","count":1,"level":"detail"},{"id":"medical-2-19869","name":"北区休日診療所","categoryId":"medical","categoryLabel":"医疗","lat":35.757622,"lng":139.737182,"stationId":"station-003236","note":"内科　小児科","count":1,"level":"detail"},{"id":"medical-1-5850","name":"医療法人社団　中央白報会　白報会王子病院","categoryId":"medical","categoryLabel":"医疗","lat":35.756657,"lng":139.73689,"stationId":"station-003236","note":"内科　呼吸器内科　消化器内科　循環器内科　外科　乳腺外科　整形外科　脳神経外科　婦人科　眼科　耳鼻いんこう科　皮膚科　泌尿器科　リハビリ科　放射線科　麻酔科　腎臓内科　精神科","count":1,"level":"detail"},{"id":"medical-1-5875","name":"医療法人社団　田島厚生会　神谷病院","categoryId":"medical","categoryLabel":"医疗","lat":35.768288,"lng":139.731554,"stationId":"station-003207","note":"内科　外科　整形外科　泌尿器科　リハビリ科　循環器内科　糖尿病内科　脳神経外科","count":1,"level":"detail"},{"id":"medical-2-6373","name":"医療法人社団いとう皮ふ科","categoryId":"medical","categoryLabel":"医疗","lat":35.753478,"lng":139.733667,"stationId":"station-003236","note":"皮膚科","count":1,"level":"detail"},{"id":"medical-2-6433","name":"医療法人社団かとうクリニック","categoryId":"medical","categoryLabel":"医疗","lat":35.768097,"lng":139.734214,"stationId":"station-003207","note":"小児科　内科　アレルギー科　精神科","count":1,"level":"detail"},{"id":"medical-2-6441","name":"医療法人社団かわうち幸生会　西尾久クリニック","categoryId":"medical","categoryLabel":"医疗","lat":35.750872,"lng":139.758682,"stationId":"station-003254","note":"内科　小児科　整形外科","count":1,"level":"detail"},{"id":"medical-2-6489","name":"医療法人社団こやの整形外科内科","categoryId":"medical","categoryLabel":"医疗","lat":35.762803,"lng":139.736179,"stationId":"station-003207","note":"整形外科　内科　リハビリテーション科　リウマチ科","count":1,"level":"detail"},{"id":"medical-3-6459","name":"医療法人社団クラルテ東十条アクア歯科","categoryId":"medical","categoryLabel":"医疗","lat":35.767392,"lng":139.731421,"stationId":"station-003207","note":"歯科　小児歯科　歯科口腔外科","count":1,"level":"detail"},{"id":"medical-3-6713","name":"医療法人社団ブライトデンタルケア王子リボン歯科・矯正歯科","categoryId":"medical","categoryLabel":"医疗","lat":35.75391,"lng":139.738028,"stationId":"station-003236","note":"歯科　矯正歯科　小児歯科　歯科口腔外科","count":1,"level":"detail"},{"id":"medical-2-6852","name":"医療法人社団リボン会小湊小児科医院","categoryId":"medical","categoryLabel":"医疗","lat":35.76467,"lng":139.735156,"stationId":"station-003207","note":"内科　小児科","count":1,"level":"detail"},{"id":"medical-3-8745","name":"医療法人社団仁保会王子神谷矯正歯科クリニック","categoryId":"medical","categoryLabel":"医疗","lat":35.764928,"lng":139.736103,"stationId":"station-003207","note":"矯正歯科","count":1,"level":"detail"},{"id":"medical-3-8746","name":"医療法人社団仁保会百瀬歯科医院","categoryId":"medical","categoryLabel":"医疗","lat":35.763694,"lng":139.730387,"stationId":"station-003210","note":"歯科　矯正歯科　小児歯科","count":1,"level":"detail"},{"id":"medical-2-7554","name":"医療法人社団健整会ＹＳＪ王子整形外科","categoryId":"medical","categoryLabel":"医疗","lat":35.753163,"lng":139.7373,"stationId":"station-003239","note":"整形外科　リハビリテーション科","count":1,"level":"detail"},{"id":"medical-2-10273","name":"医療法人社団利田会　周愛荒川メンタルクリニック","categoryId":"medical","categoryLabel":"医疗","lat":35.750412,"lng":139.756252,"stationId":"station-003254","note":"精神科","count":1,"level":"detail"},{"id":"medical-2-10274","name":"医療法人社団利田会周愛利田クリニック","categoryId":"medical","categoryLabel":"医疗","lat":35.750287,"lng":139.748534,"stationId":"station-003246","note":"内科　精神科　心療内科","count":1,"level":"detail"},{"id":"medical-3-6948","name":"医療法人社団医智会医恵歯科医院","categoryId":"medical","categoryLabel":"医疗","lat":35.762495,"lng":139.745965,"stationId":"station-003207","note":"歯科","count":1,"level":"detail"},{"id":"medical-3-6949","name":"医療法人社団医智会医恵歯科医院東十条","categoryId":"medical","categoryLabel":"医疗","lat":35.767104,"lng":139.731889,"stationId":"station-003207","note":"歯科","count":1,"level":"detail"},{"id":"medical-3-7181","name":"医療法人社団喜芳会王子みのうら矯正歯科","categoryId":"medical","categoryLabel":"医疗","lat":35.75512,"lng":139.737432,"stationId":"station-003236","note":"矯正歯科　小児矯正歯科","count":1,"level":"detail"},{"id":"medical-3-7359","name":"医療法人社団圭和会　村上歯科クリニック","categoryId":"medical","categoryLabel":"医疗","lat":35.77223,"lng":139.74292,"stationId":"station-003207","note":"歯科　矯正歯科　小児歯科","count":1,"level":"detail"},{"id":"medical-2-9364","name":"医療法人社団大富会田中医院","categoryId":"medical","categoryLabel":"医疗","lat":35.750102,"lng":139.748812,"stationId":"station-003246","note":"内科　外科　麻酔科　皮膚科　小児科　消火器内科　ペインクリニック内科","count":1,"level":"detail"},{"id":"medical-2-8236","name":"医療法人社団実相会　相田歯科・耳鼻科クリニック","categoryId":"medical","categoryLabel":"医疗","lat":35.750803,"lng":139.760639,"stationId":"station-003255","note":"歯科　小児歯科　矯正歯科　耳鼻咽喉科　内科　アレルギー科","count":1,"level":"detail"},{"id":"medical-2-8367","name":"医療法人社団峻山耳鼻咽喉科北嶋医院","categoryId":"medical","categoryLabel":"医疗","lat":35.750472,"lng":139.748007,"stationId":"station-003246","note":"耳鼻咽喉科","count":1,"level":"detail"},{"id":"medical-2-7809","name":"医療法人社団康優会染谷メンタルクリニック","categoryId":"medical","categoryLabel":"医疗","lat":35.756209,"lng":139.736237,"stationId":"station-003236","note":"精神科　神経科　心療内科","count":1,"level":"detail"},{"id":"medical-2-7388","name":"医療法人社団恵西会　新田皮膚科形成外科","categoryId":"medical","categoryLabel":"医疗","lat":35.769809,"lng":139.747281,"stationId":"station-003207","note":"皮膚科　形成外科　小児皮膚科","count":1,"level":"detail"},{"id":"medical-2-6894","name":"医療法人社団愛由会中野レディースクリニック","categoryId":"medical","categoryLabel":"医疗","lat":35.756982,"lng":139.737747,"stationId":"station-003236","note":"産婦人科","count":1,"level":"detail"},{"id":"medical-2-8169","name":"医療法人社団慈広会王子神谷齋藤クリニック","categoryId":"medical","categoryLabel":"医疗","lat":35.766097,"lng":139.739506,"stationId":"station-003207","note":"内科　循環器科　消化器科　小児科","count":1,"level":"detail"},{"id":"medical-2-7495","name":"医療法人社団景星会王子疾病予防クリニック","categoryId":"medical","categoryLabel":"医疗","lat":35.753314,"lng":139.736697,"stationId":"station-003236","note":"内科　循環器内科","count":1,"level":"detail"},{"id":"medical-2-7871","name":"医療法人社団江誠会　大久保医院","categoryId":"medical","categoryLabel":"医疗","lat":35.773479,"lng":139.76373,"stationId":"station-003171","note":"内科　小児科　外科　皮膚科　リハビリテーション科","count":1,"level":"detail"},{"id":"medical-2-9112","name":"医療法人社団石山耳鼻咽喉科医院","categoryId":"medical","categoryLabel":"医疗","lat":35.767104,"lng":139.731889,"stationId":"station-003207","note":"耳鼻咽喉科　気管食道科","count":1,"level":"detail"},{"id":"medical-3-9818","name":"医療法人社団福啓会王子歯科クリニック","categoryId":"medical","categoryLabel":"医疗","lat":35.754543,"lng":139.736941,"stationId":"station-003236","note":"歯科　矯正歯科　小児歯科　歯科口腔外科","count":1,"level":"detail"},{"id":"medical-2-9830","name":"医療法人社団福寿会堀船クリニック","categoryId":"medical","categoryLabel":"医疗","lat":35.752507,"lng":139.746377,"stationId":"station-003246","note":"精神科　内科","count":1,"level":"detail"},{"id":"medical-3-10516","name":"医療法人社団翔鷹会タカノ歯科クリニック","categoryId":"medical","categoryLabel":"医疗","lat":35.765969,"lng":139.736558,"stationId":"station-003207","note":"歯科　小児歯科　歯科口腔外科　矯正歯科","count":1,"level":"detail"},{"id":"medical-3-9012","name":"医療法人社団聖祐会栗原歯科医院","categoryId":"medical","categoryLabel":"医疗","lat":35.76558,"lng":139.731064,"stationId":"station-003207","note":"歯科　矯正歯科　小児歯科　歯科口腔外科","count":1,"level":"detail"},{"id":"medical-2-7125","name":"医療法人社団華成会王子眼科クリニック","categoryId":"medical","categoryLabel":"医疗","lat":35.753705,"lng":139.733912,"stationId":"station-003236","note":"眼科","count":1,"level":"detail"},{"id":"medical-2-9577","name":"医療法人社団藤寿会ふじクリニック","categoryId":"medical","categoryLabel":"医疗","lat":35.752518,"lng":139.762267,"stationId":"station-003255","note":"内科","count":1,"level":"detail"},{"id":"medical-3-10212","name":"医療法人社団裕慈会こばやし歯科クリニック","categoryId":"medical","categoryLabel":"医疗","lat":35.750256,"lng":139.749203,"stationId":"station-003246","note":"歯科　小児歯科　矯正歯科　歯科口腔外科","count":1,"level":"detail"},{"id":"medical-3-10346","name":"医療法人社団諒人会王子ホワイト歯科","categoryId":"medical","categoryLabel":"医疗","lat":35.755196,"lng":139.739729,"stationId":"station-003236","note":"歯科　小児歯科　矯正歯科","count":1,"level":"detail"},{"id":"medical-3-7611","name":"医療法人社団賢新会　アイランド歯科クリニック","categoryId":"medical","categoryLabel":"医疗","lat":35.768769,"lng":139.748305,"stationId":"station-003207","note":"歯科　小児歯科　歯科口腔外科　矯正歯科","count":1,"level":"detail"},{"id":"medical-2-9133","name":"医療法人社団赤門会村岡医院","categoryId":"medical","categoryLabel":"医疗","lat":35.753202,"lng":139.742521,"stationId":"station-003253","note":"内科　外科　皮膚科　アレルギー科　耳鼻咽喉科","count":1,"level":"detail"},{"id":"medical-2-10379","name":"医療法人社団鈴木こどもクリニック","categoryId":"medical","categoryLabel":"医疗","lat":35.750756,"lng":139.761315,"stationId":"station-003255","note":"小児科","count":1,"level":"detail"},{"id":"medical-2-10300","name":"医療法人社団隆樹会木村クリニック","categoryId":"medical","categoryLabel":"医疗","lat":35.766982,"lng":139.734957,"stationId":"station-003207","note":"内科　老年内科　小児科　整形外科　皮膚科","count":1,"level":"detail"},{"id":"medical-2-8406","name":"医療法人社団順航会　かねやまクリニック","categoryId":"medical","categoryLabel":"医疗","lat":35.769809,"lng":139.747281,"stationId":"station-003207","note":"小児科　小児外科　小児泌尿器科","count":1,"level":"detail"},{"id":"medical-2-9438","name":"医療法人社団鳥居整形外科","categoryId":"medical","categoryLabel":"医疗","lat":35.770908,"lng":139.730307,"stationId":"station-003207","note":"整形外科　理学診療科","count":1,"level":"detail"},{"id":"medical-2-11810","name":"吉本医院","categoryId":"medical","categoryLabel":"医疗","lat":35.753021,"lng":139.732462,"stationId":"station-003236","note":"内科　消化器科　循環器科　呼吸器科　アレルギー科","count":1,"level":"detail"},{"id":"medical-2-11773","name":"吉田医院","categoryId":"medical","categoryLabel":"医疗","lat":35.758074,"lng":139.74174,"stationId":"station-003236","note":"内科　神経内科　小児科　皮膚科　放射線科","count":1,"level":"detail"},{"id":"medical-2-20748","name":"和田皮膚科医院","categoryId":"medical","categoryLabel":"医疗","lat":35.767104,"lng":139.731889,"stationId":"station-003207","note":"皮膚科","count":1,"level":"detail"},{"id":"medical-2-20095","name":"夢眠クリニック埼京","categoryId":"medical","categoryLabel":"医疗","lat":35.7534,"lng":139.76277,"stationId":"station-003255","note":"内科　整形外科","count":1,"level":"detail"},{"id":"medical-2-17053","name":"大日本印刷健康保険組合神谷診療所","categoryId":"medical","categoryLabel":"医疗","lat":35.772508,"lng":139.734311,"stationId":"station-003153","note":"内科","count":1,"level":"detail"},{"id":"medical-2-16918","name":"大西医院","categoryId":"medical","categoryLabel":"医疗","lat":35.762045,"lng":139.735142,"stationId":"station-003207","note":"耳鼻咽喉科","count":1,"level":"detail"},{"id":"medical-3-14575","name":"小台駅前歯科クリニック","categoryId":"medical","categoryLabel":"医疗","lat":35.750386,"lng":139.762301,"stationId":"station-003255","note":"歯科　矯正歯科　小児歯科　歯科口腔外科","count":1,"level":"detail"},{"id":"medical-3-14517","name":"小松歯科医院","categoryId":"medical","categoryLabel":"医疗","lat":35.753677,"lng":139.7344,"stationId":"station-003236","note":"歯科　小児歯科　矯正歯科","count":1,"level":"detail"},{"id":"medical-3-14710","name":"小林歯科医院","categoryId":"medical","categoryLabel":"医疗","lat":35.750798,"lng":139.760903,"stationId":"station-003255","note":"歯科　小児歯科","count":1,"level":"detail"},{"id":"medical-2-14563","name":"小泉眼科クリニック","categoryId":"medical","categoryLabel":"医疗","lat":35.7553,"lng":139.737471,"stationId":"station-003236","note":"眼科","count":1,"level":"detail"},{"id":"medical-3-13756","name":"山本歯科医院","categoryId":"medical","categoryLabel":"医疗","lat":35.750416,"lng":139.753246,"stationId":"station-003252","note":"歯科","count":1,"level":"detail"},{"id":"medical-3-10998","name":"岡安歯科医院","categoryId":"medical","categoryLabel":"医疗","lat":35.755493,"lng":139.736984,"stationId":"station-003236","note":"歯科","count":1,"level":"detail"},{"id":"medical-3-11627","name":"岩﨑歯科医院","categoryId":"medical","categoryLabel":"医疗","lat":35.756545,"lng":139.736573,"stationId":"station-003236","note":"歯科　小児歯科　矯正歯科","count":1,"level":"detail"},{"id":"medical-2-19788","name":"峯岸医院","categoryId":"medical","categoryLabel":"医疗","lat":35.755873,"lng":139.736547,"stationId":"station-003236","note":"内科　小児科","count":1,"level":"detail"},{"id":"medical-3-19717","name":"平野歯科","categoryId":"medical","categoryLabel":"医疗","lat":35.762093,"lng":139.748409,"stationId":"station-003207","note":"歯科　小児歯科","count":1,"level":"detail"},{"id":"medical-2-16069","name":"斉藤小児科医院","categoryId":"medical","categoryLabel":"医疗","lat":35.758601,"lng":139.743604,"stationId":"station-003236","note":"小児科","count":1,"level":"detail"},{"id":"medical-3-15098","name":"新井歯科医院","categoryId":"medical","categoryLabel":"医疗","lat":35.755465,"lng":139.739087,"stationId":"station-003236","note":"歯科","count":1,"level":"detail"},{"id":"medical-2-15583","name":"杉田眼科クリニック","categoryId":"medical","categoryLabel":"医疗","lat":35.755088,"lng":139.738895,"stationId":"station-003236","note":"眼科","count":1,"level":"detail"},{"id":"medical-3-16664","name":"村上歯科医院","categoryId":"medical","categoryLabel":"医疗","lat":35.758236,"lng":139.742263,"stationId":"station-003236","note":"歯科","count":1,"level":"detail"},{"id":"medical-2-18130","name":"東京ふれあい医療生活協同組合　ふれあいファミリークリニック","categoryId":"medical","categoryLabel":"医疗","lat":35.760638,"lng":139.756888,"stationId":"station-003254","note":"内科　小児科","count":1,"level":"detail"},{"id":"medical-2-18131","name":"東京ふれあい医療生活協同組合　梶原診療所","categoryId":"medical","categoryLabel":"医疗","lat":35.751343,"lng":139.748165,"stationId":"station-003246","note":"内科　消化器内科　循環器内科　呼吸器内科　小児科　外科　整形外科　アレルギー科　リハビリ科　放射線科","count":1,"level":"detail"},{"id":"medical-2-18132","name":"東京ふれあい医療生活協同組合オレンジほっとクリニック","categoryId":"medical","categoryLabel":"医疗","lat":35.751303,"lng":139.748117,"stationId":"station-003246","note":"老年内科　内科","count":1,"level":"detail"},{"id":"medical-3-18186","name":"東京歯科クリニック","categoryId":"medical","categoryLabel":"医疗","lat":35.76467,"lng":139.735156,"stationId":"station-003207","note":"歯科","count":1,"level":"detail"},{"id":"medical-2-18269","name":"東京都北区保健所","categoryId":"medical","categoryLabel":"医疗","lat":35.763049,"lng":139.73058,"stationId":"station-003210","note":"内科　小児科　小児歯科","count":1,"level":"detail"},{"id":"medical-2-18337","name":"東十条整形外科","categoryId":"medical","categoryLabel":"医疗","lat":35.765548,"lng":139.731805,"stationId":"station-003207","note":"整形外科　リハビリテーション科","count":1,"level":"detail"},{"id":"medical-3-18336","name":"東十条歯科医院","categoryId":"medical","categoryLabel":"医疗","lat":35.766907,"lng":139.731185,"stationId":"station-003207","note":"歯科","count":1,"level":"detail"},{"id":"medical-2-14822","name":"松田医院","categoryId":"medical","categoryLabel":"医疗","lat":35.754292,"lng":139.732479,"stationId":"station-003236","note":"内科　小児科　外科　皮膚科　リハビリテーション科","count":1,"level":"detail"},{"id":"medical-3-13159","name":"根岸歯科医院","categoryId":"medical","categoryLabel":"医疗","lat":35.753314,"lng":139.736697,"stationId":"station-003236","note":"歯科","count":1,"level":"detail"},{"id":"medical-2-12325","name":"桑畑医院","categoryId":"medical","categoryLabel":"医疗","lat":35.757601,"lng":139.742609,"stationId":"station-003236","note":"小児科　アレルギー科　皮膚科　内科","count":1,"level":"detail"},{"id":"medical-3-15321","name":"森川歯科医院","categoryId":"medical","categoryLabel":"医疗","lat":35.755737,"lng":139.740953,"stationId":"station-003236","note":"歯科　小児歯科　歯科口腔外科","count":1,"level":"detail"},{"id":"medical-3-12437","name":"権現坂歯科医院","categoryId":"medical","categoryLabel":"医疗","lat":35.753911,"lng":139.735419,"stationId":"station-003236","note":"歯科","count":1,"level":"detail"},{"id":"medical-3-12016","name":"橋本歯科","categoryId":"medical","categoryLabel":"医疗","lat":35.75137,"lng":139.751192,"stationId":"station-003252","note":"歯科","count":1,"level":"detail"},{"id":"medical-2-19584","name":"武内整形外科医院","categoryId":"medical","categoryLabel":"医疗","lat":35.766649,"lng":139.730578,"stationId":"station-003210","note":"整形外科","count":1,"level":"detail"},{"id":"medical-3-13868","name":"歯科＆矯正歯科王子・かおりクリニック","categoryId":"medical","categoryLabel":"医疗","lat":35.756186,"lng":139.737624,"stationId":"station-003236","note":"歯科　矯正歯科　小児歯科　歯科口腔外科","count":1,"level":"detail"},{"id":"medical-3-17132","name":"沢辺歯科クリニック","categoryId":"medical","categoryLabel":"医疗","lat":35.763859,"lng":139.730188,"stationId":"station-003210","note":"歯科　小児歯科　歯科口腔外科","count":1,"level":"detail"},{"id":"medical-2-17906","name":"渡辺医院","categoryId":"medical","categoryLabel":"医疗","lat":35.757806,"lng":139.745013,"stationId":"station-003246","note":"内科　循環器内科","count":1,"level":"detail"},{"id":"medical-2-17897","name":"渡部内科","categoryId":"medical","categoryLabel":"医疗","lat":35.771293,"lng":139.763275,"stationId":"station-003171","note":"内科","count":1,"level":"detail"},{"id":"medical-2-18556","name":"特別養護老人ホーム　ハピネスあだち内診療所","categoryId":"medical","categoryLabel":"医疗","lat":35.774235,"lng":139.763082,"stationId":"station-003171","note":"内科","count":1,"level":"detail"},{"id":"medical-2-18627","name":"特別養護老人ホーム王子光照苑医務室","categoryId":"medical","categoryLabel":"医疗","lat":35.760399,"lng":139.733056,"stationId":"station-003207","note":"内科","count":1,"level":"detail"},{"id":"medical-1-18528","name":"特定医療法人社団　潤恵会　敬仁病院","categoryId":"medical","categoryLabel":"医疗","lat":35.773202,"lng":139.742768,"stationId":"station-003153","note":"内科　胃腸内科　循環器内科　呼吸器内科　糖尿病内科　腎臓内科　人工透析内科　外科　整形外科　肛門外科　眼科　耳鼻いんこう科　皮膚科　リハビリ科　泌尿器科　麻酔科","count":1,"level":"detail"},{"id":"medical-2-18690","name":"独立行政法人国立印刷局王子工場診療所","categoryId":"medical","categoryLabel":"医疗","lat":35.754252,"lng":139.739227,"stationId":"station-003236","note":"内科　歯科","count":1,"level":"detail"},{"id":"medical-2-10976","name":"王クリニック","categoryId":"medical","categoryLabel":"医疗","lat":35.768176,"lng":139.7494,"stationId":"station-003207","note":"内科　皮膚科","count":1,"level":"detail"},{"id":"medical-2-10977","name":"王子こうもん胃腸クリニック","categoryId":"medical","categoryLabel":"医疗","lat":35.753163,"lng":139.7373,"stationId":"station-003239","note":"肛門外科　消化器内科","count":1,"level":"detail"},{"id":"medical-2-10978","name":"王子こころのクリニック","categoryId":"medical","categoryLabel":"医疗","lat":35.753769,"lng":139.739032,"stationId":"station-003236","note":"心療内科　老年心療内科　精神科","count":1,"level":"detail"},{"id":"medical-3-10980","name":"王子の森ちのデンタルクリニック","categoryId":"medical","categoryLabel":"医疗","lat":35.752907,"lng":139.730375,"stationId":"station-003236","note":"歯科　小児歯科　矯正歯科　歯科口腔外科","count":1,"level":"detail"},{"id":"medical-3-10979","name":"王子シルバー歯科","categoryId":"medical","categoryLabel":"医疗","lat":35.753137,"lng":139.731371,"stationId":"station-003236","note":"歯科","count":1,"level":"detail"},{"id":"medical-2-10983","name":"王子三丁目クリニック","categoryId":"medical","categoryLabel":"医疗","lat":35.760159,"lng":139.73733,"stationId":"station-003207","note":"内科","count":1,"level":"detail"},{"id":"medical-2-10991","name":"王子北口内科クリニック","categoryId":"medical","categoryLabel":"医疗","lat":35.754138,"lng":139.735271,"stationId":"station-003236","note":"内科","count":1,"level":"detail"},{"id":"medical-2-10987","name":"王子小泉医院","categoryId":"medical","categoryLabel":"医疗","lat":35.755616,"lng":139.737555,"stationId":"station-003236","note":"内科　消化器科　小児科　皮膚科　放射線科　アレルギー科　泌尿器科","count":1,"level":"detail"},{"id":"medical-3-10992","name":"王子本町歯科クリニック","categoryId":"medical","categoryLabel":"医疗","lat":35.752923,"lng":139.732119,"stationId":"station-003236","note":"歯科　小児歯科　矯正歯科","count":1,"level":"detail"},{"id":"medical-2-10984","name":"王子歯科クリニック・美容外科","categoryId":"medical","categoryLabel":"医疗","lat":35.75773,"lng":139.737716,"stationId":"station-003236","note":"美容外科　歯科　矯正歯科　小児歯科　歯科口腔外科","count":1,"level":"detail"},{"id":"medical-3-10985","name":"王子歯科クリニック駅前治療室","categoryId":"medical","categoryLabel":"医疗","lat":35.753749,"lng":139.738192,"stationId":"station-003236","note":"歯科　歯科口腔外科　矯正歯科　小児歯科","count":1,"level":"detail"},{"id":"medical-1-10990","name":"王子生協病院","categoryId":"medical","categoryLabel":"医疗","lat":35.76027,"lng":139.743916,"stationId":"station-003236","note":"内科　呼吸器内科　消化器内科　循環器内科　老年内科　緩和ケア内科　腎臓内科　小児科　心療内科　神経内科　外科　整形外科　皮膚科　泌尿器科　肛門科　リハビリ科","count":1,"level":"detail"},{"id":"medical-3-10988","name":"王子神谷おおぞら歯科","categoryId":"medical","categoryLabel":"医疗","lat":35.766053,"lng":139.735852,"stationId":"station-003207","note":"歯科　小児歯科　歯科口腔外科　矯正歯科","count":1,"level":"detail"},{"id":"medical-3-10989","name":"王子神谷歯科クリニック","categoryId":"medical","categoryLabel":"医疗","lat":35.76555,"lng":139.737785,"stationId":"station-003207","note":"歯科　矯正歯科　小児歯科","count":1,"level":"detail"},{"id":"medical-2-10986","name":"王子耳鼻咽喉科医院","categoryId":"medical","categoryLabel":"医疗","lat":35.755139,"lng":139.739922,"stationId":"station-003236","note":"耳鼻咽喉科","count":1,"level":"detail"},{"id":"medical-2-10981","name":"王子駅前メンタルクリニック","categoryId":"medical","categoryLabel":"医疗","lat":35.753847,"lng":139.736419,"stationId":"station-003236","note":"心療内科　精神科","count":1,"level":"detail"},{"id":"medical-2-10982","name":"王子駅前眼科","categoryId":"medical","categoryLabel":"医疗","lat":35.753749,"lng":139.738192,"stationId":"station-003236","note":"眼科","count":1,"level":"detail"},{"id":"medical-2-15774","name":"生協北診療所","categoryId":"medical","categoryLabel":"医疗","lat":35.763587,"lng":139.73068,"stationId":"station-003210","note":"内科　整形外科　皮膚科　人工透析内科","count":1,"level":"detail"},{"id":"medical-3-15772","name":"生協王子歯科","categoryId":"medical","categoryLabel":"医疗","lat":35.760765,"lng":139.746022,"stationId":"station-003207","note":"歯科　小児歯科","count":1,"level":"detail"},{"id":"medical-3-20342","name":"矢ヶ崎歯科医院","categoryId":"medical","categoryLabel":"医疗","lat":35.752362,"lng":139.747833,"stationId":"station-003246","note":"歯科","count":1,"level":"detail"},{"id":"medical-2-20356","name":"矢追医院","categoryId":"medical","categoryLabel":"医疗","lat":35.769991,"lng":139.763078,"stationId":"station-003196","note":"婦人科　皮膚科　美容皮膚科　女性性感染症内科　女性泌尿器科","count":1,"level":"detail"},{"id":"medical-2-16161","name":"石川内科クリニック","categoryId":"medical","categoryLabel":"医疗","lat":35.769809,"lng":139.747281,"stationId":"station-003207","note":"内科　消化器内科　呼吸器内科　循環器内科　糖尿病内科　アレルギー科","count":1,"level":"detail"},{"id":"medical-2-16162","name":"石川内科医院","categoryId":"medical","categoryLabel":"医疗","lat":35.767104,"lng":139.731889,"stationId":"station-003207","note":"内科","count":1,"level":"detail"},{"id":"medical-2-14073","name":"社会医療法人関愛会北区王子クリニック","categoryId":"medical","categoryLabel":"医疗","lat":35.758094,"lng":139.736745,"stationId":"station-003236","note":"内科　循環器内科","count":1,"level":"detail"},{"id":"medical-1-14125","name":"社会福祉法人　新栄会　滝野川病院","categoryId":"medical","categoryLabel":"医疗","lat":35.750497,"lng":139.731272,"stationId":"station-003276","note":"内科　整形外科　耳鼻いんこう科　皮膚科　リハビリ科","count":1,"level":"detail"},{"id":"medical-2-15399","name":"神谷橋眼科医院","categoryId":"medical","categoryLabel":"医疗","lat":35.767104,"lng":139.731889,"stationId":"station-003207","note":"眼科","count":1,"level":"detail"},{"id":"medical-2-17297","name":"竹内医院","categoryId":"medical","categoryLabel":"医疗","lat":35.76007,"lng":139.745414,"stationId":"station-003236","note":"内科　消化器内科　呼吸器内科　循環器内科　皮膚科","count":1,"level":"detail"},{"id":"medical-3-17303","name":"竹内歯科医院","categoryId":"medical","categoryLabel":"医疗","lat":35.76007,"lng":139.745414,"stationId":"station-003236","note":"歯科　小児歯科　矯正歯科","count":1,"level":"detail"},{"id":"medical-3-18471","name":"藤川歯科医院","categoryId":"medical","categoryLabel":"医疗","lat":35.752925,"lng":139.735489,"stationId":"station-003236","note":"歯科","count":1,"level":"detail"},{"id":"medical-3-19843","name":"豊島歯科医院","categoryId":"medical","categoryLabel":"医疗","lat":35.752355,"lng":139.749197,"stationId":"station-003246","note":"歯科　歯科口腔外科　小児歯科　矯正歯科","count":1,"level":"detail"},{"id":"medical-2-16240","name":"赤松眼科医院","categoryId":"medical","categoryLabel":"医疗","lat":35.758091,"lng":139.742275,"stationId":"station-003236","note":"眼科","count":1,"level":"detail"},{"id":"medical-2-14208","name":"車庫前こころのクリニック","categoryId":"medical","categoryLabel":"医疗","lat":35.750011,"lng":139.751492,"stationId":"station-003252","note":"精神科　心療内科","count":1,"level":"detail"},{"id":"medical-3-12085","name":"近藤歯科","categoryId":"medical","categoryLabel":"医疗","lat":35.750174,"lng":139.756396,"stationId":"station-003254","note":"歯科","count":1,"level":"detail"},{"id":"medical-3-15464","name":"進藤歯科医院","categoryId":"medical","categoryLabel":"医疗","lat":35.765987,"lng":139.731604,"stationId":"station-003207","note":"歯科　小児歯科","count":1,"level":"detail"},{"id":"medical-3-20463","name":"遊園前歯科クリニック","categoryId":"medical","categoryLabel":"医疗","lat":35.751057,"lng":139.757948,"stationId":"station-003254","note":"歯科　矯正歯科　小児歯科　歯科口腔外科","count":1,"level":"detail"},{"id":"medical-2-20462","name":"遊園前眼科クリニック","categoryId":"medical","categoryLabel":"医疗","lat":35.750594,"lng":139.756022,"stationId":"station-003254","note":"眼科","count":1,"level":"detail"},{"id":"medical-3-20318","name":"野田歯科医院","categoryId":"medical","categoryLabel":"医疗","lat":35.766095,"lng":139.740223,"stationId":"station-003207","note":"歯科　矯正歯科","count":1,"level":"detail"},{"id":"medical-3-12123","name":"金子歯科医院","categoryId":"medical","categoryLabel":"医疗","lat":35.75081,"lng":139.760552,"stationId":"station-003255","note":"歯科　小児歯科　歯科口腔外科","count":1,"level":"detail"},{"id":"medical-2-17582","name":"長岡クリニック","categoryId":"medical","categoryLabel":"医疗","lat":35.754543,"lng":139.736941,"stationId":"station-003236","note":"胃腸科　内科　肛門科　皮膚科","count":1,"level":"detail"},{"id":"medical-3-16003","name":"青山歯科医院","categoryId":"medical","categoryLabel":"医疗","lat":35.751478,"lng":139.74946,"stationId":"station-003246","note":"歯科　小児歯科　矯正歯科","count":1,"level":"detail"},{"id":"medical-3-16031","name":"青木歯科医院","categoryId":"medical","categoryLabel":"医疗","lat":35.770857,"lng":139.764285,"stationId":"station-003171","note":"歯科","count":1,"level":"detail"},{"id":"medical-2-12919","name":"高橋医院","categoryId":"medical","categoryLabel":"医疗","lat":35.766023,"lng":139.736264,"stationId":"station-003207","note":"内科　小児科　放射線科","count":1,"level":"detail"},{"id":"medical-3-20852","name":"髙木歯科医院","categoryId":"medical","categoryLabel":"医疗","lat":35.763269,"lng":139.730428,"stationId":"station-003210","note":"歯科","count":1,"level":"detail"},{"id":"medical-3-20835","name":"髙橋歯科医院","categoryId":"medical","categoryLabel":"医疗","lat":35.758934,"lng":139.738016,"stationId":"station-003236","note":"歯科","count":1,"level":"detail"},{"id":"medical-2-14011","name":"鹿浜診療所","categoryId":"medical","categoryLabel":"医疗","lat":35.772966,"lng":139.741397,"stationId":"station-003153","note":"内科　小児科　整形外科　皮膚科","count":1,"level":"detail"},{"id":"medical-3-13109","name":"黒子歯科クリニック","categoryId":"medical","categoryLabel":"医疗","lat":35.757945,"lng":139.757469,"stationId":"station-003254","note":"歯科　矯正歯科　小児歯科","count":1,"level":"detail"},{"id":"medical-3-20795","name":"齋藤歯科医院","categoryId":"medical","categoryLabel":"医疗","lat":35.766051,"lng":139.730009,"stationId":"station-003210","note":"歯科","count":1,"level":"detail"},{"id":"medical-3-203","name":"ＩＷＳデンタルオフィス","categoryId":"medical","categoryLabel":"医疗","lat":35.756281,"lng":139.760244,"stationId":"station-003255","note":"歯科","count":1,"level":"detail"},{"id":"public-13117-21951","name":"北とぴあ","categoryId":"public_service","categoryLabel":"公共服务","lat":35.755021,"lng":139.736526,"stationId":"station-003236","note":"北区王子1-11-1","count":1,"level":"detail"},{"id":"public-13117-21986","name":"北区保健所","categoryId":"public_service","categoryLabel":"公共服务","lat":35.76311,"lng":139.730518,"stationId":"station-003210","note":"北区東十条2-7-3","count":1,"level":"detail"},{"id":"public-13117-21953","name":"北区役所","categoryId":"public_service","categoryLabel":"公共服务","lat":35.752805,"lng":139.733661,"stationId":"station-003236","note":"北区王子本町1-15-22","count":1,"level":"detail"},{"id":"public-13117-21999","name":"北区役所別館","categoryId":"public_service","categoryLabel":"公共服务","lat":35.753067,"lng":139.732884,"stationId":"station-003236","note":"北区王子本町1-11-9","count":1,"level":"detail"},{"id":"public-13117-21998","name":"北区役所滝野川分庁舎","categoryId":"public_service","categoryLabel":"公共服务","lat":35.751342,"lng":139.733243,"stationId":"station-003256","note":"北区滝野川2-52-10旧滝野川中学校","count":1,"level":"detail"},{"id":"public-13117-21990","name":"北区役所第三庁舎","categoryId":"public_service","categoryLabel":"公共服务","lat":35.752473,"lng":139.733951,"stationId":"station-003236","note":"北区王子本町1-4-14","count":1,"level":"detail"},{"id":"public-13117-21992","name":"北区役所第二庁舎","categoryId":"public_service","categoryLabel":"公共服务","lat":35.75277,"lng":139.734904,"stationId":"station-003236","note":"北区王子本町1-2-11","count":1,"level":"detail"},{"id":"public-13117-21989","name":"北区役所第五庁舎","categoryId":"public_service","categoryLabel":"公共服务","lat":35.752917,"lng":139.734581,"stationId":"station-003236","note":"北区王子本町1-16-8","count":1,"level":"detail"},{"id":"public-13117-21991","name":"北区役所第四庁舎","categoryId":"public_service","categoryLabel":"公共服务","lat":35.752131,"lng":139.733437,"stationId":"station-003256","note":"北区王子本町1-4-11","count":1,"level":"detail"},{"id":"public-13117-22001","name":"名主の滝老人いこいの家","categoryId":"public_service","categoryLabel":"公共服务","lat":35.757836,"lng":139.732434,"stationId":"station-003236","note":"北区岸町1-15-25","count":1,"level":"detail"},{"id":"public-13117-22002","name":"堀船ふれあい館","categoryId":"public_service","categoryLabel":"公共服务","lat":35.755437,"lng":139.748094,"stationId":"station-003246","note":"北区堀船3-7-12","count":1,"level":"detail"},{"id":"public-13121-22241","name":"宮城集会所","categoryId":"public_service","categoryLabel":"公共服务","lat":35.760907,"lng":139.752896,"stationId":"station-003252","note":"足立区宮城2-2","count":1,"level":"detail"},{"id":"public-13118-22040","name":"尾久ふれあい館","categoryId":"public_service","categoryLabel":"公共服务","lat":35.750208,"lng":139.763365,"stationId":"station-003255","note":"荒川区西尾久2-25-13","count":1,"level":"detail"},{"id":"public-13117-21959","name":"岸町ふれあい館","categoryId":"public_service","categoryLabel":"公共服务","lat":35.75504,"lng":139.734879,"stationId":"station-003236","note":"北区岸町1-6-17","count":1,"level":"detail"},{"id":"public-13121-22270","name":"新田住区センター","categoryId":"public_service","categoryLabel":"公共服务","lat":35.771403,"lng":139.738011,"stationId":"station-003207","note":"足立区新田2-2-2","count":1,"level":"detail"},{"id":"public-13121-22267","name":"新田区民事務所","categoryId":"public_service","categoryLabel":"公共服务","lat":35.771541,"lng":139.738233,"stationId":"station-003207","note":"足立区新田2-2-2","count":1,"level":"detail"},{"id":"public-13121-22271","name":"新田地域学習センター","categoryId":"public_service","categoryLabel":"公共服务","lat":35.771613,"lng":139.738227,"stationId":"station-003207","note":"足立区新田2-2-2","count":1,"level":"detail"},{"id":"public-13121-22248","name":"江北コミュニティセンター","categoryId":"public_service","categoryLabel":"公共服务","lat":35.767167,"lng":139.763167,"stationId":"station-003196","note":"足立区江北2-8-2","count":1,"level":"detail"},{"id":"public-13121-22266","name":"江南住区センター","categoryId":"public_service","categoryLabel":"公共服务","lat":35.758793,"lng":139.761318,"stationId":"station-003255","note":"足立区小台2-4-18","count":1,"level":"detail"},{"id":"public-13121-22265","name":"江南区民事務所","categoryId":"public_service","categoryLabel":"公共服务","lat":35.758979,"lng":139.754652,"stationId":"station-003252","note":"足立区小台2-4-18","count":1,"level":"detail"},{"id":"public-13117-21952","name":"王子区民センター","categoryId":"public_service","categoryLabel":"公共服务","lat":35.758399,"lng":139.739739,"stationId":"station-003236","note":"北区豊島1-14-12","count":1,"level":"detail"},{"id":"public-13117-21955","name":"王子区民事務所","categoryId":"public_service","categoryLabel":"公共服务","lat":35.752777,"lng":139.734945,"stationId":"station-003236","note":"北区王子本町1-2-11","count":1,"level":"detail"},{"id":"public-13117-22000","name":"王子区民事務所豊島分室","categoryId":"public_service","categoryLabel":"公共服务","lat":35.760462,"lng":139.747839,"stationId":"station-003246","note":"北区豊島3-27-22","count":1,"level":"detail"},{"id":"public-13117-21963","name":"神谷区民センター","categoryId":"public_service","categoryLabel":"公共服务","lat":35.77135,"lng":139.731037,"stationId":"station-003153","note":"北区神谷3-35-17","count":1,"level":"detail"},{"id":"public-13118-22023","name":"西尾久ふれあい館","categoryId":"public_service","categoryLabel":"公共服务","lat":35.751599,"lng":139.753358,"stationId":"station-003252","note":"荒川区西尾久8-33-31","count":1,"level":"detail"},{"id":"public-13117-21985","name":"豊島区民センター","categoryId":"public_service","categoryLabel":"公共服务","lat":35.760436,"lng":139.747926,"stationId":"station-003246","note":"北区豊島3-27-22","count":1,"level":"detail"},{"id":"public-13117-21967","name":"赤羽区民事務所神谷分室","categoryId":"public_service","categoryLabel":"公共服务","lat":35.77138,"lng":139.731087,"stationId":"station-003153","note":"北区神谷3-35-17","count":1,"level":"detail"},{"id":"public-13118-22022","name":"あらかわ遊園スポーツハウス","categoryId":"sports","categoryLabel":"体育设施","lat":35.751863,"lng":139.757055,"stationId":"station-003254","note":"荒川区西尾久8-3-1","count":1,"level":"detail"}]
