[{"id":"medical-2-536","name":"あきた内科クリニック","categoryId":"medical","categoryLabel":"医疗","lat":35.560617,"lng":139.737579,"stationId":"station-004356","note":"整形外科　リハビリテーション科","count":1,"level":"detail"},{"id":"medical-2-606","name":"あさひろ眼科クリニック","categoryId":"medical","categoryLabel":"医疗","lat":35.550941,"lng":139.730005,"stationId":"station-004349","note":"内科","count":1,"level":"detail"},{"id":"medical-3-706","name":"あめみや歯科医院","categoryId":"medical","categoryLabel":"医疗","lat":35.549487,"lng":139.74655,"stationId":"station-004364","note":"歯科　矯正歯科　小児歯科　歯科口腔外科","count":1,"level":"detail"},{"id":"medical-2-730","name":"あらい内科・脳神経クリニック","categoryId":"medical","categoryLabel":"医疗","lat":35.558051,"lng":139.738976,"stationId":"station-004356","note":"整形外科　リハビリテーション科","count":1,"level":"detail"},{"id":"medical-2-849","name":"いしい整形外科クリニック","categoryId":"medical","categoryLabel":"医疗","lat":35.557233,"lng":139.740816,"stationId":"station-004356","note":"内科　人工透析内科　消化器内科　循環器内科　腎臓内科　内分泌内科","count":1,"level":"detail"},{"id":"medical-3-893","name":"いちかわ歯科医院","categoryId":"medical","categoryLabel":"医疗","lat":35.57172,"lng":139.732819,"stationId":"station-004307","note":"歯科","count":1,"level":"detail"},{"id":"medical-3-982","name":"いわぶち歯科","categoryId":"medical","categoryLabel":"医疗","lat":35.552671,"lng":139.737924,"stationId":"station-004356","note":"歯科　小児歯科","count":1,"level":"detail"},{"id":"medical-2-1121","name":"えの本耳鼻咽喉科医院","categoryId":"medical","categoryLabel":"医疗","lat":35.553989,"lng":139.740767,"stationId":"station-004356","note":"内科　外科","count":1,"level":"detail"},{"id":"medical-2-1627","name":"きゅーちゃん診療所","categoryId":"medical","categoryLabel":"医疗","lat":35.551514,"lng":139.731265,"stationId":"station-004349","note":"内科　小児科　耳鼻咽喉科","count":1,"level":"detail"},{"id":"medical-3-2140","name":"さとう歯科医院","categoryId":"medical","categoryLabel":"医疗","lat":35.551237,"lng":139.747662,"stationId":"station-004364","note":"歯科　小児歯科　矯正歯科　歯科口腔外科","count":1,"level":"detail"},{"id":"medical-2-2626","name":"たかはし耳鼻咽喉科","categoryId":"medical","categoryLabel":"医疗","lat":35.551611,"lng":139.730476,"stationId":"station-004349","note":"整形外科　リハビリテーション科","count":1,"level":"detail"},{"id":"medical-3-2812","name":"つづき歯科医院","categoryId":"medical","categoryLabel":"医疗","lat":35.553871,"lng":139.741001,"stationId":"station-004356","note":"歯科","count":1,"level":"detail"},{"id":"medical-3-3214","name":"にしむら歯科","categoryId":"medical","categoryLabel":"医疗","lat":35.56282,"lng":139.745915,"stationId":"station-004312","note":"歯科　矯正歯科　小児歯科　歯科口腔外科","count":1,"level":"detail"},{"id":"medical-3-3377","name":"はっとり歯科医院","categoryId":"medical","categoryLabel":"医疗","lat":35.571888,"lng":139.730784,"stationId":"station-004307","note":"歯科　小児歯科　歯科口腔外科","count":1,"level":"detail"},{"id":"medical-3-3510","name":"ひだまり歯科プラスキッズ","categoryId":"medical","categoryLabel":"医疗","lat":35.569673,"lng":139.733089,"stationId":"station-004307","note":"歯科　矯正歯科　小児歯科","count":1,"level":"detail"},{"id":"medical-3-3749","name":"ふれあいファミリー歯科","categoryId":"medical","categoryLabel":"医疗","lat":35.557211,"lng":139.737422,"stationId":"station-004356","note":"歯科　矯正歯科","count":1,"level":"detail"},{"id":"medical-3-3799","name":"ほしの歯科クリニック","categoryId":"medical","categoryLabel":"医疗","lat":35.5506,"lng":139.747659,"stationId":"station-004364","note":"歯科","count":1,"level":"detail"},{"id":"medical-3-3935","name":"まつもと歯科クリニック","categoryId":"medical","categoryLabel":"医疗","lat":35.56483,"lng":139.742715,"stationId":"station-004312","note":"歯科","count":1,"level":"detail"},{"id":"medical-2-4034","name":"みたに整形外科クリニック","categoryId":"medical","categoryLabel":"医疗","lat":35.567528,"lng":139.73239,"stationId":"station-004319","note":"内科　小児科　アレルギー科　皮膚科","count":1,"level":"detail"},{"id":"medical-2-4221","name":"もぎ整形外科","categoryId":"medical","categoryLabel":"医疗","lat":35.560617,"lng":139.737579,"stationId":"station-004356","note":"内科　外科　整形外科","count":1,"level":"detail"},{"id":"medical-2-4627","name":"わかば小児科クリニック","categoryId":"medical","categoryLabel":"医疗","lat":35.569673,"lng":139.733089,"stationId":"station-004307","note":"内科　アレルギー科　形成外科　皮膚科　肛門科","count":1,"level":"detail"},{"id":"medical-3-1078","name":"エイル歯科・矯正歯科 本羽田医院","categoryId":"medical","categoryLabel":"医疗","lat":35.548764,"lng":139.731391,"stationId":"station-004349","note":"歯科　矯正歯科　小児歯科　歯科口腔外科","count":1,"level":"detail"},{"id":"medical-2-2608","name":"タカノ内科クリニック","categoryId":"medical","categoryLabel":"医疗","lat":35.552087,"lng":139.731048,"stationId":"station-004349","note":"皮膚科　老年皮膚科　アレルギー疾患皮膚科　性感染症内科　美容皮膚科　心療内科　内科　小児皮膚科　小児科","count":1,"level":"detail"},{"id":"medical-3-2938","name":"ドエル小笠原デンタルクリニック","categoryId":"medical","categoryLabel":"医疗","lat":35.558463,"lng":139.734915,"stationId":"station-004349","note":"歯科　小児歯科　矯正歯科　歯科口腔外科","count":1,"level":"detail"},{"id":"medical-3-3122","name":"ナカムラデンタルクリニック","categoryId":"medical","categoryLabel":"医疗","lat":35.562501,"lng":139.742985,"stationId":"station-004312","note":"歯科","count":1,"level":"detail"},{"id":"medical-2-3143","name":"ナグモ医院","categoryId":"medical","categoryLabel":"医疗","lat":35.553972,"lng":139.730832,"stationId":"station-004349","note":"皮膚科","count":1,"level":"detail"},{"id":"medical-2-4331","name":"ヤマト運輸羽田クロノゲート医務室","categoryId":"medical","categoryLabel":"医疗","lat":35.553235,"lng":139.750831,"stationId":"station-004348","note":"内科　小児科　胃腸科　リウマチ科","count":1,"level":"detail"},{"id":"medical-2-17326","name":"中央医院","categoryId":"medical","categoryLabel":"医疗","lat":35.559878,"lng":139.732964,"stationId":"station-004349","note":"内科　外科　整形外科　肛門科","count":1,"level":"detail"},{"id":"medical-3-17472","name":"中嶋歯科医院","categoryId":"medical","categoryLabel":"医疗","lat":35.549335,"lng":139.734618,"stationId":"station-004356","note":"歯科　歯科口腔外科　矯正歯科","count":1,"level":"detail"},{"id":"medical-3-11986","name":"京浜島歯科診療所","categoryId":"medical","categoryLabel":"医疗","lat":35.570241,"lng":139.763624,"stationId":"station-004312","note":"歯科　小児歯科　歯科口腔外科","count":1,"level":"detail"},{"id":"medical-3-4791","name":"伊藤歯科医院","categoryId":"medical","categoryLabel":"医疗","lat":35.572745,"lng":139.73735,"stationId":"station-004307","note":"歯科　矯正歯科　小児歯科","count":1,"level":"detail"},{"id":"medical-3-13196","name":"佐々木歯科医院","categoryId":"medical","categoryLabel":"医疗","lat":35.559613,"lng":139.73851,"stationId":"station-004356","note":"歯科　小児歯科","count":1,"level":"detail"},{"id":"medical-2-5440","name":"医療法人社団 港風会 大森町整形外科内科クリニック","categoryId":"medical","categoryLabel":"医疗","lat":35.572197,"lng":139.730186,"stationId":"station-004307","note":"皮膚科　アレルギー科","count":1,"level":"detail"},{"id":"medical-2-6078","name":"医療法人社団 緑山会 山田医院","categoryId":"medical","categoryLabel":"医疗","lat":35.546982,"lng":139.743097,"stationId":"station-004364","note":"内科　消化器内科　肛門外科　乳腺内科","count":1,"level":"detail"},{"id":"medical-2-5953","name":"医療法人社団 美加未会 ひかりホームクリニック","categoryId":"medical","categoryLabel":"医疗","lat":35.553055,"lng":139.734055,"stationId":"station-004349","note":"内科　小児科　循環器科　眼科","count":1,"level":"detail"},{"id":"medical-2-5484","name":"医療法人社団　三清会　羽田おおぞらクリニック","categoryId":"medical","categoryLabel":"医疗","lat":35.546646,"lng":139.750039,"stationId":"station-004364","note":"内科","count":1,"level":"detail"},{"id":"medical-1-5298","name":"医療法人社団　京浜会　京浜病院","categoryId":"medical","categoryLabel":"医疗","lat":35.564335,"lng":139.737108,"stationId":"station-004319","note":"内科　皮膚科　精神科　外科　脳神経外科　整形外科　リハビリ科","count":1,"level":"detail"},{"id":"medical-1-5299","name":"医療法人社団　京浜会　新京浜病院","categoryId":"medical","categoryLabel":"医疗","lat":35.564699,"lng":139.737,"stationId":"station-004319","note":"内科　リハビリ科","count":1,"level":"detail"},{"id":"medical-2-5383","name":"医療法人社団　原口小児科クリニック","categoryId":"medical","categoryLabel":"医疗","lat":35.563381,"lng":139.736844,"stationId":"station-004319","note":"内科　外科　眼科","count":1,"level":"detail"},{"id":"medical-2-5464","name":"医療法人社団　済生診療所","categoryId":"medical","categoryLabel":"医疗","lat":35.567533,"lng":139.732595,"stationId":"station-004319","note":"整形外科　リハビリテーション科　麻酔科","count":1,"level":"detail"},{"id":"medical-1-5878","name":"医療法人社団　渡辺病院","categoryId":"medical","categoryLabel":"医疗","lat":35.551617,"lng":139.74097,"stationId":"station-004356","note":"内科　小児科　外科　整形外科　乳腺外科　泌尿器科　リハビリ科","count":1,"level":"detail"},{"id":"medical-2-6001","name":"医療法人社団　満穂会　前村医院","categoryId":"medical","categoryLabel":"医疗","lat":35.566788,"lng":139.733052,"stationId":"station-004319","note":"産婦人科　麻酔科","count":1,"level":"detail"},{"id":"medical-2-6119","name":"医療法人社団　髙愛会　大鳥居医院","categoryId":"medical","categoryLabel":"医疗","lat":35.555754,"lng":139.738566,"stationId":"station-004356","note":"産科　婦人科　麻酔科","count":1,"level":"detail"},{"id":"medical-3-6980","name":"医療法人社団一樹会　くろいわ歯科医院","categoryId":"medical","categoryLabel":"医疗","lat":35.552085,"lng":139.739823,"stationId":"station-004356","note":"歯科　矯正歯科　歯科口腔外科","count":1,"level":"detail"},{"id":"medical-2-8573","name":"医療法人社団信愛会　鎌田医院","categoryId":"medical","categoryLabel":"医疗","lat":35.555567,"lng":139.739654,"stationId":"station-004356","note":"小児科　皮膚科　眼科","count":1,"level":"detail"},{"id":"medical-2-7736","name":"医療法人社団幸栄会 幸和診療所","categoryId":"medical","categoryLabel":"医疗","lat":35.551002,"lng":139.73436,"stationId":"station-004356","note":"眼科","count":1,"level":"detail"},{"id":"medical-3-7828","name":"医療法人社団弘心会　おおわだ歯科","categoryId":"medical","categoryLabel":"医疗","lat":35.567265,"lng":139.732347,"stationId":"station-004319","note":"歯科","count":1,"level":"detail"},{"id":"medical-3-8112","name":"医療法人社団志友会 くすのき歯科医院","categoryId":"medical","categoryLabel":"医疗","lat":35.553986,"lng":139.730048,"stationId":"station-004349","note":"歯科　小児歯科　歯科口腔外科　矯正歯科","count":1,"level":"detail"},{"id":"medical-2-8196","name":"医療法人社団慈豊会　アイメディカルクリニック","categoryId":"medical","categoryLabel":"医疗","lat":35.567027,"lng":139.735754,"stationId":"station-004319","note":"眼科","count":1,"level":"detail"},{"id":"medical-2-8870","name":"医療法人社団晴空会つばさクリニック","categoryId":"medical","categoryLabel":"医疗","lat":35.548654,"lng":139.746431,"stationId":"station-004364","note":"内科　漢方内科　小児科　皮膚科","count":1,"level":"detail"},{"id":"medical-2-9532","name":"医療法人社団東京千羽会 羽田腎クリニック","categoryId":"medical","categoryLabel":"医疗","lat":35.557279,"lng":139.740373,"stationId":"station-004356","note":"内科　小児科","count":1,"level":"detail"},{"id":"medical-2-9318","name":"医療法人社団泰静会　大西医院","categoryId":"medical","categoryLabel":"医疗","lat":35.569057,"lng":139.731727,"stationId":"station-004307","note":"内科　小児科　心療内科　精神科　神経内科　呼吸器科　胃腸科　循環器科　外科　整形外科　皮膚科　泌尿器科　肛門科　婦人科　眼科　耳鼻咽喉科","count":1,"level":"detail"},{"id":"medical-2-8938","name":"医療法人社団清信会　浜畑眼科医院","categoryId":"medical","categoryLabel":"医疗","lat":35.567027,"lng":139.735754,"stationId":"station-004319","note":"産婦人科　麻酔科","count":1,"level":"detail"},{"id":"medical-2-10057","name":"医療法人社団癒合会AI和合クリニック","categoryId":"medical","categoryLabel":"医疗","lat":35.554499,"lng":139.741291,"stationId":"station-004356","note":"小児科　耳鼻咽喉科","count":1,"level":"detail"},{"id":"medical-3-17062","name":"大木歯科医院","categoryId":"medical","categoryLabel":"医疗","lat":35.567697,"lng":139.734618,"stationId":"station-004307","note":"歯科　矯正歯科　小児歯科　歯科口腔外科","count":1,"level":"detail"},{"id":"medical-3-16906","name":"大森東歯科クリニック","categoryId":"medical","categoryLabel":"医疗","lat":35.568222,"lng":139.740854,"stationId":"station-004312","note":"歯科　小児歯科　歯科口腔外科","count":1,"level":"detail"},{"id":"medical-2-16905","name":"大森町皮ふ科","categoryId":"medical","categoryLabel":"医疗","lat":35.572483,"lng":139.731681,"stationId":"station-004307","note":"眼科","count":1,"level":"detail"},{"id":"medical-2-16904","name":"大森町眼科クリニック","categoryId":"medical","categoryLabel":"医疗","lat":35.572483,"lng":139.731681,"stationId":"station-004307","note":"内科　小児科　アレルギー科　循環器内科　糖尿病内科　呼吸器内科　皮膚科　泌尿器科","count":1,"level":"detail"},{"id":"medical-2-16903","name":"大森町駅前内科小児科クリニック","categoryId":"medical","categoryLabel":"医疗","lat":35.572394,"lng":139.731597,"stationId":"station-004307","note":"耳鼻咽喉科　気管食道　耳鼻咽喉科　小児　内科　小児科","count":1,"level":"detail"},{"id":"medical-3-16902","name":"大森町駅前歯科","categoryId":"medical","categoryLabel":"医疗","lat":35.57282,"lng":139.731984,"stationId":"station-004307","note":"歯科　小児歯科　矯正歯科　歯科口腔外科","count":1,"level":"detail"},{"id":"medical-2-17017","name":"大田区保健所糀谷・羽田地域健康課","categoryId":"medical","categoryLabel":"医疗","lat":35.55765,"lng":139.739682,"stationId":"station-004356","note":"内科　皮膚科　整形外科　歯科","count":1,"level":"detail"},{"id":"medical-3-17022","name":"大田区立特別養護老人ホーム糀谷歯科","categoryId":"medical","categoryLabel":"医疗","lat":35.559281,"lng":139.737262,"stationId":"station-004356","note":"歯科","count":1,"level":"detail"},{"id":"medical-2-17023","name":"大田区立特別養護老人ホーム糀谷診療室","categoryId":"medical","categoryLabel":"医疗","lat":35.559281,"lng":139.737262,"stationId":"station-004356","note":"内科　整形外科　皮膚科","count":1,"level":"detail"},{"id":"medical-3-17025","name":"大田歯科","categoryId":"medical","categoryLabel":"医疗","lat":35.568505,"lng":139.737722,"stationId":"station-004307","note":"歯科　矯正歯科　小児歯科　歯科口腔外科","count":1,"level":"detail"},{"id":"medical-1-17028","name":"大田病院","categoryId":"medical","categoryLabel":"医疗","lat":35.569085,"lng":139.737983,"stationId":"station-004307","note":"内科　呼吸器科　胃腸科　循環器科　小児科　精神科　神経内科　外科　整形外科　婦人科　眼科　耳鼻いんこう科　皮膚科　泌尿器科　肛門科　リハビリ科　麻酔科","count":1,"level":"detail"},{"id":"medical-2-17030","name":"大田病院附属　大森中診療所","categoryId":"medical","categoryLabel":"医疗","lat":35.568704,"lng":139.735217,"stationId":"station-004307","note":"内科　小児科　外科　整形外科　リハビリテーション科","count":1,"level":"detail"},{"id":"medical-2-17083","name":"大矢医院","categoryId":"medical","categoryLabel":"医疗","lat":35.572799,"lng":139.735491,"stationId":"station-004307","note":"内科　消化器内科　外科","count":1,"level":"detail"},{"id":"medical-2-11898","name":"宮下クリニック小児科・皮膚科","categoryId":"medical","categoryLabel":"医疗","lat":35.563237,"lng":139.730619,"stationId":"station-004319","note":"内科　小児科","count":1,"level":"detail"},{"id":"medical-3-19470","name":"富山歯科クリニック","categoryId":"medical","categoryLabel":"医疗","lat":35.561712,"lng":139.736892,"stationId":"station-004319","note":"歯科　小児歯科　歯科口腔外科","count":1,"level":"detail"},{"id":"medical-3-14695","name":"小林歯科医院","categoryId":"medical","categoryLabel":"医疗","lat":35.555367,"lng":139.735594,"stationId":"station-004356","note":"歯科　小児歯科　矯正歯科","count":1,"level":"detail"},{"id":"medical-2-19306","name":"尾野メディカルクリニック","categoryId":"medical","categoryLabel":"医疗","lat":35.548809,"lng":139.743546,"stationId":"station-004364","note":"内科　消化器内科　外科　皮膚科","count":1,"level":"detail"},{"id":"medical-3-13702","name":"山田歯科医院","categoryId":"medical","categoryLabel":"医疗","lat":35.551377,"lng":139.741161,"stationId":"station-004356","note":"歯科　小児歯科","count":1,"level":"detail"},{"id":"medical-2-13765","name":"山縣医院","categoryId":"medical","categoryLabel":"医疗","lat":35.551141,"lng":139.741409,"stationId":"station-004356","note":"内科　小児科　消化器科","count":1,"level":"detail"},{"id":"medical-3-11608","name":"岩田歯科医院","categoryId":"medical","categoryLabel":"医疗","lat":35.55696,"lng":139.738379,"stationId":"station-004356","note":"歯科　小児歯科","count":1,"level":"detail"},{"id":"medical-3-16392","name":"川又歯科クリニック","categoryId":"medical","categoryLabel":"医疗","lat":35.553537,"lng":139.741899,"stationId":"station-004356","note":"歯科　小児歯科　歯科口腔外科　矯正歯科","count":1,"level":"detail"},{"id":"medical-3-16398","name":"川名部歯科医院","categoryId":"medical","categoryLabel":"医疗","lat":35.55456,"lng":139.730721,"stationId":"station-004349","note":"歯科　小児歯科","count":1,"level":"detail"},{"id":"medical-2-20762","name":"廣川医院","categoryId":"medical","categoryLabel":"医疗","lat":35.556059,"lng":139.736022,"stationId":"station-004356","note":"産科　婦人科　麻酔科","count":1,"level":"detail"},{"id":"medical-3-19768","name":"弁天橋歯科医院","categoryId":"medical","categoryLabel":"医疗","lat":35.547972,"lng":139.748532,"stationId":"station-004364","note":"歯科　矯正歯科　小児歯科　歯科口腔外科","count":1,"level":"detail"},{"id":"medical-3-20441","name":"有福歯科医院","categoryId":"medical","categoryLabel":"医疗","lat":35.554739,"lng":139.734016,"stationId":"station-004349","note":"歯科　小児歯科　歯科口腔外科　矯正歯科","count":1,"level":"detail"},{"id":"medical-3-20184","name":"木嶋歯科","categoryId":"medical","categoryLabel":"医疗","lat":35.553209,"lng":139.739822,"stationId":"station-004356","note":"歯科　小児歯科","count":1,"level":"detail"},{"id":"medical-3-18122","name":"東京プラス歯科 矯正歯科 西糀谷","categoryId":"medical","categoryLabel":"医疗","lat":35.557487,"lng":139.730163,"stationId":"station-004349","note":"歯科","count":1,"level":"detail"},{"id":"medical-2-18232","name":"東京都京浜島工業団地協同組合連合会診療所","categoryId":"medical","categoryLabel":"医疗","lat":35.570241,"lng":139.763624,"stationId":"station-004312","note":"内科　外科　整形外科　精神科","count":1,"level":"detail"},{"id":"medical-3-18048","name":"東海林歯科診療室","categoryId":"medical","categoryLabel":"医疗","lat":35.5722,"lng":139.730375,"stationId":"station-004307","note":"歯科　小児歯科　矯正歯科　歯科口腔外科","count":1,"level":"detail"},{"id":"medical-3-15282","name":"森ヶ崎歯科診療所","categoryId":"medical","categoryLabel":"医疗","lat":35.563422,"lng":139.742188,"stationId":"station-004312","note":"歯科　小児歯科","count":1,"level":"detail"},{"id":"medical-2-10959","name":"横川医院","categoryId":"medical","categoryLabel":"医疗","lat":35.556002,"lng":139.730286,"stationId":"station-004349","note":"小児科　アレルギー科","count":1,"level":"detail"},{"id":"medical-2-17261","name":"池田耳鼻咽喉科医院","categoryId":"medical","categoryLabel":"医疗","lat":35.57282,"lng":139.731984,"stationId":"station-004307","note":"内科　胃腸内科　漢方内科","count":1,"level":"detail"},{"id":"medical-3-19445","name":"浜田歯科医院","categoryId":"medical","categoryLabel":"医疗","lat":35.551611,"lng":139.730476,"stationId":"station-004349","note":"歯科　小児歯科　歯科口腔外科","count":1,"level":"detail"},{"id":"medical-3-19446","name":"浜田歯科医院","categoryId":"medical","categoryLabel":"医疗","lat":35.556684,"lng":139.730314,"stationId":"station-004349","note":"歯科　矯正歯科　小児歯科　歯科口腔外科","count":1,"level":"detail"},{"id":"medical-2-17909","name":"渡辺医院","categoryId":"medical","categoryLabel":"医疗","lat":35.558526,"lng":139.73825,"stationId":"station-004356","note":"内科　消化器科","count":1,"level":"detail"},{"id":"medical-2-18555","name":"特別養護老人ホーム バタフライ ヒル大森南診療室","categoryId":"medical","categoryLabel":"医疗","lat":35.563462,"lng":139.739338,"stationId":"station-004319","note":"耳鼻咽喉科","count":1,"level":"detail"},{"id":"medical-2-18581","name":"特別養護老人ホーム 千里","categoryId":"medical","categoryLabel":"医疗","lat":35.559029,"lng":139.739243,"stationId":"station-004356","note":"内科　脳神経内科　循環器内科","count":1,"level":"detail"},{"id":"medical-2-18617","name":"特別養護老人ホームフロース東糀谷診療室","categoryId":"medical","categoryLabel":"医疗","lat":35.559095,"lng":139.751071,"stationId":"station-004348","note":"内科　外科","count":1,"level":"detail"},{"id":"medical-2-18644","name":"特別養護老人ホーム生寿園","categoryId":"medical","categoryLabel":"医疗","lat":35.552435,"lng":139.731882,"stationId":"station-004349","note":"内科　呼吸器科　消化器科　循環器科　アレルギー科　リハビリテーション科","count":1,"level":"detail"},{"id":"medical-2-18626","name":"特別養護老人ホーム羽田","categoryId":"medical","categoryLabel":"医疗","lat":35.545863,"lng":139.736089,"stationId":"station-004356","note":"内科　眼科　耳鼻咽喉科　精神科","count":1,"level":"detail"},{"id":"medical-1-18687","name":"独立行政法人　労働者健康安全機構　東京労災病院","categoryId":"medical","categoryLabel":"医疗","lat":35.565423,"lng":139.747128,"stationId":"station-004312","note":"内科　循環器科　小児科　精神科　脳神経内科　外科　整形外科　形成外科　脳神経外科　産婦人科　眼科　耳鼻いんこう科　皮膚科　泌尿器科　リハビリ科　麻酔科　病理診断科　放射線診断科　放射線治療科","count":1,"level":"detail"},{"id":"medical-3-12401","name":"穴守稲荷歯科","categoryId":"medical","categoryLabel":"医疗","lat":35.548529,"lng":139.746597,"stationId":"station-004364","note":"歯科　矯正歯科　小児歯科　歯科口腔外科","count":1,"level":"detail"},{"id":"medical-2-12402","name":"穴守診療所","categoryId":"medical","categoryLabel":"医疗","lat":35.550311,"lng":139.749197,"stationId":"station-004364","note":"整形外科　形成外科　皮膚科　リハビリテーション科","count":1,"level":"detail"},{"id":"medical-3-11365","name":"笠井歯科医院","categoryId":"medical","categoryLabel":"医疗","lat":35.557813,"lng":139.742629,"stationId":"station-004356","note":"歯科","count":1,"level":"detail"},{"id":"medical-3-13388","name":"笹原歯科医院","categoryId":"medical","categoryLabel":"医疗","lat":35.550289,"lng":139.748796,"stationId":"station-004364","note":"歯科","count":1,"level":"detail"},{"id":"medical-2-20798","name":"糀谷クリニック","categoryId":"medical","categoryLabel":"医疗","lat":35.555403,"lng":139.739935,"stationId":"station-004356","note":"内科","count":1,"level":"detail"},{"id":"medical-3-20799","name":"糀谷伊藤歯科","categoryId":"medical","categoryLabel":"医疗","lat":35.555061,"lng":139.730357,"stationId":"station-004349","note":"歯科　小児歯科　矯正歯科　歯科口腔外科","count":1,"level":"detail"},{"id":"medical-2-20800","name":"糀谷医院","categoryId":"medical","categoryLabel":"医疗","lat":35.555541,"lng":139.740011,"stationId":"station-004356","note":"内科　小児科　眼科","count":1,"level":"detail"},{"id":"medical-2-20802","name":"糀谷皮膚科","categoryId":"medical","categoryLabel":"医疗","lat":35.55456,"lng":139.730721,"stationId":"station-004349","note":"小児科　内科　小児皮膚科　皮膚科アレルギー科","count":1,"level":"detail"},{"id":"medical-2-10794","name":"羽田とうまクリニック","categoryId":"medical","categoryLabel":"医疗","lat":35.552958,"lng":139.730807,"stationId":"station-004349","note":"内科　整形外科","count":1,"level":"detail"},{"id":"medical-3-10793","name":"羽田エイル歯科・矯正歯科","categoryId":"medical","categoryLabel":"医疗","lat":35.552396,"lng":139.742358,"stationId":"station-004356","note":"歯科　矯正歯科　小児歯科","count":1,"level":"detail"},{"id":"medical-2-10795","name":"羽田バス通りクリニック","categoryId":"medical","categoryLabel":"医疗","lat":35.548269,"lng":139.746282,"stationId":"station-004364","note":"内科","count":1,"level":"detail"},{"id":"medical-3-10796","name":"羽田医院歯科","categoryId":"medical","categoryLabel":"医疗","lat":35.548786,"lng":139.743763,"stationId":"station-004364","note":"歯科　矯正歯科　小児歯科　歯科口腔外科","count":1,"level":"detail"},{"id":"medical-2-10799","name":"羽田整形・形成外科","categoryId":"medical","categoryLabel":"医疗","lat":35.547061,"lng":139.747563,"stationId":"station-004364","note":"内科","count":1,"level":"detail"},{"id":"medical-3-19027","name":"萩中パークサイド歯科","categoryId":"medical","categoryLabel":"医疗","lat":35.550946,"lng":139.73288,"stationId":"station-004349","note":"歯科　小児歯科　歯科口腔外科","count":1,"level":"detail"},{"id":"medical-2-4686","name":"葵眼科","categoryId":"medical","categoryLabel":"医疗","lat":35.552118,"lng":139.739454,"stationId":"station-004356","note":"内科　精神科","count":1,"level":"detail"},{"id":"medical-2-18486","name":"藤田耳鼻咽喉科","categoryId":"medical","categoryLabel":"医疗","lat":35.562914,"lng":139.745125,"stationId":"station-004312","note":"皮膚科","count":1,"level":"detail"},{"id":"medical-2-13315","name":"財団法人 航空医学研究センター診療所","categoryId":"medical","categoryLabel":"医疗","lat":35.553663,"lng":139.753616,"stationId":"station-004348","note":"内科","count":1,"level":"detail"},{"id":"medical-2-20818","name":"趙メディカルクリニック","categoryId":"medical","categoryLabel":"医疗","lat":35.571621,"lng":139.735937,"stationId":"station-004307","note":"内科","count":1,"level":"detail"},{"id":"medical-3-16635","name":"足立歯科医院","categoryId":"medical","categoryLabel":"医疗","lat":35.563738,"lng":139.7427,"stationId":"station-004312","note":"歯科　小児歯科　矯正歯科　歯科口腔外科","count":1,"level":"detail"},{"id":"medical-3-11312","name":"開発歯科","categoryId":"medical","categoryLabel":"医疗","lat":35.555028,"lng":139.738221,"stationId":"station-004356","note":"歯科　小児歯科","count":1,"level":"detail"},{"id":"medical-3-12909","name":"高岡歯科医院","categoryId":"medical","categoryLabel":"医疗","lat":35.550941,"lng":139.730005,"stationId":"station-004349","note":"歯科　矯正歯科　小児歯科　歯科口腔外科","count":1,"level":"detail"},{"id":"medical-1-13042","name":"高野病院","categoryId":"medical","categoryLabel":"医疗","lat":35.552759,"lng":139.740803,"stationId":"station-004356","note":"内科　胃腸科　外科　整形外科　脳神経外科　眼科　皮膚科　リハビリ科","count":1,"level":"detail"},{"id":"medical-2-20830","name":"髙橋医院","categoryId":"medical","categoryLabel":"医疗","lat":35.564353,"lng":139.743076,"stationId":"station-004312","note":"小児科","count":1,"level":"detail"},{"id":"medical-3-20796","name":"齋藤歯科医院","categoryId":"medical","categoryLabel":"医疗","lat":35.554145,"lng":139.742317,"stationId":"station-004356","note":"歯科","count":1,"level":"detail"},{"id":"medical-2-72","name":"（株）荏原製作所 本社診療所","categoryId":"medical","categoryLabel":"医疗","lat":35.552175,"lng":139.752328,"stationId":"station-004348","note":"内科","count":1,"level":"detail"},{"id":"medical-3-81","name":"５５歯科医院","categoryId":"medical","categoryLabel":"医疗","lat":35.574512,"lng":139.73331,"stationId":"station-004307","note":"歯科　口腔外科","count":1,"level":"detail"},{"id":"public-13111-21462","name":"ゆうゆうくらぶ大森中","categoryId":"public_service","categoryLabel":"公共服务","lat":35.568153,"lng":139.73488,"stationId":"station-004307","note":"大田区大森中2-13-15","count":1,"level":"detail"},{"id":"public-13111-21465","name":"ゆうゆうくらぶ大森東","categoryId":"public_service","categoryLabel":"公共服务","lat":35.567293,"lng":139.740599,"stationId":"station-004312","note":"大田区大森東4-24-6","count":1,"level":"detail"},{"id":"public-13111-21493","name":"ゆうゆうくらぶ東糀谷","categoryId":"public_service","categoryLabel":"公共服务","lat":35.55765,"lng":139.7419,"stationId":"station-004356","note":"大田区東糀谷1-19-21","count":1,"level":"detail"},{"id":"public-13111-21435","name":"コミュニティセンター羽田旭","categoryId":"public_service","categoryLabel":"公共服务","lat":35.553648,"lng":139.747275,"stationId":"station-004364","note":"大田区羽田旭町7-1","count":1,"level":"detail"},{"id":"public-13111-21466","name":"大森東特別出張所","categoryId":"public_service","categoryLabel":"公共服务","lat":35.566933,"lng":139.745903,"stationId":"station-004312","note":"大田区大森南4-9-1","count":1,"level":"detail"},{"id":"public-13111-21495","name":"糀谷・羽田地域庁舎","categoryId":"public_service","categoryLabel":"公共服务","lat":35.557349,"lng":139.739672,"stationId":"station-004356","note":"大田区東糀谷1-21-15","count":1,"level":"detail"},{"id":"public-13111-21454","name":"糀谷文化センター","categoryId":"public_service","categoryLabel":"公共服务","lat":35.559049,"lng":139.736308,"stationId":"station-004349","note":"大田区西糀谷2-14-5","count":1,"level":"detail"},{"id":"public-13111-21453","name":"糀谷特別出張所","categoryId":"public_service","categoryLabel":"公共服务","lat":35.55873,"lng":139.736763,"stationId":"station-004356","note":"大田区西糀谷2-14-13","count":1,"level":"detail"},{"id":"public-13111-21433","name":"羽田特別出張所","categoryId":"public_service","categoryLabel":"公共服务","lat":35.549143,"lng":139.741829,"stationId":"station-004356","note":"大田区羽田1-18-13","count":1,"level":"detail"},{"id":"public-13111-21503","name":"萩中集会所ゆうゆうくらぶ萩中","categoryId":"public_service","categoryLabel":"公共服务","lat":35.550645,"lng":139.739583,"stationId":"station-004356","note":"大田区萩中3-25-8","count":1,"level":"detail"},{"id":"public-13111-21434","name":"羽田文化センター体育施設","categoryId":"sports","categoryLabel":"体育设施","lat":35.549684,"lng":139.747435,"stationId":"station-004364","note":"大田区羽田4-11-1","count":1,"level":"detail"}]
