[{"id":"medical-2-1386","name":"お台場海浜公園　虹橋クリニック","categoryId":"medical","categoryLabel":"医疗","lat":35.630069,"lng":139.780706,"stationId":"station-004091","note":"婦人科　内科","count":1,"level":"detail"},{"id":"medical-2-1743","name":"クレイラクリニック（往診専門）","categoryId":"medical","categoryLabel":"医疗","lat":35.631383,"lng":139.779558,"stationId":"station-004091","note":"内科　アレルギー科　心療内科","count":1,"level":"detail"},{"id":"medical-2-1790","name":"ケー・イー・エルテクニカルサービス株式会社　医務室","categoryId":"medical","categoryLabel":"医疗","lat":35.630301,"lng":139.789525,"stationId":"station-004087","note":"内科","count":1,"level":"detail"},{"id":"medical-2-2185","name":"サントリー健康相談室","categoryId":"medical","categoryLabel":"医疗","lat":35.629216,"lng":139.778373,"stationId":"station-004091","note":"内科　精神科","count":1,"level":"detail"},{"id":"medical-3-2848","name":"ティーエフティービルオリオンデンタルオフィス","categoryId":"medical","categoryLabel":"医疗","lat":35.630869,"lng":139.790598,"stationId":"station-004087","note":"歯科　矯正歯科　小児歯科　歯科口腔外科","count":1,"level":"detail"},{"id":"medical-2-3774","name":"ベビースマイル　レディースクリニック有明","categoryId":"medical","categoryLabel":"医疗","lat":35.638181,"lng":139.792563,"stationId":"station-004037","note":"産婦人科","count":1,"level":"detail"},{"id":"medical-2-3854","name":"マイセルクリニック東京","categoryId":"medical","categoryLabel":"医疗","lat":35.625027,"lng":139.771151,"stationId":"station-004112","note":"内科　皮膚科　アレルギー科","count":1,"level":"detail"},{"id":"medical-2-12558","name":"五栄土木株式会社　ＣＰ−５００１　医務室","categoryId":"medical","categoryLabel":"医疗","lat":35.631006,"lng":139.792371,"stationId":"station-004087","note":"内科　外科","count":1,"level":"detail"},{"id":"medical-2-12559","name":"五栄土木株式会社　ＣＰ−８００１医務室","categoryId":"medical","categoryLabel":"医疗","lat":35.631006,"lng":139.792371,"stationId":"station-004087","note":"内科　外科","count":1,"level":"detail"},{"id":"medical-1-12649","name":"公益財団法人　がん研究会　有明病院","categoryId":"medical","categoryLabel":"医疗","lat":35.634208,"lng":139.795164,"stationId":"station-004064","note":"内科　呼吸器内科　消化器内科　乳腺内科　血液内科　腫瘍内科　感染症内科　漢方内科　疼痛緩和内科　精神科　外科　呼吸器外科　消化器外科　乳腺外科　頭頸部外科　整形外科　形成外科　婦人科　眼科　耳鼻いんこう科　皮膚科　泌尿器科　放射線診断科　放射線治療科","count":1,"level":"detail"},{"id":"medical-3-6094","name":"医療法人社団　和康会　市場歯科","categoryId":"medical","categoryLabel":"医疗","lat":35.64422,"lng":139.78429,"stationId":"station-004001","note":"歯科　小児歯科　歯科口腔外科","count":1,"level":"detail"},{"id":"medical-2-6821","name":"医療法人社団ゆうあい会　ゆうあいクリニック台場","categoryId":"medical","categoryLabel":"医疗","lat":35.630069,"lng":139.780706,"stationId":"station-004091","note":"内科　放射線科","count":1,"level":"detail"},{"id":"medical-2-6773","name":"医療法人社団ミッドタウンクリニック　ミッドタウンクリニック有明","categoryId":"medical","categoryLabel":"医疗","lat":35.632123,"lng":139.787356,"stationId":"station-004087","note":"内科　放射線科　消化器内科","count":1,"level":"detail"},{"id":"medical-2-6772","name":"医療法人社団ミッドタウンクリニック　ミッドタウンクリニック東京ベイ","categoryId":"medical","categoryLabel":"医疗","lat":35.628938,"lng":139.786832,"stationId":"station-004087","note":"婦人科　放射線科　内科","count":1,"level":"detail"},{"id":"medical-2-6808","name":"医療法人社団モルゲンロート有明こどもクリニック有明院","categoryId":"medical","categoryLabel":"医疗","lat":35.637154,"lng":139.787279,"stationId":"station-004037","note":"内科　アレルギー科　小児科　小児皮膚科","count":1,"level":"detail"},{"id":"medical-2-6809","name":"医療法人社団モルゲンロート有明ひふかクリニック有明ガーデン院","categoryId":"medical","categoryLabel":"医疗","lat":35.638181,"lng":139.792563,"stationId":"station-004037","note":"小児皮膚科　皮膚科　美容皮膚科","count":1,"level":"detail"},{"id":"medical-3-8819","name":"医療法人社団世航会　デンタルオフィス東京ベイ","categoryId":"medical","categoryLabel":"医疗","lat":35.638903,"lng":139.790885,"stationId":"station-004037","note":"歯科　歯科口腔外科　小児歯科　矯正歯科","count":1,"level":"detail"},{"id":"medical-2-10439","name":"医療法人社団勁草会　東京放射線クリニック","categoryId":"medical","categoryLabel":"医疗","lat":35.632123,"lng":139.787356,"stationId":"station-004087","note":"放射線治療科","count":1,"level":"detail"},{"id":"medical-2-7963","name":"医療法人社団彩風会　お台場クリニック","categoryId":"medical","categoryLabel":"医疗","lat":35.630592,"lng":139.778803,"stationId":"station-004091","note":"内科　小児科　外科　皮膚科","count":1,"level":"detail"},{"id":"medical-3-7882","name":"医療法人社団浩整会　お台場山本歯科医院","categoryId":"medical","categoryLabel":"医疗","lat":35.630592,"lng":139.778803,"stationId":"station-004091","note":"歯科　矯正歯科　小児歯科　歯科口腔外科","count":1,"level":"detail"},{"id":"medical-3-8930","name":"医療法人社団清慈会　有明パーク歯科クリニック","categoryId":"medical","categoryLabel":"医疗","lat":35.63206,"lng":139.793715,"stationId":"station-004064","note":"歯科口腔外科　小児歯科　矯正歯科　歯科","count":1,"level":"detail"},{"id":"medical-3-16760","name":"台場フロンティアデンタルクリニック","categoryId":"medical","categoryLabel":"医疗","lat":35.628699,"lng":139.777503,"stationId":"station-004091","note":"歯科　矯正歯科　小児歯科　歯科口腔外科","count":1,"level":"detail"},{"id":"medical-2-16868","name":"大樹生命保険株式会社診療所","categoryId":"medical","categoryLabel":"医疗","lat":35.625221,"lng":139.775623,"stationId":"station-004108","note":"内科","count":1,"level":"detail"},{"id":"medical-2-14738","name":"昭和シェル石油（株）本社医務室","categoryId":"medical","categoryLabel":"医疗","lat":35.628699,"lng":139.777503,"stationId":"station-004091","note":"内科","count":1,"level":"detail"},{"id":"medical-1-14740","name":"昭和大学江東豊洲病院","categoryId":"medical","categoryLabel":"医疗","lat":35.649892,"lng":139.795705,"stationId":"station-003981","note":"内科　消化器内科　循環器内科　脳神経内科　小児内科　新生児内科　産科　婦人科　外科　消化器外科　脳神経外科　小児外科　整形外科　乳腺外科　形成外科　眼科　リハビリ科　放射線診断科　放射線治療科　麻酔科　病理診断科　精神科　皮膚科　耳鼻いんこう科　泌尿器科","count":1,"level":"detail"},{"id":"medical-2-20443","name":"有明ガーデン眼科","categoryId":"medical","categoryLabel":"医疗","lat":35.638181,"lng":139.792563,"stationId":"station-004037","note":"眼科","count":1,"level":"detail"},{"id":"medical-3-20444","name":"有明デンタルクリニック","categoryId":"medical","categoryLabel":"医疗","lat":35.637154,"lng":139.787279,"stationId":"station-004037","note":"歯科","count":1,"level":"detail"},{"id":"medical-2-18115","name":"東京ファッションタウンビルクリニック","categoryId":"medical","categoryLabel":"医疗","lat":35.630869,"lng":139.790598,"stationId":"station-004087","note":"内科　皮膚科　小児科","count":1,"level":"detail"},{"id":"medical-2-18222","name":"東京中央卸売市場診療所","categoryId":"medical","categoryLabel":"医疗","lat":35.64422,"lng":139.78429,"stationId":"station-004001","note":"内科　外科　整形外科　精神科","count":1,"level":"detail"},{"id":"medical-2-18316","name":"東京有明医療大学附属クリニック","categoryId":"medical","categoryLabel":"医疗","lat":35.641565,"lng":139.796492,"stationId":"station-004034","note":"内科　整形外科　外科","count":1,"level":"detail"},{"id":"medical-3-18043","name":"東雲歯科","categoryId":"medical","categoryLabel":"医疗","lat":35.643873,"lng":139.798298,"stationId":"station-004034","note":"歯科","count":1,"level":"detail"},{"id":"medical-2-11420","name":"株式会社フジテレビジョン健康相談センター","categoryId":"medical","categoryLabel":"医疗","lat":35.62668,"lng":139.774193,"stationId":"station-004112","note":"内科　皮膚科　耳鼻いんこう科　歯科　眼科　整形外科","count":1,"level":"detail"},{"id":"medical-2-11426","name":"株式会社レナウン　本社　健康管理室","categoryId":"medical","categoryLabel":"医疗","lat":35.630869,"lng":139.790598,"stationId":"station-004087","note":"内科","count":1,"level":"detail"},{"id":"public-13103-20952","name":"台場区民センター","categoryId":"public_service","categoryLabel":"公共服务","lat":35.629892,"lng":139.777193,"stationId":"station-004091","note":"港区台場1-5-1","count":1,"level":"detail"},{"id":"public-13108-21275","name":"有明スポ−ツセンター","categoryId":"public_service","categoryLabel":"公共服务","lat":35.63318,"lng":139.783823,"stationId":"station-004091","note":"江東区有明2-3-5","count":1,"level":"detail"},{"id":"public-13103-20953","name":"芝浦港南地区総合支所台場分室","categoryId":"public_service","categoryLabel":"公共服务","lat":35.629892,"lng":139.777173,"stationId":"station-004091","note":"港区台場1-5-1","count":1,"level":"detail"}]
