[{"id":"public-13106-21104","name":"上野区民館","categoryId":"community","categoryLabel":"社区设施","lat":35.709374,"lng":139.769319,"stationId":"station-003558","note":"台東区池之端1-1-12","count":1,"level":"detail"},{"id":"public-13106-21112","name":"入谷区民館","categoryId":"community","categoryLabel":"社区设施","lat":35.720374,"lng":139.785788,"stationId":"station-003469","note":"台東区入谷1-15-6","count":1,"level":"detail"},{"id":"public-13118-22045","name":"入谷区民館根岸分館","categoryId":"community","categoryLabel":"社区设施","lat":35.724973,"lng":139.777721,"stationId":"station-003460","note":"台東区根岸2-18-17","count":1,"level":"detail"},{"id":"public-13106-21099","name":"台東一丁目区民館","categoryId":"community","categoryLabel":"社区设施","lat":35.701545,"lng":139.778079,"stationId":"akihabara","note":"台東区台東1-25-5","count":1,"level":"detail"},{"id":"public-13106-21082","name":"寿区民館","categoryId":"community","categoryLabel":"社区设施","lat":35.707315,"lng":139.789058,"stationId":"station-003530","note":"台東区寿1-10-12","count":1,"level":"detail"},{"id":"public-13106-21107","name":"東上野区民館","categoryId":"community","categoryLabel":"社区设施","lat":35.711254,"lng":139.779649,"stationId":"station-003519","note":"台東区東上野3-24-6","count":1,"level":"detail"},{"id":"public-13106-21071","name":"金杉区民館","categoryId":"community","categoryLabel":"社区设施","lat":35.72322,"lng":139.785636,"stationId":"station-003469","note":"台東区下谷3-1-30","count":1,"level":"detail"},{"id":"public-13106-21090","name":"雷門区民館","categoryId":"community","categoryLabel":"社区设施","lat":35.712495,"lng":139.796137,"stationId":"station-003502","note":"台東区浅草1-37-3","count":1,"level":"detail"},{"id":"public-13106-21095","name":"馬道区民館","categoryId":"community","categoryLabel":"社区设施","lat":35.718234,"lng":139.798757,"stationId":"station-003502","note":"台東区浅草4-48-1","count":1,"level":"detail"},{"id":"medical-3-492","name":"あおい歯科診療室","categoryId":"medical","categoryLabel":"医疗","lat":35.72258,"lng":139.781223,"stationId":"station-003460","note":"歯科","count":1,"level":"detail"},{"id":"medical-2-505","name":"あおぞら浅草クリニック","categoryId":"medical","categoryLabel":"医疗","lat":35.715858,"lng":139.799341,"stationId":"station-003502","note":"内科","count":1,"level":"detail"},{"id":"medical-3-547","name":"あきやま歯科医院","categoryId":"medical","categoryLabel":"医疗","lat":35.702417,"lng":139.78083,"stationId":"station-003557","note":"歯科　小児歯科　歯科口腔外科","count":1,"level":"detail"},{"id":"medical-2-591","name":"あさくさ医院","categoryId":"medical","categoryLabel":"医疗","lat":35.711361,"lng":139.798505,"stationId":"station-003502","note":"内科　精神科　心療内科　神経科","count":1,"level":"detail"},{"id":"medical-2-593","name":"あさくさ産婦人科クリニック","categoryId":"medical","categoryLabel":"医疗","lat":35.714389,"lng":139.791295,"stationId":"station-003502","note":"産婦人科","count":1,"level":"detail"},{"id":"medical-2-594","name":"あさくさ田原町内科クリニック","categoryId":"medical","categoryLabel":"医疗","lat":35.709499,"lng":139.790895,"stationId":"station-003530","note":"内科　呼吸器内科　アレルギー科","count":1,"level":"detail"},{"id":"medical-2-595","name":"あさくさ雷門前クリニック","categoryId":"medical","categoryLabel":"医疗","lat":35.709767,"lng":139.795951,"stationId":"station-003502","note":"内科　呼吸器内科　循環器内科　消化器内科　神経内科　皮膚科　アレルギ−科　小児科","count":1,"level":"detail"},{"id":"medical-3-881","name":"いずみ歯科クリニック","categoryId":"medical","categoryLabel":"医疗","lat":35.716631,"lng":139.786525,"stationId":"station-003469","note":"歯科　矯正歯科　小児歯科　歯科口腔外科","count":1,"level":"detail"},{"id":"medical-2-960","name":"いりやキッズクリニック","categoryId":"medical","categoryLabel":"医疗","lat":35.724837,"lng":139.787408,"stationId":"station-003469","note":"アレルギ−科　小児科","count":1,"level":"detail"},{"id":"medical-2-1010","name":"うえのあさがおクリニック","categoryId":"medical","categoryLabel":"医疗","lat":35.70906,"lng":139.780437,"stationId":"station-003557","note":"内科　皮膚科　整形外科","count":1,"level":"detail"},{"id":"medical-3-1031","name":"うぐいす谷駅前歯科","categoryId":"medical","categoryLabel":"医疗","lat":35.722741,"lng":139.777581,"stationId":"station-003460","note":"歯科　矯正歯科　小児歯科　歯科口腔外科","count":1,"level":"detail"},{"id":"medical-3-1102","name":"えづれ歯科医院","categoryId":"medical","categoryLabel":"医疗","lat":35.71773,"lng":139.789709,"stationId":"station-003469","note":"歯科","count":1,"level":"detail"},{"id":"medical-2-1103","name":"えづれ耳鼻咽喉科クリニック","categoryId":"medical","categoryLabel":"医疗","lat":35.715984,"lng":139.799582,"stationId":"station-003502","note":"小児科　耳鼻いんこう科","count":1,"level":"detail"},{"id":"medical-3-1189","name":"おおくぼ歯科医院","categoryId":"medical","categoryLabel":"医疗","lat":35.716644,"lng":139.783105,"stationId":"station-003469","note":"歯科　矯正歯科　小児歯科　歯科口腔外科","count":1,"level":"detail"},{"id":"medical-3-1199","name":"おおしな歯科クリニック","categoryId":"medical","categoryLabel":"医疗","lat":35.705505,"lng":139.781067,"stationId":"station-003557","note":"歯科　矯正歯科　小児歯科　歯科口腔外科","count":1,"level":"detail"},{"id":"medical-3-1230","name":"おおと歯科医院","categoryId":"medical","categoryLabel":"医疗","lat":35.705361,"lng":139.777292,"stationId":"station-003560","note":"歯科","count":1,"level":"detail"},{"id":"medical-3-1591","name":"きたしろ歯科医院","categoryId":"medical","categoryLabel":"医疗","lat":35.707447,"lng":139.779536,"stationId":"station-003557","note":"歯科　矯正歯科　小児歯科　歯科口腔外科","count":1,"level":"detail"},{"id":"medical-2-1683","name":"くらまえ川畑診療室","categoryId":"medical","categoryLabel":"医疗","lat":35.704696,"lng":139.793146,"stationId":"station-003583","note":"内科","count":1,"level":"detail"},{"id":"medical-2-1682","name":"くらまえ整形","categoryId":"medical","categoryLabel":"医疗","lat":35.703492,"lng":139.790853,"stationId":"station-003583","note":"整形外科　リハリビテ−ション科","count":1,"level":"detail"},{"id":"medical-2-1909","name":"ことぶき耳鼻咽喉科","categoryId":"medical","categoryLabel":"医疗","lat":35.707776,"lng":139.790762,"stationId":"station-003530","note":"耳鼻いんこう科","count":1,"level":"detail"},{"id":"medical-3-2089","name":"さくら歯科クリニック","categoryId":"medical","categoryLabel":"医疗","lat":35.702143,"lng":139.769184,"stationId":"station-003586","note":"歯．矯．小歯．歯外","count":1,"level":"detail"},{"id":"medical-3-2166","name":"さや歯科医院","categoryId":"medical","categoryLabel":"医疗","lat":35.714965,"lng":139.792091,"stationId":"station-003502","note":"歯科　矯正歯科　小児歯科","count":1,"level":"detail"},{"id":"medical-3-2403","name":"すずき歯科","categoryId":"medical","categoryLabel":"医疗","lat":35.721749,"lng":139.78493,"stationId":"station-003469","note":"歯科　小児歯科　歯科口腔外科","count":1,"level":"detail"},{"id":"medical-2-2558","name":"そらいろ眼科クリニック","categoryId":"medical","categoryLabel":"医疗","lat":35.710766,"lng":139.775831,"stationId":"station-003521","note":"眼科","count":1,"level":"detail"},{"id":"medical-2-2533","name":"ぞうさん内科クリニック","categoryId":"medical","categoryLabel":"医疗","lat":35.7098,"lng":139.778665,"stationId":"station-003519","note":"内科","count":1,"level":"detail"},{"id":"medical-2-2730","name":"たまおか眼科","categoryId":"medical","categoryLabel":"医疗","lat":35.70911,"lng":139.773003,"stationId":"station-003543","note":"眼科","count":1,"level":"detail"},{"id":"medical-3-3130","name":"なかむら歯科医院","categoryId":"medical","categoryLabel":"医疗","lat":35.712839,"lng":139.780689,"stationId":"station-003519","note":"歯科　矯正歯科　小児歯科　歯科口腔外科","count":1,"level":"detail"},{"id":"medical-3-3264","name":"のがみ歯科","categoryId":"medical","categoryLabel":"医疗","lat":35.701329,"lng":139.780604,"stationId":"station-003636","note":"歯科　矯正歯科　小児科歯科","count":1,"level":"detail"},{"id":"medical-3-3292","name":"のむら歯科","categoryId":"medical","categoryLabel":"医疗","lat":35.702959,"lng":139.790327,"stationId":"station-003583","note":"歯科　矯正歯科　小児歯科　歯科口腔外科","count":1,"level":"detail"},{"id":"medical-3-3333","name":"はじめ歯科","categoryId":"medical","categoryLabel":"医疗","lat":35.70612,"lng":139.792221,"stationId":"station-003583","note":"歯科　小児歯科","count":1,"level":"detail"},{"id":"medical-3-3402","name":"はな歯科","categoryId":"medical","categoryLabel":"医疗","lat":35.707141,"lng":139.790665,"stationId":"station-003583","note":"歯科　小児歯科　歯科口腔外科","count":1,"level":"detail"},{"id":"medical-3-3493","name":"ひきば歯科医院","categoryId":"medical","categoryLabel":"医疗","lat":35.706035,"lng":139.789912,"stationId":"station-003583","note":"歯科","count":1,"level":"detail"},{"id":"medical-3-3512","name":"ひとしデンタルクリニック","categoryId":"medical","categoryLabel":"医疗","lat":35.708907,"lng":139.770022,"stationId":"station-003558","note":"歯科　矯正歯科　小児歯科　歯科口腔外科","count":1,"level":"detail"},{"id":"medical-3-3607","name":"ひろ歯科医院","categoryId":"medical","categoryLabel":"医疗","lat":35.723094,"lng":139.782086,"stationId":"station-003469","note":"歯科　矯正歯科　小児歯科　歯科口腔外科","count":1,"level":"detail"},{"id":"medical-3-3654","name":"ふくだ歯科医院","categoryId":"medical","categoryLabel":"医疗","lat":35.702524,"lng":139.772015,"stationId":"station-003586","note":"歯．矯．小歯．歯外","count":1,"level":"detail"},{"id":"medical-3-3794","name":"ほさか歯科","categoryId":"medical","categoryLabel":"医疗","lat":35.707229,"lng":139.786475,"stationId":"station-003557","note":"歯科　小児歯科","count":1,"level":"detail"},{"id":"medical-3-3804","name":"ほそごし歯科","categoryId":"medical","categoryLabel":"医疗","lat":35.716131,"lng":139.767252,"stationId":"station-003483","note":"歯科","count":1,"level":"detail"},{"id":"medical-3-3957","name":"まゆみ歯科","categoryId":"medical","categoryLabel":"医疗","lat":35.709726,"lng":139.78893,"stationId":"station-003530","note":"歯科　小児歯科　歯科口腔外科","count":1,"level":"detail"},{"id":"medical-3-4299","name":"やまうち歯科","categoryId":"medical","categoryLabel":"医疗","lat":35.717512,"lng":139.794193,"stationId":"station-003502","note":"歯科","count":1,"level":"detail"},{"id":"medical-3-4335","name":"やまなし歯科医院","categoryId":"medical","categoryLabel":"医疗","lat":35.720648,"lng":139.78208,"stationId":"station-003469","note":"歯科","count":1,"level":"detail"},{"id":"medical-2-4372","name":"ゆうレディースクリニック","categoryId":"medical","categoryLabel":"医疗","lat":35.710514,"lng":139.781796,"stationId":"station-003519","note":"産婦人科　産科　婦人科　内科","count":1,"level":"detail"},{"id":"medical-3-4383","name":"ゆかりデンタルクリニック","categoryId":"medical","categoryLabel":"医疗","lat":35.705139,"lng":139.769673,"stationId":"station-003558","note":"歯科","count":1,"level":"detail"},{"id":"medical-2-4435","name":"よしかわ眼科","categoryId":"medical","categoryLabel":"医疗","lat":35.710917,"lng":139.774383,"stationId":"station-003521","note":"眼科","count":1,"level":"detail"},{"id":"medical-3-4461","name":"よしひら歯科クリニック","categoryId":"medical","categoryLabel":"医疗","lat":35.711848,"lng":139.783845,"stationId":"station-003519","note":"歯科　矯正歯科　小児歯科　歯科口腔外科","count":1,"level":"detail"},{"id":"medical-2-4462","name":"よしひろウィメンズクリニック","categoryId":"medical","categoryLabel":"医疗","lat":35.710162,"lng":139.776931,"stationId":"ueno","note":"婦人科","count":1,"level":"detail"},{"id":"medical-3-468","name":"アイ歯科","categoryId":"medical","categoryLabel":"医疗","lat":35.70332,"lng":139.781472,"stationId":"station-003557","note":"歯科","count":1,"level":"detail"},{"id":"medical-3-470","name":"アイ歯科医院","categoryId":"medical","categoryLabel":"医疗","lat":35.701433,"lng":139.766538,"stationId":"station-003605","note":"歯科　小児歯科　歯科口腔外科","count":1,"level":"detail"},{"id":"medical-2-578","name":"アゴラ内科クリニック","categoryId":"medical","categoryLabel":"医疗","lat":35.708118,"lng":139.769607,"stationId":"station-003558","note":"内科　循環器内科","count":1,"level":"detail"},{"id":"medical-2-616","name":"アジアン美容クリニック","categoryId":"medical","categoryLabel":"医疗","lat":35.708907,"lng":139.770022,"stationId":"station-003558","note":"皮膚科　形成外科　美容外科","count":1,"level":"detail"},{"id":"medical-2-746","name":"アリシアクリニック　上野院","categoryId":"medical","categoryLabel":"医疗","lat":35.710162,"lng":139.776931,"stationId":"ueno","note":"形成外科　美容皮膚科","count":1,"level":"detail"},{"id":"medical-3-1056","name":"ウノ歯科医院","categoryId":"medical","categoryLabel":"医疗","lat":35.716475,"lng":139.765802,"stationId":"station-003483","note":"歯科","count":1,"level":"detail"},{"id":"medical-2-1139","name":"エミナルクリニック上野院","categoryId":"medical","categoryLabel":"医疗","lat":35.708848,"lng":139.773565,"stationId":"station-003543","note":"美容皮膚科","count":1,"level":"detail"},{"id":"medical-2-1162","name":"エレガンスビルクリニック","categoryId":"medical","categoryLabel":"医疗","lat":35.723051,"lng":139.794438,"stationId":"station-003399","note":"感染症内科　感染症婦人科","count":1,"level":"detail"},{"id":"medical-2-1080","name":"エーツー美容外科　上野院","categoryId":"medical","categoryLabel":"医疗","lat":35.713895,"lng":139.779014,"stationId":"ueno","note":"泌尿器科　形成外科　美容外科","count":1,"level":"detail"},{"id":"medical-2-1365","name":"オリエンタルモーター株式会社　社内診療所","categoryId":"medical","categoryLabel":"医疗","lat":35.713242,"lng":139.779382,"stationId":"ueno","note":"内科","count":1,"level":"detail"},{"id":"medical-2-1366","name":"オリエンタル上野健診センター","categoryId":"medical","categoryLabel":"医疗","lat":35.707558,"lng":139.772609,"stationId":"station-003545","note":"内科","count":1,"level":"detail"},{"id":"medical-3-1606","name":"キヅキ歯科医院","categoryId":"medical","categoryLabel":"医疗","lat":35.712555,"lng":139.796267,"stationId":"station-003502","note":"歯科　矯正歯科","count":1,"level":"detail"},{"id":"medical-3-1639","name":"キンヤ歯科クリニック","categoryId":"medical","categoryLabel":"医疗","lat":35.724973,"lng":139.786253,"stationId":"station-003469","note":"歯科","count":1,"level":"detail"},{"id":"medical-3-1755","name":"クレスト歯科クリニック台東","categoryId":"medical","categoryLabel":"医疗","lat":35.704041,"lng":139.777157,"stationId":"station-003560","note":"歯科　矯正歯科　小児歯科　歯科口腔外科","count":1,"level":"detail"},{"id":"medical-2-1760","name":"クローバーこどもクリニック","categoryId":"medical","categoryLabel":"医疗","lat":35.704208,"lng":139.789884,"stationId":"station-003583","note":"皮膚科　アレルギー科　小児科","count":1,"level":"detail"},{"id":"medical-3-1745","name":"グレースデンタルクリニック　城東分院","categoryId":"medical","categoryLabel":"医疗","lat":35.719797,"lng":139.785901,"stationId":"station-003469","note":"歯科　矯正歯科　小児歯科　歯科口腔外科","count":1,"level":"detail"},{"id":"medical-2-1748","name":"グレースホームケアクリニック　城東","categoryId":"medical","categoryLabel":"医疗","lat":35.719797,"lng":139.785901,"stationId":"station-003469","note":"内科","count":1,"level":"detail"},{"id":"medical-2-1835","name":"コークリニック","categoryId":"medical","categoryLabel":"医疗","lat":35.716963,"lng":139.768151,"stationId":"station-003483","note":"精神科　神経科","count":1,"level":"detail"},{"id":"medical-2-1975","name":"ゴリラクリニック　上野院","categoryId":"medical","categoryLabel":"医疗","lat":35.713986,"lng":139.778469,"stationId":"ueno","note":"美容外科　美容皮膚科　形成外科　泌尿器科","count":1,"level":"detail"},{"id":"medical-3-2176","name":"サンエス歯科医院","categoryId":"medical","categoryLabel":"医疗","lat":35.701361,"lng":139.789704,"stationId":"station-003583","note":"歯科　小児歯科","count":1,"level":"detail"},{"id":"medical-2-2192","name":"サンライズクリニック","categoryId":"medical","categoryLabel":"医疗","lat":35.7075,"lng":139.779735,"stationId":"station-003557","note":"内科　糖尿病内科　循環器内科","count":1,"level":"detail"},{"id":"medical-3-2327","name":"ショ−ジ歯科","categoryId":"medical","categoryLabel":"医疗","lat":35.706523,"lng":139.771863,"stationId":"station-003545","note":"歯科　矯正歯科　小児歯科","count":1,"level":"detail"},{"id":"medical-3-2339","name":"シルクデンタルクリニック","categoryId":"medical","categoryLabel":"医疗","lat":35.710053,"lng":139.793385,"stationId":"station-003530","note":"歯科","count":1,"level":"detail"},{"id":"medical-2-2439","name":"ストレスケア東京上野駅前クリニック","categoryId":"medical","categoryLabel":"医疗","lat":35.713986,"lng":139.778469,"stationId":"ueno","note":"精神科　心療内科","count":1,"level":"detail"},{"id":"medical-2-2513","name":"セネクリニック東京","categoryId":"medical","categoryLabel":"医疗","lat":35.700104,"lng":139.772572,"stationId":"akihabara","note":"内科　腫瘍内科","count":1,"level":"detail"},{"id":"medical-2-2530","name":"セントラル美容クリニック","categoryId":"medical","categoryLabel":"医疗","lat":35.708514,"lng":139.773472,"stationId":"station-003543","note":"美容皮膚科　美容内科","count":1,"level":"detail"},{"id":"medical-3-2554","name":"ソヤムラ歯科医院","categoryId":"medical","categoryLabel":"医疗","lat":35.702345,"lng":139.781686,"stationId":"station-003557","note":"歯科","count":1,"level":"detail"},{"id":"medical-3-2682","name":"タチバナ歯科医院","categoryId":"medical","categoryLabel":"医疗","lat":35.717328,"lng":139.79801,"stationId":"station-003502","note":"歯科　矯正歯科　小児歯科　歯科口腔外科","count":1,"level":"detail"},{"id":"medical-3-2748","name":"タロウ歯科クリニック","categoryId":"medical","categoryLabel":"医疗","lat":35.707225,"lng":139.781679,"stationId":"station-003557","note":"歯科　小児歯科","count":1,"level":"detail"},{"id":"medical-2-2565","name":"ダイナメディカル根津クリニック","categoryId":"medical","categoryLabel":"医疗","lat":35.718264,"lng":139.766291,"stationId":"station-003483","note":"内科　呼吸器科　循環器科　リウマチ科　皮膚科","count":1,"level":"detail"},{"id":"medical-3-2889","name":"デンタルオフィス聖橋","categoryId":"medical","categoryLabel":"医疗","lat":35.702064,"lng":139.766455,"stationId":"station-003605","note":"歯．矯．小歯．歯外","count":1,"level":"detail"},{"id":"medical-2-2985","name":"トッパングループ健康保険組合　秋葉原診療所","categoryId":"medical","categoryLabel":"医疗","lat":35.700524,"lng":139.778611,"stationId":"akihabara","note":"内科　循環器内科　消化器内科　歯科","count":1,"level":"detail"},{"id":"medical-3-3103","name":"ナカデンデンタルオフィス","categoryId":"medical","categoryLabel":"医疗","lat":35.71128,"lng":139.798434,"stationId":"station-003502","note":"歯科　矯正歯科　小児歯科　歯科口腔外科","count":1,"level":"detail"},{"id":"medical-3-3235","name":"ニュー末広ビル歯科","categoryId":"medical","categoryLabel":"医疗","lat":35.703391,"lng":139.7721,"stationId":"station-003586","note":"歯．矯．小歯．歯外","count":1,"level":"detail"},{"id":"medical-3-3356","name":"ハセベデンタルクリニック","categoryId":"medical","categoryLabel":"医疗","lat":35.701338,"lng":139.775176,"stationId":"akihabara","note":"歯","count":1,"level":"detail"},{"id":"medical-3-3344","name":"パストラル歯科","categoryId":"medical","categoryLabel":"医疗","lat":35.705255,"lng":139.770579,"stationId":"station-003558","note":"歯科　矯正歯科　小児歯科　歯科口腔外科","count":1,"level":"detail"},{"id":"medical-2-3304","name":"パーソナルヘルスクリニック","categoryId":"medical","categoryLabel":"医疗","lat":35.707355,"lng":139.771817,"stationId":"station-003545","note":"感染症内科","count":1,"level":"detail"},{"id":"medical-3-3498","name":"ヒグチデンタルクリニック","categoryId":"medical","categoryLabel":"医疗","lat":35.710459,"lng":139.792366,"stationId":"station-003530","note":"歯科　矯正歯科　小児歯科　歯科口腔外科","count":1,"level":"detail"},{"id":"medical-2-3810","name":"ボディクリニック","categoryId":"medical","categoryLabel":"医疗","lat":35.723651,"lng":139.795347,"stationId":"station-003399","note":"内科　皮膚科　形成外科","count":1,"level":"detail"},{"id":"medical-2-4354","name":"ユアクリニック秋葉原","categoryId":"medical","categoryLabel":"医疗","lat":35.70219,"lng":139.772424,"stationId":"station-003586","note":"小児科　内科","count":1,"level":"detail"},{"id":"medical-3-4492","name":"ライオンズビル歯科医院","categoryId":"medical","categoryLabel":"医疗","lat":35.709656,"lng":139.796398,"stationId":"station-003502","note":"歯科","count":1,"level":"detail"},{"id":"medical-2-4495","name":"ライオン本社診療所","categoryId":"medical","categoryLabel":"医疗","lat":35.703501,"lng":139.795793,"stationId":"station-003583","note":"内　消内　循　神　整外　歯","count":1,"level":"detail"},{"id":"medical-2-4558","name":"リバティークリニック","categoryId":"medical","categoryLabel":"医疗","lat":35.702392,"lng":139.772003,"stationId":"station-003586","note":"美容皮膚科","count":1,"level":"detail"},{"id":"medical-2-4599","name":"レジーナクリニック上野院","categoryId":"medical","categoryLabel":"医疗","lat":35.713479,"lng":139.778766,"stationId":"ueno","note":"美容皮膚科","count":1,"level":"detail"},{"id":"medical-2-10682","name":"一宮メンタルクリニック","categoryId":"medical","categoryLabel":"医疗","lat":35.707903,"lng":139.775993,"stationId":"station-003555","note":"精神科　心療内科","count":1,"level":"detail"},{"id":"medical-2-13493","name":"三倉クリニック","categoryId":"medical","categoryLabel":"医疗","lat":35.707161,"lng":139.771413,"stationId":"station-003558","note":"内科　呼吸器内科　循環器内科　消化器内科　外科　リハビリテ−ション科","count":1,"level":"detail"},{"id":"medical-2-13541","name":"三菱ＵＦＪニコス株式会社診療所","categoryId":"medical","categoryLabel":"医疗","lat":35.700104,"lng":139.772572,"stationId":"akihabara","note":"内．心内","count":1,"level":"detail"},{"id":"medical-2-15002","name":"上野くろもんクリニック","categoryId":"medical","categoryLabel":"医疗","lat":35.705907,"lng":139.771245,"stationId":"station-003558","note":"乳腺外科　内科","count":1,"level":"detail"},{"id":"medical-2-15004","name":"上野なかのクリニック","categoryId":"medical","categoryLabel":"医疗","lat":35.71674,"lng":139.782788,"stationId":"station-003469","note":"内科　呼吸器内科　老年内科","count":1,"level":"detail"},{"id":"medical-2-15005","name":"上野の森クリニック","categoryId":"medical","categoryLabel":"医疗","lat":35.709051,"lng":139.770566,"stationId":"station-003543","note":"精神科　心療内科","count":1,"level":"detail"},{"id":"medical-2-14999","name":"上野アイクリニック","categoryId":"medical","categoryLabel":"医疗","lat":35.709133,"lng":139.773643,"stationId":"station-003543","note":"眼科","count":1,"level":"detail"},{"id":"medical-3-15000","name":"上野ガーデン歯科クリニック","categoryId":"medical","categoryLabel":"医疗","lat":35.714915,"lng":139.779457,"stationId":"ueno","note":"歯科　小児歯科　歯科口腔外科","count":1,"level":"detail"},{"id":"medical-3-15003","name":"上野スマイル歯科","categoryId":"medical","categoryLabel":"医疗","lat":35.708091,"lng":139.775659,"stationId":"station-003555","note":"歯科　矯正歯科　歯科口腔外科","count":1,"level":"detail"},{"id":"medical-2-15006","name":"上野プラザＵビル眼科","categoryId":"medical","categoryLabel":"医疗","lat":35.709558,"lng":139.773689,"stationId":"station-003543","note":"眼科","count":1,"level":"detail"},{"id":"medical-2-15007","name":"上野ロイヤルガーデンクリニック","categoryId":"medical","categoryLabel":"医疗","lat":35.710792,"lng":139.779099,"stationId":"station-003519","note":"内科","count":1,"level":"detail"},{"id":"medical-2-15026","name":"上野内科クリニック","categoryId":"medical","categoryLabel":"医疗","lat":35.713418,"lng":139.780886,"stationId":"station-003519","note":"内科　循環器内科　消化器内科　アレルギ−科　胃腸科","count":1,"level":"detail"},{"id":"medical-2-15010","name":"上野医院","categoryId":"medical","categoryLabel":"医疗","lat":35.708907,"lng":139.770022,"stationId":"station-003558","note":"内科　皮膚科　泌尿器科　形成外科","count":1,"level":"detail"},{"id":"medical-3-15028","name":"上野品川歯科・矯正歯科","categoryId":"medical","categoryLabel":"医疗","lat":35.710283,"lng":139.776259,"stationId":"station-003521","note":"歯科　矯正歯科　小児歯科　歯科口腔外科","count":1,"level":"detail"},{"id":"medical-2-15014","name":"上野国際医院","categoryId":"medical","categoryLabel":"医疗","lat":35.709383,"lng":139.774169,"stationId":"station-003543","note":"内科　皮膚科","count":1,"level":"detail"},{"id":"medical-3-15024","name":"上野昭和通り歯科医院","categoryId":"medical","categoryLabel":"医疗","lat":35.712869,"lng":139.778312,"stationId":"ueno","note":"歯科　小児歯科　歯科口腔外科","count":1,"level":"detail"},{"id":"medical-2-15027","name":"上野皮フ科・婦人科クリニック","categoryId":"medical","categoryLabel":"医疗","lat":35.707956,"lng":139.77995,"stationId":"station-003557","note":"皮膚科　アレルギ−科　形成外　婦人科　美容皮膚科","count":1,"level":"detail"},{"id":"medical-2-15025","name":"上野睡眠クリニック","categoryId":"medical","categoryLabel":"医疗","lat":35.713479,"lng":139.778766,"stationId":"ueno","note":"内科　呼吸器内科","count":1,"level":"detail"},{"id":"medical-3-15011","name":"上野稲荷町歯科","categoryId":"medical","categoryLabel":"医疗","lat":35.711533,"lng":139.782422,"stationId":"station-003519","note":"歯科　矯正歯科　小児歯科　歯科口腔外科","count":1,"level":"detail"},{"id":"medical-2-15022","name":"上野耳鼻咽喉科クリニック","categoryId":"medical","categoryLabel":"医疗","lat":35.710574,"lng":139.776267,"stationId":"ueno","note":"耳鼻いんこう科　内科","count":1,"level":"detail"},{"id":"medical-2-15012","name":"上野駅前クリニック","categoryId":"medical","categoryLabel":"医疗","lat":35.715279,"lng":139.779287,"stationId":"ueno","note":"感染症内科　性病科","count":1,"level":"detail"},{"id":"medical-2-15013","name":"上野駅前皮膚科","categoryId":"medical","categoryLabel":"医疗","lat":35.711604,"lng":139.779957,"stationId":"station-003519","note":"皮膚科　小児皮膚科　形成外科　アレルギー科　美容皮膚科","count":1,"level":"detail"},{"id":"medical-2-11110","name":"下司婦人科クリニック","categoryId":"medical","categoryLabel":"医疗","lat":35.718625,"lng":139.766485,"stationId":"station-003483","note":"内科　産婦人科","count":1,"level":"detail"},{"id":"medical-2-17527","name":"中傳ビルクリニック","categoryId":"medical","categoryLabel":"医疗","lat":35.71128,"lng":139.798434,"stationId":"station-003502","note":"内科　皮膚科　アレルギー科　心療内科　婦人科","count":1,"level":"detail"},{"id":"medical-3-17482","name":"中富歯科","categoryId":"medical","categoryLabel":"医疗","lat":35.70634,"lng":139.773304,"stationId":"station-003545","note":"歯科　矯正歯科　小児歯科","count":1,"level":"detail"},{"id":"medical-3-17454","name":"中島歯科クリニック","categoryId":"medical","categoryLabel":"医疗","lat":35.702445,"lng":139.780619,"stationId":"station-003557","note":"歯科　矯正歯科","count":1,"level":"detail"},{"id":"medical-3-17459","name":"中島歯科医院","categoryId":"medical","categoryLabel":"医疗","lat":35.713056,"lng":139.782,"stationId":"station-003519","note":"歯科","count":1,"level":"detail"},{"id":"medical-3-17460","name":"中島歯科医院","categoryId":"medical","categoryLabel":"医疗","lat":35.711759,"lng":139.793437,"stationId":"station-003502","note":"歯科","count":1,"level":"detail"},{"id":"medical-3-17452","name":"中島矯正歯科クリニック","categoryId":"medical","categoryLabel":"医疗","lat":35.707115,"lng":139.767805,"stationId":"station-003558","note":"矯正歯科","count":1,"level":"detail"},{"id":"medical-2-17399","name":"中村医院","categoryId":"medical","categoryLabel":"医疗","lat":35.710855,"lng":139.794412,"stationId":"station-003502","note":"内科　外科","count":1,"level":"detail"},{"id":"medical-3-17418","name":"中村歯科医院","categoryId":"medical","categoryLabel":"医疗","lat":35.700424,"lng":139.779328,"stationId":"akihabara","note":"歯科","count":1,"level":"detail"},{"id":"medical-3-11873","name":"久保歯科医院","categoryId":"medical","categoryLabel":"医疗","lat":35.724706,"lng":139.797433,"stationId":"station-003399","note":"歯科　矯正歯科　小児歯科　歯科口腔外科","count":1,"level":"detail"},{"id":"medical-3-11886","name":"久木留歯科","categoryId":"medical","categoryLabel":"医疗","lat":35.716766,"lng":139.796668,"stationId":"station-003502","note":"歯科","count":1,"level":"detail"},{"id":"medical-3-11658","name":"亀井歯科クリニック","categoryId":"medical","categoryLabel":"医疗","lat":35.702352,"lng":139.776982,"stationId":"station-003586","note":"歯科　矯正歯科　小児歯科","count":1,"level":"detail"},{"id":"medical-3-11659","name":"亀井章男歯科","categoryId":"medical","categoryLabel":"医疗","lat":35.701456,"lng":139.776363,"stationId":"akihabara","note":"歯科","count":1,"level":"detail"},{"id":"medical-3-18819","name":"二宮歯科診療室","categoryId":"medical","categoryLabel":"医疗","lat":35.701339,"lng":139.781295,"stationId":"station-003636","note":"歯科　矯正歯科　小児歯科　歯科口腔外科","count":1,"level":"detail"},{"id":"medical-3-12592","name":"五明歯科医院","categoryId":"medical","categoryLabel":"医疗","lat":35.706405,"lng":139.794752,"stationId":"station-003583","note":"歯科","count":1,"level":"detail"},{"id":"medical-2-11984","name":"京成上野クリニック","categoryId":"medical","categoryLabel":"医疗","lat":35.710283,"lng":139.776259,"stationId":"station-003521","note":"皮膚科　泌尿器科　婦人科　性感染症内科","count":1,"level":"detail"},{"id":"medical-3-13150","name":"今村歯科医院","categoryId":"medical","categoryLabel":"医疗","lat":35.710412,"lng":139.79527,"stationId":"station-003502","note":"歯科","count":1,"level":"detail"},{"id":"medical-3-16759","name":"代田歯科医院","categoryId":"medical","categoryLabel":"医疗","lat":35.706269,"lng":139.79137,"stationId":"station-003583","note":"歯科　小児歯科　歯科口腔外科","count":1,"level":"detail"},{"id":"medical-3-4793","name":"伊藤歯科医院","categoryId":"medical","categoryLabel":"医疗","lat":35.705582,"lng":139.785048,"stationId":"station-003557","note":"歯科","count":1,"level":"detail"},{"id":"medical-3-4794","name":"伊藤歯科医院","categoryId":"medical","categoryLabel":"医疗","lat":35.705009,"lng":139.771676,"stationId":"station-003586","note":"歯","count":1,"level":"detail"},{"id":"medical-3-13182","name":"佐古歯科","categoryId":"medical","categoryLabel":"医疗","lat":35.705275,"lng":139.772569,"stationId":"station-003545","note":"歯科","count":1,"level":"detail"},{"id":"medical-3-4819","name":"依田歯科医院","categoryId":"medical","categoryLabel":"医疗","lat":35.700856,"lng":139.767498,"stationId":"station-003605","note":"歯科　矯正歯科　小児歯科","count":1,"level":"detail"},{"id":"medical-2-12445","name":"元浅草いけだクリニック","categoryId":"medical","categoryLabel":"医疗","lat":35.710217,"lng":139.786139,"stationId":"station-003530","note":"内科　消化器　肝臓内科　整形外科　リハビリテーション科","count":1,"level":"detail"},{"id":"medical-3-12446","name":"元浅草歯科医院","categoryId":"medical","categoryLabel":"医疗","lat":35.706828,"lng":139.785347,"stationId":"station-003557","note":"歯科　小児歯科","count":1,"level":"detail"},{"id":"medical-3-18971","name":"入谷ひらしま歯科医院","categoryId":"medical","categoryLabel":"医疗","lat":35.719018,"lng":139.787136,"stationId":"station-003469","note":"歯科　矯正歯科　小児歯科","count":1,"level":"detail"},{"id":"medical-3-18972","name":"入谷ひろまつ矯正歯科クリニック","categoryId":"medical","categoryLabel":"医疗","lat":35.718638,"lng":139.783849,"stationId":"station-003469","note":"小児歯科　矯正歯科　歯科","count":1,"level":"detail"},{"id":"medical-3-18970","name":"入谷デンタルクリニック","categoryId":"medical","categoryLabel":"医疗","lat":35.721544,"lng":139.784762,"stationId":"station-003469","note":"歯科　矯正歯科　小児歯科　歯科口腔外科","count":1,"level":"detail"},{"id":"medical-3-19146","name":"八木下歯科医院","categoryId":"medical","categoryLabel":"医疗","lat":35.714482,"lng":139.787937,"stationId":"station-003530","note":"歯科","count":1,"level":"detail"},{"id":"medical-3-12699","name":"公益社団法人東京都台東区歯科医師会　歯科診療所","categoryId":"medical","categoryLabel":"医疗","lat":35.724133,"lng":139.784316,"stationId":"station-003469","note":"歯科　小児歯科","count":1,"level":"detail"},{"id":"medical-1-12650","name":"公益財団法人　ライフエクステンション研究所付属永寿総合病院","categoryId":"medical","categoryLabel":"医疗","lat":35.709894,"lng":139.779377,"stationId":"station-003519","note":"内科　呼吸器内科　循環器内科　消化器内科　腎臓内科　神経内科　血液内科　糖尿病　内分泌内科　皮膚科　小児科　外科　呼吸器外科　消化器外科　泌尿器科　脳神経外科　整形外科　眼科　耳鼻いんこう科　産婦人科　リハビリ科　放射線科　麻酔科　救急科　精神科","count":1,"level":"detail"},{"id":"medical-2-12674","name":"公益財団法人ライフ・エクステンション研究所付属永寿総合健診・予防医療センター","categoryId":"medical","categoryLabel":"医疗","lat":35.709838,"lng":139.78124,"stationId":"station-003519","note":"内科　婦人科","count":1,"level":"detail"},{"id":"medical-2-12675","name":"公益財団法人愛世会　愛誠病院上野クリ二ック","categoryId":"medical","categoryLabel":"医疗","lat":35.710162,"lng":139.776931,"stationId":"ueno","note":"内科　外科　漢方内科　血管外科","count":1,"level":"detail"},{"id":"medical-2-11992","name":"共立美容外科　上野院","categoryId":"medical","categoryLabel":"医疗","lat":35.70624,"lng":139.77396,"stationId":"station-003555","note":"美容外科　皮膚科　形成外科　泌尿器科","count":1,"level":"detail"},{"id":"medical-2-18737","name":"内藤医院","categoryId":"medical","categoryLabel":"医疗","lat":35.709563,"lng":139.775583,"stationId":"station-003521","note":"内科　糖尿病内科　代謝内科　循環器内科　肝臓内科","count":1,"level":"detail"},{"id":"medical-3-19504","name":"冨永矯正歯科","categoryId":"medical","categoryLabel":"医疗","lat":35.7104,"lng":139.796813,"stationId":"station-003502","note":"矯正歯科","count":1,"level":"detail"},{"id":"medical-3-11177","name":"加藤歯科医院","categoryId":"medical","categoryLabel":"医疗","lat":35.702906,"lng":139.798837,"stationId":"station-003583","note":"歯","count":1,"level":"detail"},{"id":"medical-3-11180","name":"加藤歯科医院","categoryId":"medical","categoryLabel":"医疗","lat":35.700359,"lng":139.786463,"stationId":"station-003636","note":"歯科","count":1,"level":"detail"},{"id":"medical-3-11181","name":"加藤歯科医院","categoryId":"medical","categoryLabel":"医疗","lat":35.707417,"lng":139.782693,"stationId":"station-003557","note":"歯科","count":1,"level":"detail"},{"id":"medical-2-19932","name":"北島クリニック","categoryId":"medical","categoryLabel":"医疗","lat":35.707161,"lng":139.771413,"stationId":"station-003558","note":"神経内科　精神科　心療内科","count":1,"level":"detail"},{"id":"medical-1-4839","name":"医療法人　相生会　墨田病院","categoryId":"medical","categoryLabel":"医疗","lat":35.704194,"lng":139.798868,"stationId":"station-003583","note":"内科","count":1,"level":"detail"},{"id":"medical-2-10571","name":"医療法人仁結会　東京ユニリバースクリニック","categoryId":"medical","categoryLabel":"医疗","lat":35.713986,"lng":139.778469,"stationId":"ueno","note":"内科　腫瘍内科　腎臓内科　漢方内科","count":1,"level":"detail"},{"id":"medical-2-4885","name":"医療法人康裕会　浅草クリニック","categoryId":"medical","categoryLabel":"医疗","lat":35.718511,"lng":139.796646,"stationId":"station-003502","note":"内科　呼吸器内科　循環器内科　消化器内科　糖尿病内科　皮膚科　小児科　必尿器科　脳神経外科　眼科　婦人科　眼科　婦人科","count":1,"level":"detail"},{"id":"medical-2-5093","name":"医療法人社団　あさひな眼科クリニック","categoryId":"medical","categoryLabel":"医疗","lat":35.705145,"lng":139.785402,"stationId":"station-003557","note":"眼科","count":1,"level":"detail"},{"id":"medical-2-5215","name":"医療法人社団　一翔会　増田小児科","categoryId":"medical","categoryLabel":"医疗","lat":35.706068,"lng":139.799683,"stationId":"station-003538","note":"内　小　アレ","count":1,"level":"detail"},{"id":"medical-2-5679","name":"医療法人社団　仁全会　谷口内科","categoryId":"medical","categoryLabel":"医疗","lat":35.722846,"lng":139.786533,"stationId":"station-003469","note":"内科　呼吸器内科　消化器内科","count":1,"level":"detail"},{"id":"medical-2-5459","name":"医療法人社団　佐藤整形外科","categoryId":"medical","categoryLabel":"医疗","lat":35.703205,"lng":139.785036,"stationId":"station-003557","note":"内科　整形外科　リハビリテ　−ション科","count":1,"level":"detail"},{"id":"medical-1-5798","name":"医療法人社団　全仁会　上野病院","categoryId":"medical","categoryLabel":"医疗","lat":35.711315,"lng":139.779251,"stationId":"station-003519","note":"内科","count":1,"level":"detail"},{"id":"medical-3-5199","name":"医療法人社団　医康会　ジェイエムビル歯科医院","categoryId":"medical","categoryLabel":"医疗","lat":35.703437,"lng":139.791517,"stationId":"station-003583","note":"歯科","count":1,"level":"detail"},{"id":"medical-1-5830","name":"医療法人社団　大坪会　東都文京病院","categoryId":"medical","categoryLabel":"医疗","lat":35.70401,"lng":139.767873,"stationId":"station-003558","note":"内科　循環器内科　血液内科　小児科　精神科　神経内科　外科　整形外科　乳腺外科　産婦人科　眼科　耳鼻いんこう科　皮膚科　泌尿器科　リハビリ科　放射線科　麻酔科　歯科　消化器内科　腎臓内科","count":1,"level":"detail"},{"id":"medical-3-5618","name":"医療法人社団　松高会　松下歯科医院","categoryId":"medical","categoryLabel":"医疗","lat":35.709051,"lng":139.770566,"stationId":"station-003543","note":"歯科","count":1,"level":"detail"},{"id":"medical-2-5543","name":"医療法人社団　柴田小児科医院","categoryId":"medical","categoryLabel":"医疗","lat":35.715902,"lng":139.787884,"stationId":"station-003469","note":"アレルギ−科　小児科","count":1,"level":"detail"},{"id":"medical-2-5469","name":"医療法人社団　桜心会　浅草ハートクリニック","categoryId":"medical","categoryLabel":"医疗","lat":35.713257,"lng":139.799792,"stationId":"station-003502","note":"内科　循環器内科","count":1,"level":"detail"},{"id":"medical-2-5731","name":"医療法人社団　正徳会　滝口外科胃腸科整形外科","categoryId":"medical","categoryLabel":"医疗","lat":35.705877,"lng":139.792833,"stationId":"station-003583","note":"消化器内科　外科　整形外科","count":1,"level":"detail"},{"id":"medical-2-6113","name":"医療法人社団　脩心会　北條医院","categoryId":"medical","categoryLabel":"医疗","lat":35.717795,"lng":139.796568,"stationId":"station-003502","note":"産婦人科　婦人科","count":1,"level":"detail"},{"id":"medical-2-6115","name":"医療法人社団　蹊医会　蔵前かとう内科クリニック","categoryId":"medical","categoryLabel":"医疗","lat":35.703492,"lng":139.790853,"stationId":"station-003583","note":"内科　脳神経内科","count":1,"level":"detail"},{"id":"medical-2-5864","name":"医療法人社団　鉄結会　アイシークリニック　上野院","categoryId":"medical","categoryLabel":"医疗","lat":35.710854,"lng":139.777685,"stationId":"ueno","note":"形成外科","count":1,"level":"detail"},{"id":"medical-2-5257","name":"医療法人社団　雅恵会　浅草ふじい眼科","categoryId":"medical","categoryLabel":"医疗","lat":35.71279,"lng":139.793495,"stationId":"station-003502","note":"眼科","count":1,"level":"detail"},{"id":"medical-2-5770","name":"医療法人社団　青和会　井上整形外科","categoryId":"medical","categoryLabel":"医疗","lat":35.719365,"lng":139.796607,"stationId":"station-003502","note":"内科　リウマチ科　整形外科　リハビリ科","count":1,"level":"detail"},{"id":"medical-2-5080","name":"医療法人社団　ＫＤＥ　上野浅草通りクリニック","categoryId":"medical","categoryLabel":"医疗","lat":35.711519,"lng":139.782545,"stationId":"station-003519","note":"内科　糖尿病内科　内分泌内科","count":1,"level":"detail"},{"id":"medical-2-6841","name":"医療法人社団よつ葉の会清家クリニック","categoryId":"medical","categoryLabel":"医疗","lat":35.707965,"lng":139.771481,"stationId":"station-003543","note":"内科　消化器内科　内視鏡　循環器内科　小児科","count":1,"level":"detail"},{"id":"medical-3-6375","name":"医療法人社団イノコシ歯科医院","categoryId":"medical","categoryLabel":"医疗","lat":35.708209,"lng":139.775277,"stationId":"station-003555","note":"歯科","count":1,"level":"detail"},{"id":"medical-2-6397","name":"医療法人社団エイール会　秋葉原アイクリニック","categoryId":"medical","categoryLabel":"医疗","lat":35.700649,"lng":139.779383,"stationId":"akihabara","note":"眼科","count":1,"level":"detail"},{"id":"medical-3-6462","name":"医療法人社団グリーンパーク浅草駅前ヘキサ歯科・矯正歯科","categoryId":"medical","categoryLabel":"医疗","lat":35.711614,"lng":139.792557,"stationId":"station-003502","note":"歯科　矯正歯科　小児歯科　歯科口腔外科","count":1,"level":"detail"},{"id":"medical-3-6622","name":"医療法人社団デンタルプロップス西浅草デンタルクリニック","categoryId":"medical","categoryLabel":"医疗","lat":35.717465,"lng":139.792978,"stationId":"station-003502","note":"歯科　矯正歯科　小児歯科　歯科口腔外科","count":1,"level":"detail"},{"id":"medical-2-6626","name":"医療法人社団トータルライフ医療会東京トータルライフクリニック","categoryId":"medical","categoryLabel":"医疗","lat":35.70921,"lng":139.794741,"stationId":"station-003502","note":"内科　呼吸器内科　消化器内科　漢方内科　老年内科　アレルギー科","count":1,"level":"detail"},{"id":"medical-2-6690","name":"医療法人社団ヒプノシス　雷門メンタルクリ二ック","categoryId":"medical","categoryLabel":"医疗","lat":35.7104,"lng":139.796813,"stationId":"station-003502","note":"精神科　心療内科","count":1,"level":"detail"},{"id":"medical-2-6847","name":"医療法人社団リオラ　リオラビューティークリニック上野院","categoryId":"medical","categoryLabel":"医疗","lat":35.710917,"lng":139.774383,"stationId":"station-003521","note":"皮膚科　形成外科　美容外科","count":1,"level":"detail"},{"id":"medical-2-8541","name":"医療法人社団上伸会　東京上野クリニック上野本院","categoryId":"medical","categoryLabel":"医疗","lat":35.722741,"lng":139.777581,"stationId":"station-003460","note":"泌尿器科　形成外科　性感染症内科　美容外科","count":1,"level":"detail"},{"id":"medical-2-8532","name":"医療法人社団上桜会　ゆうスキン・メンタルクリニック上野院","categoryId":"medical","categoryLabel":"医疗","lat":35.710934,"lng":139.776267,"stationId":"ueno","note":"神経内科　精神科　心療内科　美容皮膚科　皮膚科","count":1,"level":"detail"},{"id":"medical-3-7171","name":"医療法人社団丸戸会　うぐいす歯科クリニック","categoryId":"medical","categoryLabel":"医疗","lat":35.72108,"lng":139.78147,"stationId":"station-003469","note":"歯科　矯正歯科　小児歯科　歯科口腔外科","count":1,"level":"detail"},{"id":"medical-2-7279","name":"医療法人社団協和医会　協和医院","categoryId":"medical","categoryLabel":"医疗","lat":35.706048,"lng":139.776406,"stationId":"station-003560","note":"内科　肝臓内科　内分泌内科　アレルギー科　リウマチ科　糖尿病内科　胃腸内科　循環器内科　小児科　整形外科　乳腺外科","count":1,"level":"detail"},{"id":"medical-2-10132","name":"医療法人社団友好会　秋葉原メディカルクリニック　アネックス","categoryId":"medical","categoryLabel":"医疗","lat":35.70097,"lng":139.774813,"stationId":"akihabara","note":"内","count":1,"level":"detail"},{"id":"medical-3-10408","name":"医療法人社団和寛会蔵前ベリタス歯科","categoryId":"medical","categoryLabel":"医疗","lat":35.701855,"lng":139.789657,"stationId":"station-003583","note":"歯科　矯正歯科　小児歯科　歯科口腔外科","count":1,"level":"detail"},{"id":"medical-2-7351","name":"医療法人社団啓正会　本宮形成・整形外科","categoryId":"medical","categoryLabel":"医疗","lat":35.708694,"lng":139.793181,"stationId":"station-003530","note":"整形外科　形成外科　内科　皮膚科","count":1,"level":"detail"},{"id":"medical-2-8099","name":"医療法人社団四端会　浅草第一診療所","categoryId":"medical","categoryLabel":"医疗","lat":35.719776,"lng":139.794707,"stationId":"station-003502","note":"内科","count":1,"level":"detail"},{"id":"medical-2-9360","name":"医療法人社団大塚診療所","categoryId":"medical","categoryLabel":"医疗","lat":35.70801,"lng":139.769076,"stationId":"station-003558","note":"小児科　内科　アレルギー科","count":1,"level":"detail"},{"id":"medical-2-9481","name":"医療法人社団天神会天神下皮フ科形成外科","categoryId":"medical","categoryLabel":"医疗","lat":35.708099,"lng":139.768907,"stationId":"station-003558","note":"外科　形成外科　皮膚科　美容皮膚科　美容外科","count":1,"level":"detail"},{"id":"medical-2-9758","name":"医療法人社団尾泉会　つちやファミリークリニック","categoryId":"medical","categoryLabel":"医疗","lat":35.721307,"lng":139.78742,"stationId":"station-003469","note":"内科　小児科　小児外科　皮膚科　美容皮膚科","count":1,"level":"detail"},{"id":"medical-2-9759","name":"医療法人社団尾泉会　つちやファミリークリニック浅草院","categoryId":"medical","categoryLabel":"医疗","lat":35.715858,"lng":139.799341,"stationId":"station-003502","note":"皮膚科　美容皮膚科　小児皮膚科","count":1,"level":"detail"},{"id":"medical-2-10451","name":"医療法人社団廣和会　浅草二天門クリニック","categoryId":"medical","categoryLabel":"医疗","lat":35.714838,"lng":139.798088,"stationId":"station-003502","note":"内科　皮膚科　精神科　心療内科　アレルギー科","count":1,"level":"detail"},{"id":"medical-2-10452","name":"医療法人社団廣和会　藤本クリニック","categoryId":"medical","categoryLabel":"医疗","lat":35.720802,"lng":139.770638,"stationId":"station-003483","note":"内科　皮膚科　精神科　心療内科　整形外科　リハリビテ　−ション科","count":1,"level":"detail"},{"id":"medical-2-8598","name":"医療法人社団心清会　浅草ファミリークリニック","categoryId":"medical","categoryLabel":"医疗","lat":35.709499,"lng":139.790895,"stationId":"station-003530","note":"内科　精神科　心療内科","count":1,"level":"detail"},{"id":"medical-3-7366","name":"医療法人社団恵桜会　みんなの歯科クリニック","categoryId":"medical","categoryLabel":"医疗","lat":35.713835,"lng":139.783218,"stationId":"station-003519","note":"歯科　矯正歯科　小児歯科　歯科口腔外科","count":1,"level":"detail"},{"id":"medical-3-10160","name":"医療法人社団悠和会　マツザカヤデンタルクリニック","categoryId":"medical","categoryLabel":"医疗","lat":35.707636,"lng":139.773436,"stationId":"station-003545","note":"歯科　矯正歯科　小児歯科　歯科口腔外科","count":1,"level":"detail"},{"id":"medical-3-7413","name":"医療法人社団慶英会　湯島駅前矯正歯科","categoryId":"medical","categoryLabel":"医疗","lat":35.704751,"lng":139.770027,"stationId":"station-003558","note":"歯科　矯正歯科　小児歯科　歯科口腔外科","count":1,"level":"detail"},{"id":"medical-3-9649","name":"医療法人社団日坂会秋葉原ＵＤＸ歯科クリニック","categoryId":"medical","categoryLabel":"医疗","lat":35.700104,"lng":139.772572,"stationId":"akihabara","note":"歯．矯．小歯．歯外","count":1,"level":"detail"},{"id":"medical-2-10007","name":"医療法人社団明善会　御徒町榎本クリニック","categoryId":"medical","categoryLabel":"医疗","lat":35.707736,"lng":139.779679,"stationId":"station-003557","note":"内科　精神科　心療内科","count":1,"level":"detail"},{"id":"medical-2-8478","name":"医療法人社団昭和育英会湯島三和クリニック","categoryId":"medical","categoryLabel":"医疗","lat":35.706998,"lng":139.766855,"stationId":"station-003558","note":"内科　泌尿器科　整形外科","count":1,"level":"detail"},{"id":"medical-3-9395","name":"医療法人社団智正会中川歯科クリニック","categoryId":"medical","categoryLabel":"医疗","lat":35.700388,"lng":139.776306,"stationId":"akihabara","note":"歯　矯歯　小歯　歯外","count":1,"level":"detail"},{"id":"medical-2-6912","name":"医療法人社団杏生会文京根津クリニック","categoryId":"medical","categoryLabel":"医疗","lat":35.71713,"lng":139.765554,"stationId":"station-003483","note":"内科　老年内科","count":1,"level":"detail"},{"id":"medical-2-9523","name":"医療法人社団東京桜十字　上野御徒町桜十字クリニック","categoryId":"medical","categoryLabel":"医疗","lat":35.70624,"lng":139.77396,"stationId":"station-003555","note":"内科　消化器内科　胃腸内科　婦人科","count":1,"level":"detail"},{"id":"medical-2-10371","name":"医療法人社団林内科クリニック","categoryId":"medical","categoryLabel":"医疗","lat":35.701272,"lng":139.767588,"stationId":"station-003605","note":"内．小","count":1,"level":"detail"},{"id":"medical-2-8902","name":"医療法人社団正誠会林医院","categoryId":"medical","categoryLabel":"医疗","lat":35.702076,"lng":139.770144,"stationId":"station-003586","note":"内．肛．外．皮．消","count":1,"level":"detail"},{"id":"medical-2-8382","name":"医療法人社団淳康会　上野ユナイテッドクリニック","categoryId":"medical","categoryLabel":"医疗","lat":35.713986,"lng":139.778469,"stationId":"ueno","note":"皮膚科　泌尿器科","count":1,"level":"detail"},{"id":"medical-3-8928","name":"医療法人社団清慈会　御徒町パーク歯科クリニック","categoryId":"medical","categoryLabel":"医疗","lat":35.706083,"lng":139.777027,"stationId":"station-003560","note":"歯科　矯正歯科　小児歯科　歯科口腔外科","count":1,"level":"detail"},{"id":"medical-3-9439","name":"医療法人社団直士会　富岡矯正歯科","categoryId":"medical","categoryLabel":"医疗","lat":35.712863,"lng":139.778247,"stationId":"ueno","note":"歯科　矯正歯科","count":1,"level":"detail"},{"id":"medical-3-8330","name":"医療法人社団秀峰会稲葉歯科医院","categoryId":"medical","categoryLabel":"医疗","lat":35.702696,"lng":139.772021,"stationId":"station-003586","note":"歯","count":1,"level":"detail"},{"id":"medical-2-8992","name":"医療法人社団聖桐会御茶ノ水聖橋クリニック","categoryId":"medical","categoryLabel":"医疗","lat":35.701853,"lng":139.765984,"stationId":"station-003605","note":"内科　呼吸器科　消化器科　循環器科　小児科　心療内科　アレルギー科　皮膚科","count":1,"level":"detail"},{"id":"medical-3-9582","name":"医療法人社団藤智会　佐藤歯科医院","categoryId":"medical","categoryLabel":"医疗","lat":35.708469,"lng":139.776693,"stationId":"station-003560","note":"歯科　矯正歯科　小児歯科　歯科口腔外科","count":1,"level":"detail"},{"id":"medical-3-7616","name":"医療法人社団賢優会伊藤歯科医院","categoryId":"medical","categoryLabel":"医疗","lat":35.704925,"lng":139.773181,"stationId":"station-003586","note":"歯．矯","count":1,"level":"detail"},{"id":"medical-3-6210","name":"医療法人社団Ｋ−スマイルデンタルクリニック","categoryId":"medical","categoryLabel":"医疗","lat":35.710934,"lng":139.776267,"stationId":"ueno","note":"歯科　矯正歯科　小児歯科　歯科口腔外科","count":1,"level":"detail"},{"id":"medical-3-6203","name":"医療法人社団ＫＩＮＤ　上野ミント歯科","categoryId":"medical","categoryLabel":"医疗","lat":35.709196,"lng":139.779184,"stationId":"station-003557","note":"歯科　矯正歯科　小児歯科　歯科口腔外科","count":1,"level":"detail"},{"id":"medical-2-4891","name":"医療法人財団　はるたか会　子ども在宅クリニック　あおぞら診療所墨田","categoryId":"medical","categoryLabel":"医疗","lat":35.706832,"lng":139.797906,"stationId":"station-003583","note":"内　小","count":1,"level":"detail"},{"id":"medical-2-16316","name":"千束健康増進センター健康度測定室","categoryId":"medical","categoryLabel":"医疗","lat":35.723195,"lng":139.793693,"stationId":"station-003399","note":"内科","count":1,"level":"detail"},{"id":"medical-3-16347","name":"千葉歯科医院","categoryId":"medical","categoryLabel":"医疗","lat":35.708442,"lng":139.772577,"stationId":"station-003543","note":"歯科","count":1,"level":"detail"},{"id":"medical-3-19172","name":"半田歯科医院","categoryId":"medical","categoryLabel":"医疗","lat":35.709165,"lng":139.785335,"stationId":"station-003519","note":"歯科　小児歯科","count":1,"level":"detail"},{"id":"medical-3-12488","name":"原本歯科医院","categoryId":"medical","categoryLabel":"医疗","lat":35.708364,"lng":139.793977,"stationId":"station-003530","note":"歯科　小児歯科","count":1,"level":"detail"},{"id":"medical-2-16761","name":"台東区立特別養護老人ホーム浅草医務室","categoryId":"medical","categoryLabel":"医疗","lat":35.719103,"lng":139.79339,"stationId":"station-003502","note":"内科","count":1,"level":"detail"},{"id":"medical-2-16762","name":"台東区立特別養護老人ホーム蔵前","categoryId":"medical","categoryLabel":"医疗","lat":35.70366,"lng":139.793011,"stationId":"station-003583","note":"内科　精神科","count":1,"level":"detail"},{"id":"medical-3-16763","name":"台東歯科クリニック","categoryId":"medical","categoryLabel":"医疗","lat":35.709767,"lng":139.795951,"stationId":"station-003502","note":"歯科","count":1,"level":"detail"},{"id":"medical-3-11701","name":"吉井歯科医院","categoryId":"medical","categoryLabel":"医疗","lat":35.70093,"lng":139.770625,"stationId":"station-003586","note":"歯","count":1,"level":"detail"},{"id":"medical-2-11781","name":"吉田産婦人科医院","categoryId":"medical","categoryLabel":"医疗","lat":35.715381,"lng":139.766065,"stationId":"station-003483","note":"内科　産科　婦人科","count":1,"level":"detail"},{"id":"medical-2-11813","name":"吉野眼科クリ二ック","categoryId":"medical","categoryLabel":"医疗","lat":35.707802,"lng":139.772682,"stationId":"station-003543","note":"眼科","count":1,"level":"detail"},{"id":"medical-3-12715","name":"向津歯科医院","categoryId":"medical","categoryLabel":"医疗","lat":35.716021,"lng":139.781128,"stationId":"station-003519","note":"歯科","count":1,"level":"detail"},{"id":"medical-2-19376","name":"品川スキンクリニック上野院","categoryId":"medical","categoryLabel":"医疗","lat":35.708575,"lng":139.772857,"stationId":"station-003543","note":"美容外科　美容皮膚科","count":1,"level":"detail"},{"id":"medical-3-19399","name":"品川歯科医院","categoryId":"medical","categoryLabel":"医疗","lat":35.712338,"lng":139.787475,"stationId":"station-003530","note":"歯科","count":1,"level":"detail"},{"id":"medical-2-19409","name":"品川美容外科上野院","categoryId":"medical","categoryLabel":"医疗","lat":35.708575,"lng":139.772857,"stationId":"station-003543","note":"美容外科　美容皮膚科","count":1,"level":"detail"},{"id":"medical-2-16510","name":"善平医院","categoryId":"medical","categoryLabel":"医疗","lat":35.711681,"lng":139.783831,"stationId":"station-003519","note":"内科　小児科","count":1,"level":"detail"},{"id":"medical-2-13799","name":"四丁目クリニック","categoryId":"medical","categoryLabel":"医疗","lat":35.709122,"lng":139.785174,"stationId":"station-003557","note":"内科　小児科　外科　肛門外科","count":1,"level":"detail"},{"id":"medical-3-17991","name":"土田歯科医院","categoryId":"medical","categoryLabel":"医疗","lat":35.722112,"lng":139.7909,"stationId":"station-003469","note":"歯科　矯正歯科　小児歯科","count":1,"level":"detail"},{"id":"medical-3-13336","name":"坂本歯科医院","categoryId":"medical","categoryLabel":"医疗","lat":35.721215,"lng":139.771563,"stationId":"station-003460","note":"歯科","count":1,"level":"detail"},{"id":"medical-2-15042","name":"城所医院","categoryId":"medical","categoryLabel":"医疗","lat":35.718629,"lng":139.785099,"stationId":"station-003469","note":"内科　循環器内科　小児科　放射線科","count":1,"level":"detail"},{"id":"medical-2-17660","name":"塚本医院","categoryId":"medical","categoryLabel":"医疗","lat":35.708168,"lng":139.775478,"stationId":"station-003555","note":"内科","count":1,"level":"detail"},{"id":"medical-2-10906","name":"塩川内科医院","categoryId":"medical","categoryLabel":"医疗","lat":35.718098,"lng":139.791703,"stationId":"station-003469","note":"内科　循環器内科　小児科","count":1,"level":"detail"},{"id":"medical-2-19954","name":"墨田区保健所　本所保健センター","categoryId":"medical","categoryLabel":"医疗","lat":35.705482,"lng":139.798029,"stationId":"station-003583","note":"内　小","count":1,"level":"detail"},{"id":"medical-3-11318","name":"外神田歯科","categoryId":"medical","categoryLabel":"医疗","lat":35.703122,"lng":139.769132,"stationId":"station-003586","note":"歯","count":1,"level":"detail"},{"id":"medical-3-16807","name":"大久保歯科医院","categoryId":"medical","categoryLabel":"医疗","lat":35.707588,"lng":139.780553,"stationId":"station-003557","note":"歯科","count":1,"level":"detail"},{"id":"medical-2-17044","name":"大同クリ二ック","categoryId":"medical","categoryLabel":"医疗","lat":35.705603,"lng":139.773497,"stationId":"station-003555","note":"内科　外科　整形外科","count":1,"level":"detail"},{"id":"medical-2-16985","name":"大塚医院","categoryId":"medical","categoryLabel":"医疗","lat":35.719579,"lng":139.793018,"stationId":"station-003469","note":"内科　婦人科","count":1,"level":"detail"},{"id":"medical-3-17024","name":"大田原歯科クリニック","categoryId":"medical","categoryLabel":"医疗","lat":35.723218,"lng":139.783553,"stationId":"station-003469","note":"歯科　小児歯科　歯科口腔外科","count":1,"level":"detail"},{"id":"medical-3-10928","name":"奥沢歯科医院","categoryId":"medical","categoryLabel":"医疗","lat":35.718531,"lng":139.787456,"stationId":"station-003469","note":"歯科　矯正歯科　小児歯科　歯科口腔外科","count":1,"level":"detail"},{"id":"medical-2-10931","name":"奥田医院","categoryId":"medical","categoryLabel":"医疗","lat":35.703406,"lng":139.768891,"stationId":"station-003586","note":"内科　小児科　胃腸科","count":1,"level":"detail"},{"id":"medical-2-4753","name":"安倍医院","categoryId":"medical","categoryLabel":"医疗","lat":35.724393,"lng":139.790623,"stationId":"station-003399","note":"内科　消化器内科　外科　整形外科","count":1,"level":"detail"},{"id":"medical-3-4734","name":"安田歯科醫院","categoryId":"medical","categoryLabel":"医疗","lat":35.713493,"lng":139.798339,"stationId":"station-003502","note":"歯科　小児歯科　歯科口腔外科","count":1,"level":"detail"},{"id":"medical-3-14489","name":"小坂歯科医院","categoryId":"medical","categoryLabel":"医疗","lat":35.710056,"lng":139.779626,"stationId":"station-003519","note":"歯科　小児歯科","count":1,"level":"detail"},{"id":"medical-2-14545","name":"小川眼科診療所","categoryId":"medical","categoryLabel":"医疗","lat":35.709051,"lng":139.770566,"stationId":"station-003543","note":"眼科","count":1,"level":"detail"},{"id":"medical-3-14682","name":"小林歯科","categoryId":"medical","categoryLabel":"医疗","lat":35.711193,"lng":139.775258,"stationId":"station-003521","note":"歯科","count":1,"level":"detail"},{"id":"medical-3-14699","name":"小林歯科医院","categoryId":"medical","categoryLabel":"医疗","lat":35.712891,"lng":139.790784,"stationId":"station-003530","note":"歯科　歯科口腔外科","count":1,"level":"detail"},{"id":"medical-3-14526","name":"小森歯科医院","categoryId":"medical","categoryLabel":"医疗","lat":35.711352,"lng":139.778041,"stationId":"ueno","note":"歯科　歯科口腔外科","count":1,"level":"detail"},{"id":"medical-3-14565","name":"小泉歯科クリニック","categoryId":"medical","categoryLabel":"医疗","lat":35.721311,"lng":139.78031,"stationId":"station-003460","note":"歯科　矯正歯科　小児歯科","count":1,"level":"detail"},{"id":"medical-3-14614","name":"小田島歯科クリニック","categoryId":"medical","categoryLabel":"医疗","lat":35.704026,"lng":139.772176,"stationId":"station-003586","note":"歯．矯．小歯．歯外","count":1,"level":"detail"},{"id":"medical-3-14656","name":"小野歯科医院","categoryId":"medical","categoryLabel":"医疗","lat":35.722449,"lng":139.783413,"stationId":"station-003469","note":"歯科　歯科口腔外科","count":1,"level":"detail"},{"id":"medical-2-19305","name":"尾中内科","categoryId":"medical","categoryLabel":"医疗","lat":35.708801,"lng":139.775326,"stationId":"station-003555","note":"内科","count":1,"level":"detail"},{"id":"medical-3-13613","name":"山口よしのぶ歯科医院","categoryId":"medical","categoryLabel":"医疗","lat":35.718103,"lng":139.791006,"stationId":"station-003469","note":"歯科　小児歯科　歯科口腔外科","count":1,"level":"detail"},{"id":"medical-3-13624","name":"山口歯科医院","categoryId":"medical","categoryLabel":"医疗","lat":35.71664,"lng":139.785321,"stationId":"station-003469","note":"歯科　小児歯科","count":1,"level":"detail"},{"id":"medical-3-13604","name":"山岸歯科医院","categoryId":"medical","categoryLabel":"医疗","lat":35.705004,"lng":139.792119,"stationId":"station-003583","note":"歯科","count":1,"level":"detail"},{"id":"medical-3-13749","name":"山本歯科医院","categoryId":"medical","categoryLabel":"医疗","lat":35.706494,"lng":139.780751,"stationId":"station-003557","note":"歯科","count":1,"level":"detail"},{"id":"medical-3-13750","name":"山本歯科医院","categoryId":"medical","categoryLabel":"医疗","lat":35.706624,"lng":139.770301,"stationId":"station-003558","note":"歯科","count":1,"level":"detail"},{"id":"medical-3-13751","name":"山本歯科医院","categoryId":"medical","categoryLabel":"医疗","lat":35.706301,"lng":139.790215,"stationId":"station-003583","note":"歯科","count":1,"level":"detail"},{"id":"medical-2-13687","name":"山田英明下町クリニック","categoryId":"medical","categoryLabel":"医疗","lat":35.714838,"lng":139.792058,"stationId":"station-003502","note":"内科　呼吸器内科　循環器内科　消化器内科　外科　肛門外科","count":1,"level":"detail"},{"id":"medical-3-13768","name":"山﨑健幸歯科クリニック","categoryId":"medical","categoryLabel":"医疗","lat":35.707168,"lng":139.769716,"stationId":"station-003558","note":"歯科　小児歯科","count":1,"level":"detail"},{"id":"medical-2-11015","name":"岡添耳鼻咽喉科眼科医院","categoryId":"medical","categoryLabel":"医疗","lat":35.71392,"lng":139.791281,"stationId":"station-003502","note":"小児科　眼科　耳鼻いんこう科","count":1,"level":"detail"},{"id":"medical-2-11583","name":"岩佐医院","categoryId":"medical","categoryLabel":"医疗","lat":35.705478,"lng":139.781435,"stationId":"station-003557","note":"内科　循環器内科　小児科　脳神経外科","count":1,"level":"detail"},{"id":"medical-3-11615","name":"岩本歯科","categoryId":"medical","categoryLabel":"医疗","lat":35.714656,"lng":139.788543,"stationId":"station-003530","note":"歯科","count":1,"level":"detail"},{"id":"medical-3-11580","name":"岩間歯科医院","categoryId":"medical","categoryLabel":"医疗","lat":35.724516,"lng":139.791261,"stationId":"station-003399","note":"歯科","count":1,"level":"detail"},{"id":"medical-2-18011","name":"島田クリニック","categoryId":"medical","categoryLabel":"医疗","lat":35.707805,"lng":139.79335,"stationId":"station-003530","note":"内科　神経内科　小児科　麻酔科　理学診療科","count":1,"level":"detail"},{"id":"medical-3-16394","name":"川又歯科医院","categoryId":"medical","categoryLabel":"医疗","lat":35.702464,"lng":139.782442,"stationId":"station-003557","note":"歯科","count":1,"level":"detail"},{"id":"medical-3-14735","name":"庄司歯科医院","categoryId":"medical","categoryLabel":"医疗","lat":35.715865,"lng":139.791104,"stationId":"station-003502","note":"歯科","count":1,"level":"detail"},{"id":"medical-3-12629","name":"御徒町イースト歯科","categoryId":"medical","categoryLabel":"医疗","lat":35.707686,"lng":139.777998,"stationId":"station-003560","note":"小児歯科　矯正歯科　歯科","count":1,"level":"detail"},{"id":"medical-3-12630","name":"御徒町駅前歯科クリニック","categoryId":"medical","categoryLabel":"医疗","lat":35.707614,"lng":139.777995,"stationId":"station-003560","note":"歯科　矯正歯科　小児歯科　歯科口腔外科","count":1,"level":"detail"},{"id":"medical-2-12625","name":"御茶ノ水ファミリークリニック","categoryId":"medical","categoryLabel":"医疗","lat":35.702098,"lng":139.766185,"stationId":"station-003605","note":"小児科　内科","count":1,"level":"detail"},{"id":"medical-3-12539","name":"戸沢歯科医院","categoryId":"medical","categoryLabel":"医疗","lat":35.71663,"lng":139.797488,"stationId":"station-003502","note":"歯科","count":1,"level":"detail"},{"id":"medical-3-14238","name":"手島歯科医院","categoryId":"medical","categoryLabel":"医疗","lat":35.724584,"lng":139.789803,"stationId":"station-003399","note":"歯科　小児歯科","count":1,"level":"detail"},{"id":"medical-3-16055","name":"斉藤歯科医院","categoryId":"medical","categoryLabel":"医疗","lat":35.700073,"lng":139.799475,"stationId":"station-003646","note":"歯","count":1,"level":"detail"},{"id":"medical-2-13301","name":"斎藤耳鼻咽喉科医院","categoryId":"medical","categoryLabel":"医疗","lat":35.721149,"lng":139.785286,"stationId":"station-003469","note":"耳鼻いんこう科","count":1,"level":"detail"},{"id":"medical-2-15110","name":"新吉原性感染症検診所","categoryId":"medical","categoryLabel":"医疗","lat":35.722878,"lng":139.794163,"stationId":"station-003399","note":"感染症内科　性感染症内科","count":1,"level":"detail"},{"id":"medical-3-15133","name":"新御徒町やまぐち歯科医院","categoryId":"medical","categoryLabel":"医疗","lat":35.705816,"lng":139.781973,"stationId":"station-003557","note":"歯科　矯正歯科　小児歯科　歯科口腔外科","count":1,"level":"detail"},{"id":"medical-3-15134","name":"新御徒町歯科","categoryId":"medical","categoryLabel":"医疗","lat":35.706955,"lng":139.784335,"stationId":"station-003557","note":"歯科　矯正歯科","count":1,"level":"detail"},{"id":"medical-2-18857","name":"日鉄建材株式会社　本社診療所","categoryId":"medical","categoryLabel":"医疗","lat":35.700104,"lng":139.772572,"stationId":"akihabara","note":"内科","count":1,"level":"detail"},{"id":"medical-2-20116","name":"明神下診療所","categoryId":"medical","categoryLabel":"医疗","lat":35.704296,"lng":139.77227,"stationId":"station-003586","note":"精　神内","count":1,"level":"detail"},{"id":"medical-3-14748","name":"昭和通り歯科","categoryId":"medical","categoryLabel":"医疗","lat":35.703567,"lng":139.775543,"stationId":"station-003560","note":"歯科　矯正歯科　小児歯科","count":1,"level":"detail"},{"id":"medical-3-12407","name":"月山歯科医院","categoryId":"medical","categoryLabel":"医疗","lat":35.710534,"lng":139.783476,"stationId":"station-003519","note":"歯科　矯正歯科　小児歯科　歯科口腔外科","count":1,"level":"detail"},{"id":"medical-2-20082","name":"末広町ヒライ耳鼻咽喉科","categoryId":"medical","categoryLabel":"医疗","lat":35.704206,"lng":139.772168,"stationId":"station-003586","note":"耳鼻いんこう科　アレルギー科　小児耳鼻咽喉科","count":1,"level":"detail"},{"id":"medical-3-20019","name":"本所歯科","categoryId":"medical","categoryLabel":"医疗","lat":35.703822,"lng":139.798415,"stationId":"station-003583","note":"歯　小歯　口外","count":1,"level":"detail"},{"id":"medical-2-15569","name":"杉山クリニック","categoryId":"medical","categoryLabel":"医疗","lat":35.706725,"lng":139.779325,"stationId":"station-003557","note":"内科　神経内科　精神科　心療内科","count":1,"level":"detail"},{"id":"medical-3-18348","name":"東上野ホワイトデンタル","categoryId":"medical","categoryLabel":"医疗","lat":35.7098,"lng":139.778665,"stationId":"station-003519","note":"歯科　矯正歯科　小児歯科　歯科口腔外科","count":1,"level":"detail"},{"id":"medical-2-18071","name":"東京あしの血管クリニック上野院","categoryId":"medical","categoryLabel":"医疗","lat":35.708711,"lng":139.775602,"stationId":"station-003555","note":"外科　血管外科","count":1,"level":"detail"},{"id":"medical-2-18105","name":"東京ノーストクリニック","categoryId":"medical","categoryLabel":"医疗","lat":35.71131,"lng":139.780988,"stationId":"station-003519","note":"泌尿器科　形成外科　美容外科","count":1,"level":"detail"},{"id":"medical-2-18144","name":"東京レオンクリニック上野院","categoryId":"medical","categoryLabel":"医疗","lat":35.708555,"lng":139.775631,"stationId":"station-003555","note":"男性内科","count":1,"level":"detail"},{"id":"medical-2-18306","name":"東京保健生活協同組合　蔵前協立診療所","categoryId":"medical","categoryLabel":"医疗","lat":35.705619,"lng":139.786421,"stationId":"station-003557","note":"内科　循環器内科","count":1,"level":"detail"},{"id":"medical-2-18171","name":"東京芸術大学　保健管理センター","categoryId":"medical","categoryLabel":"医疗","lat":35.719541,"lng":139.772964,"stationId":"station-003460","note":"内科　呼吸器内科　アレルギー科　精神科　整形外科","count":1,"level":"detail"},{"id":"medical-2-18314","name":"東京薬業健康保険組合　東上野診療所","categoryId":"medical","categoryLabel":"医疗","lat":35.708457,"lng":139.781383,"stationId":"station-003557","note":"内科　呼吸器内科　循環器内科　消化器内科　放射線科","count":1,"level":"detail"},{"id":"medical-2-18258","name":"東京都台東区台東保健所","categoryId":"medical","categoryLabel":"医疗","lat":35.714461,"lng":139.7815,"stationId":"station-003519","note":"内科　歯科","count":1,"level":"detail"},{"id":"medical-1-18259","name":"東京都台東区立台東病院","categoryId":"medical","categoryLabel":"医疗","lat":35.722759,"lng":139.792628,"stationId":"station-003399","note":"内科　整形外科　眼科　耳鼻いんこう科　皮膚科　泌尿器科　リハビリ科","count":1,"level":"detail"},{"id":"medical-2-18276","name":"東京都立精神保健福祉センター","categoryId":"medical","categoryLabel":"医疗","lat":35.717363,"lng":139.781208,"stationId":"station-003469","note":"精神科","count":1,"level":"detail"},{"id":"medical-2-18349","name":"東食健保健康管理センター","categoryId":"medical","categoryLabel":"医疗","lat":35.709548,"lng":139.781039,"stationId":"station-003519","note":"内科　呼吸器内科　循環器内科　消化器内科","count":1,"level":"detail"},{"id":"medical-3-14796","name":"松原歯科クリニック","categoryId":"medical","categoryLabel":"医疗","lat":35.708572,"lng":139.783211,"stationId":"station-003557","note":"歯科　歯科口腔外科","count":1,"level":"detail"},{"id":"medical-2-14804","name":"松坂屋上野店健康管理室","categoryId":"medical","categoryLabel":"医疗","lat":35.708946,"lng":139.774272,"stationId":"station-003543","note":"内科","count":1,"level":"detail"},{"id":"medical-3-14874","name":"松木歯科医院","categoryId":"medical","categoryLabel":"医疗","lat":35.705221,"lng":139.782183,"stationId":"station-003557","note":"歯科","count":1,"level":"detail"},{"id":"medical-3-14828","name":"松田歯科医院","categoryId":"medical","categoryLabel":"医疗","lat":35.709975,"lng":139.773901,"stationId":"station-003521","note":"歯科","count":1,"level":"detail"},{"id":"medical-2-14037","name":"柴原医院","categoryId":"medical","categoryLabel":"医疗","lat":35.717669,"lng":139.768157,"stationId":"station-003483","note":"内科　小児科","count":1,"level":"detail"},{"id":"medical-2-11330","name":"柿本内科小児科","categoryId":"medical","categoryLabel":"医疗","lat":35.72258,"lng":139.781223,"stationId":"station-003460","note":"内科　小児科","count":1,"level":"detail"},{"id":"medical-2-20826","name":"栁田医院","categoryId":"medical","categoryLabel":"医疗","lat":35.710053,"lng":139.793385,"stationId":"station-003530","note":"皮膚科","count":1,"level":"detail"},{"id":"medical-2-13158","name":"根岸眼科クリニック","categoryId":"medical","categoryLabel":"医疗","lat":35.724232,"lng":139.784785,"stationId":"station-003469","note":"眼科","count":1,"level":"detail"},{"id":"medical-3-13170","name":"根日屋歯科クリニック","categoryId":"medical","categoryLabel":"医疗","lat":35.704118,"lng":139.7798,"stationId":"station-003557","note":"歯科","count":1,"level":"detail"},{"id":"medical-2-13162","name":"根津えんぜる眼科","categoryId":"medical","categoryLabel":"医疗","lat":35.718927,"lng":139.766349,"stationId":"station-003483","note":"眼科","count":1,"level":"detail"},{"id":"medical-3-13164","name":"根津の街歯科","categoryId":"medical","categoryLabel":"医疗","lat":35.718638,"lng":139.765994,"stationId":"station-003483","note":"歯科　矯正歯科　小児歯科　歯科口腔外科","count":1,"level":"detail"},{"id":"medical-2-13161","name":"根津・谷中レディースクリニック","categoryId":"medical","categoryLabel":"医疗","lat":35.719331,"lng":139.767695,"stationId":"station-003483","note":"内科　心療内科　産婦人科","count":1,"level":"detail"},{"id":"medical-2-13166","name":"根津宮永町診療所","categoryId":"medical","categoryLabel":"医疗","lat":35.718069,"lng":139.765667,"stationId":"station-003483","note":"内科　循環器内科　消化器内科","count":1,"level":"detail"},{"id":"medical-2-13169","name":"根津皮フ科クリニック","categoryId":"medical","categoryLabel":"医疗","lat":35.719292,"lng":139.767514,"stationId":"station-003483","note":"皮膚科　小児皮膚科　美容皮膚科　アレルギー科","count":1,"level":"detail"},{"id":"medical-3-12053","name":"桐野歯科","categoryId":"medical","categoryLabel":"医疗","lat":35.700772,"lng":139.768615,"stationId":"station-003605","note":"歯","count":1,"level":"detail"},{"id":"medical-2-13386","name":"桜木内科クリニック","categoryId":"medical","categoryLabel":"医疗","lat":35.720318,"lng":139.769765,"stationId":"station-003483","note":"内科　糖尿病内科","count":1,"level":"detail"},{"id":"medical-2-15288","name":"森一貫堂医院","categoryId":"medical","categoryLabel":"医疗","lat":35.709453,"lng":139.778982,"stationId":"station-003519","note":"内科","count":1,"level":"detail"},{"id":"medical-2-15302","name":"森山眼科医院","categoryId":"medical","categoryLabel":"医疗","lat":35.700337,"lng":139.771087,"stationId":"station-003586","note":"眼","count":1,"level":"detail"},{"id":"medical-2-11358","name":"楽視眼科","categoryId":"medical","categoryLabel":"医疗","lat":35.720216,"lng":139.797748,"stationId":"station-003502","note":"眼科","count":1,"level":"detail"},{"id":"medical-3-19564","name":"武田歯科医院","categoryId":"medical","categoryLabel":"医疗","lat":35.721841,"lng":139.7813,"stationId":"station-003460","note":"歯科　小児歯科","count":1,"level":"detail"},{"id":"medical-3-19782","name":"母家歯科医院","categoryId":"medical","categoryLabel":"医疗","lat":35.701017,"lng":139.789415,"stationId":"station-003583","note":"歯科","count":1,"level":"detail"},{"id":"medical-3-19267","name":"比留間歯科医院","categoryId":"medical","categoryLabel":"医疗","lat":35.711973,"lng":139.780012,"stationId":"station-003519","note":"歯科　矯正歯科　歯科口腔外科","count":1,"level":"detail"},{"id":"medical-3-10829","name":"永井歯科クリニック","categoryId":"medical","categoryLabel":"医疗","lat":35.719467,"lng":139.76781,"stationId":"station-003483","note":"歯科　矯正歯科","count":1,"level":"detail"},{"id":"medical-3-10848","name":"永田歯科医院","categoryId":"medical","categoryLabel":"医疗","lat":35.714544,"lng":139.785603,"stationId":"station-003519","note":"歯科","count":1,"level":"detail"},{"id":"medical-3-10842","name":"永石歯科クリニック","categoryId":"medical","categoryLabel":"医疗","lat":35.710573,"lng":139.788095,"stationId":"station-003530","note":"歯科","count":1,"level":"detail"},{"id":"medical-3-12792","name":"江口歯科クリニック","categoryId":"medical","categoryLabel":"医疗","lat":35.710972,"lng":139.783423,"stationId":"station-003519","note":"歯科","count":1,"level":"detail"},{"id":"medical-3-12817","name":"江里口歯科医院","categoryId":"medical","categoryLabel":"医疗","lat":35.719859,"lng":139.787403,"stationId":"station-003469","note":"歯科","count":1,"level":"detail"},{"id":"medical-2-17263","name":"池之端クリニック","categoryId":"medical","categoryLabel":"医疗","lat":35.709972,"lng":139.773188,"stationId":"station-003521","note":"眼科","count":1,"level":"detail"},{"id":"medical-2-17264","name":"池之端眼科クリニック","categoryId":"medical","categoryLabel":"医疗","lat":35.715786,"lng":139.766785,"stationId":"station-003483","note":"眼科　美容皮膚科","count":1,"level":"detail"},{"id":"medical-3-17265","name":"池野谷歯科医院","categoryId":"medical","categoryLabel":"医疗","lat":35.70995,"lng":139.788942,"stationId":"station-003530","note":"歯科","count":1,"level":"detail"},{"id":"medical-3-11213","name":"河合歯科医院","categoryId":"medical","categoryLabel":"医疗","lat":35.718017,"lng":139.788615,"stationId":"station-003469","note":"歯科","count":1,"level":"detail"},{"id":"medical-3-11255","name":"河野歯科医院","categoryId":"medical","categoryLabel":"医疗","lat":35.704879,"lng":139.777937,"stationId":"station-003560","note":"歯科　矯正歯科　歯科口腔外科","count":1,"level":"detail"},{"id":"medical-3-16449","name":"浅田歯科医院","categoryId":"medical","categoryLabel":"医疗","lat":35.711347,"lng":139.780771,"stationId":"station-003519","note":"歯科","count":1,"level":"detail"},{"id":"medical-2-16435","name":"浅草のもとクリニック","categoryId":"medical","categoryLabel":"医疗","lat":35.716752,"lng":139.795746,"stationId":"station-003502","note":"内科　脳神経内科　小児科","count":1,"level":"detail"},{"id":"medical-3-16434","name":"浅草スカイデンタルクリニック","categoryId":"medical","categoryLabel":"医疗","lat":35.715286,"lng":139.799945,"stationId":"station-003502","note":"歯科　小児歯科　歯科口腔外科","count":1,"level":"detail"},{"id":"medical-2-16443","name":"浅草中央診療所","categoryId":"medical","categoryLabel":"医疗","lat":35.712132,"lng":139.791857,"stationId":"station-003530","note":"内科　皮膚科　小児科　性病科","count":1,"level":"detail"},{"id":"medical-1-16442","name":"浅草寺病院","categoryId":"medical","categoryLabel":"医疗","lat":35.715842,"lng":139.796621,"stationId":"station-003502","note":"内科　消化器内科　循環器内科　小児科　呼吸器内科　神経内科　外科　消化器外科　整形外科　眼科　耳鼻いんこう科　泌尿器科　肛門外科","count":1,"level":"detail"},{"id":"medical-2-16436","name":"浅草胃腸肛門クリニック","categoryId":"medical","categoryLabel":"医疗","lat":35.711133,"lng":139.798308,"stationId":"station-003502","note":"大腸　肛門外科　胃腸内科　消化器内科　内視鏡","count":1,"level":"detail"},{"id":"medical-2-16444","name":"浅草馬道奥野整形外科医院","categoryId":"medical","categoryLabel":"医疗","lat":35.714838,"lng":139.798088,"stationId":"station-003502","note":"内科　整形外科　リハビリテ　−ション科","count":1,"level":"detail"},{"id":"medical-3-16433","name":"浅草ＫＴ歯科","categoryId":"medical","categoryLabel":"医疗","lat":35.712879,"lng":139.792798,"stationId":"station-003502","note":"歯科　矯正歯科　小児歯科　歯科口腔外科","count":1,"level":"detail"},{"id":"medical-2-19422","name":"浜松町第一クリニック上野院","categoryId":"medical","categoryLabel":"医疗","lat":35.712728,"lng":139.777901,"stationId":"ueno","note":"内科　男内","count":1,"level":"detail"},{"id":"medical-3-15344","name":"深井歯科医院","categoryId":"medical","categoryLabel":"医疗","lat":35.712005,"lng":139.795685,"stationId":"station-003502","note":"歯科　小児歯科","count":1,"level":"detail"},{"id":"medical-2-17911","name":"渡辺医院","categoryId":"medical","categoryLabel":"医疗","lat":35.723661,"lng":139.787111,"stationId":"station-003469","note":"内科　消化器内科　小児科　放射線科","count":1,"level":"detail"},{"id":"medical-3-17930","name":"渡辺歯科医院","categoryId":"medical","categoryLabel":"医疗","lat":35.715381,"lng":139.766065,"stationId":"station-003483","note":"歯科　小児歯科","count":1,"level":"detail"},{"id":"medical-3-17931","name":"渡辺歯科医院","categoryId":"medical","categoryLabel":"医疗","lat":35.719189,"lng":139.792672,"stationId":"station-003469","note":"歯科　小児歯科　歯科口腔外科","count":1,"level":"detail"},{"id":"medical-2-17944","name":"渡邊医院","categoryId":"medical","categoryLabel":"医疗","lat":35.713198,"lng":139.789077,"stationId":"station-003530","note":"内科　消化器内科　小児科　外科","count":1,"level":"detail"},{"id":"medical-3-17945","name":"渡邊歯科医院","categoryId":"medical","categoryLabel":"医疗","lat":35.713232,"lng":139.788894,"stationId":"station-003530","note":"歯科　矯正歯科　小児歯科　歯科口腔外科","count":1,"level":"detail"},{"id":"medical-2-14911","name":"湘南美容クリニック上野院","categoryId":"medical","categoryLabel":"医疗","lat":35.70911,"lng":139.773003,"stationId":"station-003543","note":"皮膚科　美容皮膚科　形成外科　美容外科","count":1,"level":"detail"},{"id":"medical-2-14909","name":"湘南美容クリニック秋葉原院","categoryId":"medical","categoryLabel":"医疗","lat":35.701722,"lng":139.775185,"stationId":"station-003586","note":"美容外科　美容皮膚科","count":1,"level":"detail"},{"id":"medical-3-18429","name":"湯島佐藤歯科","categoryId":"medical","categoryLabel":"医疗","lat":35.705086,"lng":139.765628,"stationId":"station-003558","note":"歯科　矯正歯科　小児歯科　歯科口腔外科","count":1,"level":"detail"},{"id":"medical-3-18430","name":"湯島歯科医院","categoryId":"medical","categoryLabel":"医疗","lat":35.707115,"lng":139.767805,"stationId":"station-003558","note":"歯科　小児歯科　歯科口腔外科","count":1,"level":"detail"},{"id":"medical-2-18538","name":"特別区人事厚生事務組合　しのばず荘","categoryId":"medical","categoryLabel":"医疗","lat":35.717223,"lng":139.778591,"stationId":"station-003460","note":"内科","count":1,"level":"detail"},{"id":"medical-2-18560","name":"特別養護老人ホーム　フレスコ浅草　医務室","categoryId":"medical","categoryLabel":"医疗","lat":35.721833,"lng":139.796102,"stationId":"station-003399","note":"内科","count":1,"level":"detail"},{"id":"medical-2-18653","name":"特別養護老人ホーム台東","categoryId":"medical","categoryLabel":"医疗","lat":35.701769,"lng":139.777966,"stationId":"akihabara","note":"内科　精神科","count":1,"level":"detail"},{"id":"medical-3-12048","name":"玉野歯科医院","categoryId":"medical","categoryLabel":"医疗","lat":35.706843,"lng":139.779053,"stationId":"station-003560","note":"歯科","count":1,"level":"detail"},{"id":"medical-3-10814","name":"瓜生歯科医院","categoryId":"medical","categoryLabel":"医疗","lat":35.718638,"lng":139.765994,"stationId":"station-003483","note":"歯科　小児歯科","count":1,"level":"detail"},{"id":"medical-3-19041","name":"白井歯科医院","categoryId":"medical","categoryLabel":"医疗","lat":35.719416,"lng":139.784089,"stationId":"station-003469","note":"歯科","count":1,"level":"detail"},{"id":"medical-3-16149","name":"石川歯科医院","categoryId":"medical","categoryLabel":"医疗","lat":35.710014,"lng":139.797786,"stationId":"station-003502","note":"歯科","count":1,"level":"detail"},{"id":"medical-3-16126","name":"石神歯科医院","categoryId":"medical","categoryLabel":"医疗","lat":35.705882,"lng":139.769715,"stationId":"station-003558","note":"歯科","count":1,"level":"detail"},{"id":"medical-3-10675","name":"磯部歯科医院","categoryId":"medical","categoryLabel":"医疗","lat":35.709283,"lng":139.791062,"stationId":"station-003530","note":"歯科　歯科口腔外科","count":1,"level":"detail"},{"id":"medical-1-15393","name":"神経科土田病院","categoryId":"medical","categoryLabel":"医疗","lat":35.721449,"lng":139.772546,"stationId":"station-003460","note":"内科　精神科　心療内科","count":1,"level":"detail"},{"id":"medical-2-19609","name":"福井医院","categoryId":"medical","categoryLabel":"医疗","lat":35.703978,"lng":139.798731,"stationId":"station-003583","note":"内　整外　小","count":1,"level":"detail"},{"id":"medical-3-19618","name":"福山歯科医院","categoryId":"medical","categoryLabel":"医疗","lat":35.709563,"lng":139.775583,"stationId":"station-003521","note":"歯科　矯正歯科　小児歯科　歯科口腔外科","count":1,"level":"detail"},{"id":"medical-2-14301","name":"秋葉原スキンクリニック","categoryId":"medical","categoryLabel":"医疗","lat":35.702064,"lng":139.772212,"stationId":"station-003586","note":"皮．美皮","count":1,"level":"detail"},{"id":"medical-2-14308","name":"秋葉原内科ｓａｖｅクリニック","categoryId":"medical","categoryLabel":"医疗","lat":35.701675,"lng":139.76895,"stationId":"station-003586","note":"内科　皮フ科　胃腸内科　消化器内科　精神科　小児科","count":1,"level":"detail"},{"id":"medical-3-14306","name":"秋葉原総合歯科クリニック","categoryId":"medical","categoryLabel":"医疗","lat":35.701924,"lng":139.775291,"stationId":"station-003586","note":"歯科　矯正歯科　小児歯科　歯科口腔外科","count":1,"level":"detail"},{"id":"medical-2-14297","name":"秋葉原ＡＲＴＣｌｉｎｉｃ","categoryId":"medical","categoryLabel":"医疗","lat":35.705192,"lng":139.771592,"stationId":"station-003558","note":"婦人科　不妊治療　泌尿器科　不妊治療","count":1,"level":"detail"},{"id":"medical-3-10759","name":"稲富歯科医院","categoryId":"medical","categoryLabel":"医疗","lat":35.708769,"lng":139.777293,"stationId":"station-003560","note":"歯科　矯正歯科","count":1,"level":"detail"},{"id":"medical-2-10757","name":"稲沢内科医院","categoryId":"medical","categoryLabel":"医疗","lat":35.722422,"lng":139.782695,"stationId":"station-003469","note":"内科　呼吸器内科　循環器内科　消化器内科　小児科　５歳以上","count":1,"level":"detail"},{"id":"medical-2-17300","name":"竹内眼科クリニック","categoryId":"medical","categoryLabel":"医疗","lat":35.703313,"lng":139.790593,"stationId":"station-003583","note":"眼科","count":1,"level":"detail"},{"id":"medical-3-13387","name":"笹間歯科医院","categoryId":"medical","categoryLabel":"医疗","lat":35.715057,"lng":139.779812,"stationId":"ueno","note":"歯科","count":1,"level":"detail"},{"id":"medical-3-14030","name":"篠塚歯科医院","categoryId":"medical","categoryLabel":"医疗","lat":35.706287,"lng":139.799611,"stationId":"station-003538","note":"歯　矯歯　小歯　口外","count":1,"level":"detail"},{"id":"medical-2-13308","name":"細部医院","categoryId":"medical","categoryLabel":"医疗","lat":35.7175,"lng":139.765325,"stationId":"station-003483","note":"泌尿器科　内科　外科","count":1,"level":"detail"},{"id":"medical-2-13309","name":"細部小児科クリニック","categoryId":"medical","categoryLabel":"医疗","lat":35.718625,"lng":139.766485,"stationId":"station-003483","note":"小児科","count":1,"level":"detail"},{"id":"medical-2-15074","name":"織田消化器科クリニック","categoryId":"medical","categoryLabel":"医疗","lat":35.7246,"lng":139.785738,"stationId":"station-003469","note":"内科　消化器科内科","count":1,"level":"detail"},{"id":"medical-2-15780","name":"聖愛クリニック","categoryId":"medical","categoryLabel":"医疗","lat":35.722027,"lng":139.797916,"stationId":"station-003399","note":"内科　循環器内科　呼吸器内科","count":1,"level":"detail"},{"id":"medical-2-10666","name":"育英クリニック","categoryId":"medical","categoryLabel":"医疗","lat":35.700209,"lng":139.786113,"stationId":"station-003636","note":"内科　皮膚科　小児科　心療内科","count":1,"level":"detail"},{"id":"medical-3-20752","name":"脇野歯科クリニック","categoryId":"medical","categoryLabel":"医疗","lat":35.704679,"lng":139.780938,"stationId":"station-003557","note":"歯科　矯正歯科　小児歯科　歯科口腔外科","count":1,"level":"detail"},{"id":"medical-2-13122","name":"腰野医院","categoryId":"medical","categoryLabel":"医疗","lat":35.719286,"lng":139.799012,"stationId":"station-003502","note":"内科　リウマチ科　小児科　耳鼻いんこう科　産婦人科","count":1,"level":"detail"},{"id":"medical-3-11383","name":"葛井歯科医院","categoryId":"medical","categoryLabel":"医疗","lat":35.715768,"lng":139.78107,"stationId":"station-003519","note":"歯科","count":1,"level":"detail"},{"id":"medical-2-16620","name":"蔵前駅こころのクリニック","categoryId":"medical","categoryLabel":"医疗","lat":35.703492,"lng":139.790853,"stationId":"station-003583","note":"精神科　心療内科","count":1,"level":"detail"},{"id":"medical-2-16621","name":"蔵皮フ科・形成外科","categoryId":"medical","categoryLabel":"医疗","lat":35.703492,"lng":139.790853,"stationId":"station-003583","note":"皮膚科　形成外科","count":1,"level":"detail"},{"id":"medical-2-12882","name":"行徳内科医院","categoryId":"medical","categoryLabel":"医疗","lat":35.702279,"lng":139.788387,"stationId":"station-003583","note":"内科","count":1,"level":"detail"},{"id":"medical-2-15885","name":"西浅草皮膚科","categoryId":"medical","categoryLabel":"医疗","lat":35.710573,"lng":139.788095,"stationId":"station-003530","note":"皮膚科","count":1,"level":"detail"},{"id":"medical-3-11286","name":"賀来歯科医院","categoryId":"medical","categoryLabel":"医疗","lat":35.707903,"lng":139.775993,"stationId":"station-003555","note":"歯科　小児歯科　歯科口腔外科","count":1,"level":"detail"},{"id":"medical-2-18513","name":"道川内科クリニック","categoryId":"medical","categoryLabel":"医疗","lat":35.720701,"lng":139.787573,"stationId":"station-003469","note":"内科　循環器内科　消化器内科　血液内科","count":1,"level":"detail"},{"id":"medical-3-10894","name":"遠藤歯科医院","categoryId":"medical","categoryLabel":"医疗","lat":35.704567,"lng":139.775441,"stationId":"station-003560","note":"歯科","count":1,"level":"detail"},{"id":"medical-3-14388","name":"重見歯科医院","categoryId":"medical","categoryLabel":"医疗","lat":35.70798,"lng":139.77048,"stationId":"station-003558","note":"歯科","count":1,"level":"detail"},{"id":"medical-2-20286","name":"野口皮膚科医院","categoryId":"medical","categoryLabel":"医疗","lat":35.707972,"lng":139.771366,"stationId":"station-003543","note":"皮膚科","count":1,"level":"detail"},{"id":"medical-2-20307","name":"野村芳子小児神経学クリニック","categoryId":"medical","categoryLabel":"医疗","lat":35.701013,"lng":139.76735,"stationId":"station-003605","note":"神経内科　精神科　小児神経内科","count":1,"level":"detail"},{"id":"medical-3-20267","name":"野間口歯科医院","categoryId":"medical","categoryLabel":"医疗","lat":35.714957,"lng":139.792199,"stationId":"station-003502","note":"歯科","count":1,"level":"detail"},{"id":"medical-2-12102","name":"金井クリニック","categoryId":"medical","categoryLabel":"医疗","lat":35.72069,"lng":139.781984,"stationId":"station-003469","note":"内科　消化器内科　泌尿器科　肛門外科","count":1,"level":"detail"},{"id":"medical-2-12129","name":"金杉眼科医院","categoryId":"medical","categoryLabel":"医疗","lat":35.724996,"lng":139.786368,"stationId":"station-003469","note":"眼科","count":1,"level":"detail"},{"id":"medical-3-20630","name":"鈴木歯科医院","categoryId":"medical","categoryLabel":"医疗","lat":35.70992,"lng":139.787856,"stationId":"station-003530","note":"歯科","count":1,"level":"detail"},{"id":"medical-2-20605","name":"鈴木眼科","categoryId":"medical","categoryLabel":"医疗","lat":35.709903,"lng":139.780486,"stationId":"station-003519","note":"眼科","count":1,"level":"detail"},{"id":"medical-2-12215","name":"銀座医院上野透析クリニック","categoryId":"medical","categoryLabel":"医疗","lat":35.709538,"lng":139.772429,"stationId":"station-003543","note":"人工透析内科　内科　リウマチ科","count":1,"level":"detail"},{"id":"medical-3-11499","name":"関原歯科医院","categoryId":"medical","categoryLabel":"医疗","lat":35.703181,"lng":139.791792,"stationId":"station-003583","note":"歯科　矯正歯科　小児歯科　歯科口腔外科","count":1,"level":"detail"},{"id":"medical-3-11500","name":"関戸歯科医院","categoryId":"medical","categoryLabel":"医疗","lat":35.712542,"lng":139.79161,"stationId":"station-003502","note":"歯科","count":1,"level":"detail"},{"id":"medical-2-11532","name":"関東信用組合連合健康保険組合健康管理センター","categoryId":"medical","categoryLabel":"医疗","lat":35.70961,"lng":139.778251,"stationId":"station-003560","note":"内科　放射線科","count":1,"level":"detail"},{"id":"medical-2-16272","name":"雪月花メディカルクリニック秋葉原診療所","categoryId":"medical","categoryLabel":"医疗","lat":35.7032,"lng":139.77149,"stationId":"station-003586","note":"内．皮．心内．精　アレルギー科","count":1,"level":"detail"},{"id":"medical-3-16027","name":"青木歯科クリニック","categoryId":"medical","categoryLabel":"医疗","lat":35.708649,"lng":139.780025,"stationId":"station-003557","note":"歯科　小児歯科","count":1,"level":"detail"},{"id":"medical-2-19205","name":"飯山医院","categoryId":"medical","categoryLabel":"医疗","lat":35.720077,"lng":139.785221,"stationId":"station-003469","note":"内科　小児科　産科　婦人科","count":1,"level":"detail"},{"id":"medical-3-19251","name":"飯島歯科医院","categoryId":"medical","categoryLabel":"医疗","lat":35.706147,"lng":139.767882,"stationId":"station-003558","note":"歯科","count":1,"level":"detail"},{"id":"medical-2-19248","name":"飯島眼科","categoryId":"medical","categoryLabel":"医疗","lat":35.719774,"lng":139.796009,"stationId":"station-003502","note":"眼科","count":1,"level":"detail"},{"id":"medical-2-19216","name":"飯田クリニック","categoryId":"medical","categoryLabel":"医疗","lat":35.713236,"lng":139.797774,"stationId":"station-003502","note":"内科　循環器内科","count":1,"level":"detail"},{"id":"medical-3-18995","name":"馬道歯科診療所","categoryId":"medical","categoryLabel":"医疗","lat":35.715706,"lng":139.798374,"stationId":"station-003502","note":"歯科","count":1,"level":"detail"},{"id":"medical-3-12254","name":"駒形歯科","categoryId":"medical","categoryLabel":"医疗","lat":35.708714,"lng":139.794867,"stationId":"station-003502","note":"歯科","count":1,"level":"detail"},{"id":"medical-3-12976","name":"高松歯科","categoryId":"medical","categoryLabel":"医疗","lat":35.72249,"lng":139.779054,"stationId":"station-003460","note":"歯科　小児歯科","count":1,"level":"detail"},{"id":"medical-3-12928","name":"高橋歯科","categoryId":"medical","categoryLabel":"医疗","lat":35.711357,"lng":139.77884,"stationId":"ueno","note":"歯科","count":1,"level":"detail"},{"id":"medical-3-12940","name":"高橋歯科医院","categoryId":"medical","categoryLabel":"医疗","lat":35.701214,"lng":139.787961,"stationId":"station-003636","note":"歯科","count":1,"level":"detail"},{"id":"medical-3-12997","name":"高田歯科医院","categoryId":"medical","categoryLabel":"医疗","lat":35.723869,"lng":139.797676,"stationId":"station-003399","note":"歯科","count":1,"level":"detail"},{"id":"medical-3-12979","name":"高須歯科医院","categoryId":"medical","categoryLabel":"医疗","lat":35.721149,"lng":139.785286,"stationId":"station-003469","note":"歯科","count":1,"level":"detail"},{"id":"medical-3-11654","name":"鬼久保歯科医院","categoryId":"medical","categoryLabel":"医疗","lat":35.702095,"lng":139.785276,"stationId":"station-003636","note":"歯科","count":1,"level":"detail"},{"id":"medical-3-17635","name":"鳥居デンタルクリニック","categoryId":"medical","categoryLabel":"医疗","lat":35.703205,"lng":139.785036,"stationId":"station-003557","note":"歯科　小児歯科","count":1,"level":"detail"},{"id":"medical-2-20820","name":"鶯谷メンタルクリニック","categoryId":"medical","categoryLabel":"医疗","lat":35.723788,"lng":139.776965,"stationId":"station-003460","note":"精神科　心療内科","count":1,"level":"detail"},{"id":"medical-3-20052","name":"麻生歯科医院","categoryId":"medical","categoryLabel":"医疗","lat":35.717638,"lng":139.765009,"stationId":"station-003483","note":"歯科　小児歯科　歯科口腔外科","count":1,"level":"detail"},{"id":"medical-2-7","name":"（医）　ささき眼科","categoryId":"medical","categoryLabel":"医疗","lat":35.710251,"lng":139.791883,"stationId":"station-003530","note":"眼科","count":1,"level":"detail"},{"id":"medical-2-9","name":"（医）　市村外科整形外科","categoryId":"medical","categoryLabel":"医疗","lat":35.706419,"lng":139.781684,"stationId":"station-003557","note":"外科　整形外科　麻酔科","count":1,"level":"detail"},{"id":"medical-2-10","name":"（医）　曽谷村医院","categoryId":"medical","categoryLabel":"医疗","lat":35.702345,"lng":139.781686,"stationId":"station-003557","note":"内科　消化器内科","count":1,"level":"detail"},{"id":"medical-2-11","name":"（医）　知久内科クリ二ック","categoryId":"medical","categoryLabel":"医疗","lat":35.711145,"lng":139.7784,"stationId":"ueno","note":"内科　循環器内科","count":1,"level":"detail"},{"id":"medical-2-8","name":"（医）　関戸クリニック","categoryId":"medical","categoryLabel":"医疗","lat":35.712751,"lng":139.791692,"stationId":"station-003502","note":"内科　消化器内科","count":1,"level":"detail"},{"id":"medical-2-14","name":"（医）まこと会　服部医院","categoryId":"medical","categoryLabel":"医疗","lat":35.706999,"lng":139.786035,"stationId":"station-003557","note":"内科　呼吸器内科　アレルギ　−科　小児科","count":1,"level":"detail"},{"id":"medical-2-13","name":"（医）クラマエ眼科","categoryId":"medical","categoryLabel":"医疗","lat":35.704559,"lng":139.792206,"stationId":"station-003583","note":"眼科","count":1,"level":"detail"},{"id":"medical-2-15","name":"（医）ルーチェ会　佐々木医院","categoryId":"medical","categoryLabel":"医疗","lat":35.721633,"lng":139.796078,"stationId":"station-003399","note":"内科　外科　泌尿器科　産婦人科","count":1,"level":"detail"},{"id":"medical-3-29","name":"（医）京山会　上野歯科","categoryId":"medical","categoryLabel":"医疗","lat":35.710917,"lng":139.774383,"stationId":"station-003521","note":"歯科","count":1,"level":"detail"},{"id":"medical-2-31","name":"（医）健信会　磯野外科内科","categoryId":"medical","categoryLabel":"医疗","lat":35.706937,"lng":139.793998,"stationId":"station-003583","note":"内科　消化器内科　皮膚科　外科　泌尿器科　肛門外科　脳神経外科　整形外科","count":1,"level":"detail"},{"id":"medical-3-33","name":"（医）健優会　柴野歯科医院","categoryId":"medical","categoryLabel":"医疗","lat":35.717183,"lng":139.782548,"stationId":"station-003469","note":"歯科　矯正歯科　小児歯科","count":1,"level":"detail"},{"id":"medical-2-32","name":"（医）健生会クリニック","categoryId":"medical","categoryLabel":"医疗","lat":35.705123,"lng":139.775299,"stationId":"station-003560","note":"内科　産婦人科　泌尿器科","count":1,"level":"detail"},{"id":"medical-3-34","name":"（医）剣正会　東上野歯科クリニック","categoryId":"medical","categoryLabel":"医疗","lat":35.711263,"lng":139.777537,"stationId":"ueno","note":"歯科　矯正歯科　歯科口腔外科","count":1,"level":"detail"},{"id":"medical-3-43","name":"（医）勝誠会　田原町歯科医院","categoryId":"medical","categoryLabel":"医疗","lat":35.71009,"lng":139.790347,"stationId":"station-003530","note":"歯科　小児歯科　歯科口腔外科","count":1,"level":"detail"},{"id":"medical-2-55","name":"（医）千歳会　寿クリニック","categoryId":"medical","categoryLabel":"医疗","lat":35.706511,"lng":139.789106,"stationId":"station-003583","note":"内科　精神科","count":1,"level":"detail"},{"id":"medical-2-63","name":"（医）博腎会　野中医院","categoryId":"medical","categoryLabel":"医疗","lat":35.706609,"lng":139.789258,"stationId":"station-003583","note":"内科　循環器内科","count":1,"level":"detail"},{"id":"medical-2-56","name":"（医）双美会　しげの皮膚科","categoryId":"medical","categoryLabel":"医疗","lat":35.72326,"lng":139.778503,"stationId":"station-003460","note":"皮膚科","count":1,"level":"detail"},{"id":"medical-2-20","name":"（医）塩田会　東京恵愛クリニック","categoryId":"medical","categoryLabel":"医疗","lat":35.721597,"lng":139.78112,"stationId":"station-003460","note":"内科　消化器内科　心療内科　外科　整形外科","count":1,"level":"detail"},{"id":"medical-3-28","name":"（医）宮元会　花川戸歯科医院","categoryId":"medical","categoryLabel":"医疗","lat":35.712807,"lng":139.799843,"stationId":"station-003502","note":"歯科","count":1,"level":"detail"},{"id":"medical-3-41","name":"（医）寿幸会　笠原歯科医院","categoryId":"medical","categoryLabel":"医疗","lat":35.704848,"lng":139.792568,"stationId":"station-003583","note":"歯科　矯正歯科　小児歯科　歯科口腔外科","count":1,"level":"detail"},{"id":"medical-3-61","name":"（医）徳洋会　大谷歯科クリニック","categoryId":"medical","categoryLabel":"医疗","lat":35.720423,"lng":139.782746,"stationId":"station-003469","note":"歯科　矯正歯科　小児歯科　歯科口腔外科","count":1,"level":"detail"},{"id":"medical-3-40","name":"（医）志皓会　理浩歯科クリニック","categoryId":"medical","categoryLabel":"医疗","lat":35.707306,"lng":139.781264,"stationId":"station-003557","note":"歯科　矯正歯科　小児歯科","count":1,"level":"detail"},{"id":"medical-2-30","name":"（医）恵章会　御徒町腎クリニック","categoryId":"medical","categoryLabel":"医疗","lat":35.70391,"lng":139.774566,"stationId":"station-003586","note":"内科","count":1,"level":"detail"},{"id":"medical-3-67","name":"（医）悠和会　上野御徒町デンタルクリニック","categoryId":"medical","categoryLabel":"医疗","lat":35.705826,"lng":139.774182,"stationId":"station-003555","note":"歯科　矯正歯科　小児歯科　歯科口腔外科","count":1,"level":"detail"},{"id":"medical-2-49","name":"（医）成守会　成守会クリニック","categoryId":"medical","categoryLabel":"医疗","lat":35.716435,"lng":139.788626,"stationId":"station-003469","note":"泌尿器科","count":1,"level":"detail"},{"id":"medical-2-46","name":"（医）新宿レディースクリニック会　上野レディースクリニック","categoryId":"medical","categoryLabel":"医疗","lat":35.70911,"lng":139.773003,"stationId":"station-003543","note":"産婦人科","count":1,"level":"detail"},{"id":"medical-2-66","name":"（医）明醫会　上野眼科医院","categoryId":"medical","categoryLabel":"医疗","lat":35.710546,"lng":139.77855,"stationId":"ueno","note":"眼科","count":1,"level":"detail"},{"id":"medical-2-42","name":"（医）曙会　御徒町クリニック","categoryId":"medical","categoryLabel":"医疗","lat":35.708582,"lng":139.775981,"stationId":"station-003555","note":"内科　神経内科　神経科　精神科　心療内科","count":1,"level":"detail"},{"id":"medical-3-44","name":"（医）松山会　ことぶきわたなべ歯科医院","categoryId":"medical","categoryLabel":"医疗","lat":35.708905,"lng":139.789736,"stationId":"station-003530","note":"歯科　矯正歯科　小児歯科","count":1,"level":"detail"},{"id":"medical-2-62","name":"（医）梅澤会　梅澤医院","categoryId":"medical","categoryLabel":"医疗","lat":35.720735,"lng":139.789557,"stationId":"station-003469","note":"内科　呼吸器内科　循環器内科　消化器内科　小児科　整形外科　リハリビテ−ション科","count":1,"level":"detail"},{"id":"medical-3-50","name":"（医）正誠会　入谷歯科","categoryId":"medical","categoryLabel":"医疗","lat":35.720587,"lng":139.785297,"stationId":"station-003469","note":"歯科　矯正歯科　小児歯科　歯科口腔外科","count":1,"level":"detail"},{"id":"medical-2-38","name":"（医）浩佳会　かとう医院","categoryId":"medical","categoryLabel":"医疗","lat":35.723342,"lng":139.779794,"stationId":"station-003460","note":"内科　リハビリテ−ション科　皮膚科","count":1,"level":"detail"},{"id":"medical-2-51","name":"（医）清都会　もりちか眼科クリニック","categoryId":"medical","categoryLabel":"医疗","lat":35.71971,"lng":139.785155,"stationId":"station-003469","note":"眼科　内科","count":1,"level":"detail"},{"id":"medical-2-48","name":"（医）瑞生会　蔵前内科クリ二ック","categoryId":"medical","categoryLabel":"医疗","lat":35.701378,"lng":139.78939,"stationId":"station-003583","note":"内科　呼吸器内科　神経内科　アレルギ−科　内分泌内科","count":1,"level":"detail"},{"id":"medical-3-70","name":"（医）眞慈会　鈴木歯科","categoryId":"medical","categoryLabel":"医疗","lat":35.711142,"lng":139.781246,"stationId":"station-003519","note":"歯科　矯正歯科　小児歯科　歯科口腔外科","count":1,"level":"detail"},{"id":"medical-2-53","name":"（医）石誠会スキンケア上野クリニック","categoryId":"medical","categoryLabel":"医疗","lat":35.711263,"lng":139.777537,"stationId":"ueno","note":"皮膚科　形成外科　美容外科","count":1,"level":"detail"},{"id":"medical-3-19","name":"（医）英歯会　いしやま歯科・矯正歯科","categoryId":"medical","categoryLabel":"医疗","lat":35.711041,"lng":139.798244,"stationId":"station-003502","note":"歯科　矯正歯科　歯科口腔外科","count":1,"level":"detail"},{"id":"medical-2-26","name":"（医）菊嶋クリニック","categoryId":"medical","categoryLabel":"医疗","lat":35.704559,"lng":139.792206,"stationId":"station-003583","note":"内科　消化器内科　整形外科","count":1,"level":"detail"},{"id":"medical-3-22","name":"（医）華清会　清水歯科クリニック","categoryId":"medical","categoryLabel":"医疗","lat":35.719529,"lng":139.784414,"stationId":"station-003469","note":"歯科　小児歯科　歯科口腔外科","count":1,"level":"detail"},{"id":"medical-3-57","name":"（医）藤惣会　藤関歯科医院浅草","categoryId":"medical","categoryLabel":"医疗","lat":35.711928,"lng":139.794681,"stationId":"station-003502","note":"歯科　矯正歯科　小児歯科　歯科口腔外科","count":1,"level":"detail"},{"id":"medical-2-39","name":"（医）賛天堂　津田胃腸科医院","categoryId":"medical","categoryLabel":"医疗","lat":35.704907,"lng":139.777536,"stationId":"station-003560","note":"内科　消化器内科","count":1,"level":"detail"},{"id":"medical-3-24","name":"（医）輝昌会　田歯科医院","categoryId":"medical","categoryLabel":"医疗","lat":35.719174,"lng":139.797003,"stationId":"station-003502","note":"歯科　矯正歯科　小児歯科","count":1,"level":"detail"},{"id":"medical-2-25","name":"（医）輝生会　たいとう診療所","categoryId":"medical","categoryLabel":"医疗","lat":35.708429,"lng":139.782346,"stationId":"station-003557","note":"内科　リハビリテ−ション科　神経内科","count":1,"level":"detail"},{"id":"medical-2-59","name":"（医）道草会　浜田クリ二ック","categoryId":"medical","categoryLabel":"医疗","lat":35.71129,"lng":139.780434,"stationId":"station-003519","note":"神経内科　精神科　神経科","count":1,"level":"detail"},{"id":"medical-2-68","name":"（医）雄翔会　あさひ上野クリニック","categoryId":"medical","categoryLabel":"医疗","lat":35.705402,"lng":139.772319,"stationId":"station-003545","note":"内科　消化器内科　皮膚科　アレルギ−科　小児科","count":1,"level":"detail"},{"id":"medical-2-54","name":"（医）雪風会　ふじ内科","categoryId":"medical","categoryLabel":"医疗","lat":35.706584,"lng":139.784221,"stationId":"station-003557","note":"内科　神経内科　リハビリテ　−ション科","count":1,"level":"detail"},{"id":"medical-3-35","name":"（医）顕心会　Ｋ’ｓ　Ｄｅｎｔａｌ","categoryId":"medical","categoryLabel":"医疗","lat":35.713242,"lng":139.779382,"stationId":"ueno","note":"歯科　矯正歯科　小児歯科","count":1,"level":"detail"},{"id":"medical-2-94","name":"ＡＧＡスキンクリニック　東京上野院","categoryId":"medical","categoryLabel":"医疗","lat":35.710163,"lng":139.776243,"stationId":"station-003521","note":"頭部皮膚科　美容皮膚科","count":1,"level":"detail"},{"id":"medical-3-129","name":"ＢＩＮＯ御徒町歯科クリニック","categoryId":"medical","categoryLabel":"医疗","lat":35.70624,"lng":139.77396,"stationId":"station-003555","note":"歯科　矯正歯科　小児歯科　歯科口腔外科","count":1,"level":"detail"},{"id":"medical-2-162","name":"ＤＯＷＡホールディングス株式会社診療所","categoryId":"medical","categoryLabel":"医疗","lat":35.700104,"lng":139.772572,"stationId":"akihabara","note":"内","count":1,"level":"detail"},{"id":"medical-3-151","name":"Ｄｅｎｔａｌ　Ｎｅｘｔ　Ａｃｔｉｏｎクリニック","categoryId":"medical","categoryLabel":"医疗","lat":35.713736,"lng":139.778754,"stationId":"ueno","note":"歯科　矯正歯科　小児歯科　歯科口腔外科","count":1,"level":"detail"},{"id":"medical-2-177","name":"ＦＲＥＹ−Ａ　ＣＬＩＮＩＣ　上野院","categoryId":"medical","categoryLabel":"医疗","lat":35.711236,"lng":139.775384,"stationId":"station-003521","note":"美容皮膚科","count":1,"level":"detail"},{"id":"medical-2-378","name":"ＴＳＤ天心堂漢方ビル天心堂診療所","categoryId":"medical","categoryLabel":"医疗","lat":35.712422,"lng":139.777787,"stationId":"ueno","note":"内科　漢方内科　ペインクリニック内科","count":1,"level":"detail"},{"id":"medical-2-365","name":"Ｔｏｋｙｏ　ＤＤ　Ｃｌｉｎｉｃ","categoryId":"medical","categoryLabel":"医疗","lat":35.706447,"lng":139.77975,"stationId":"station-003557","note":"内科　精神科","count":1,"level":"detail"},{"id":"public-13105-21054","name":"アカデミー湯島","categoryId":"public_service","categoryLabel":"公共服务","lat":35.706572,"lng":139.766572,"stationId":"station-003558","note":"文京区湯島2-28-14","count":1,"level":"detail"},{"id":"public-13106-21081","name":"三筋老人福祉館","categoryId":"public_service","categoryLabel":"公共服务","lat":35.706016,"lng":139.786915,"stationId":"station-003557","note":"台東区三筋2-16-4","count":1,"level":"detail"},{"id":"public-13106-21105","name":"上野地区センター","categoryId":"public_service","categoryLabel":"公共服务","lat":35.709424,"lng":139.769229,"stationId":"station-003558","note":"台東区池之端1-1-12","count":1,"level":"detail"},{"id":"public-13106-21086","name":"上野桜木会館","categoryId":"public_service","categoryLabel":"公共服务","lat":35.720083,"lng":139.771099,"stationId":"station-003483","note":"台東区上野桜木1-6-1","count":1,"level":"detail"},{"id":"public-13106-21113","name":"入谷地区センター","categoryId":"public_service","categoryLabel":"公共服务","lat":35.720384,"lng":139.785648,"stationId":"station-003469","note":"台東区入谷1-15-6","count":1,"level":"detail"},{"id":"public-13106-21114","name":"入谷老人福祉館","categoryId":"public_service","categoryLabel":"公共服务","lat":35.720498,"lng":139.785568,"stationId":"station-003469","note":"台東区入谷1-16-9","count":1,"level":"detail"},{"id":"public-13106-21094","name":"北部区民事務所","categoryId":"public_service","categoryLabel":"公共服务","lat":35.718273,"lng":139.7988,"stationId":"station-003502","note":"台東区浅草4-48-1","count":1,"level":"detail"},{"id":"public-13106-21093","name":"千束社会教育館","categoryId":"public_service","categoryLabel":"公共服务","lat":35.718954,"lng":139.793937,"stationId":"station-003502","note":"台東区浅草4-24-13","count":1,"level":"detail"},{"id":"public-13106-21083","name":"南部区民事務所","categoryId":"public_service","categoryLabel":"公共服务","lat":35.707255,"lng":139.788888,"stationId":"station-003530","note":"台東区寿1-10-12","count":1,"level":"detail"},{"id":"public-13106-21089","name":"台東保健所","categoryId":"public_service","categoryLabel":"公共服务","lat":35.71447,"lng":139.781524,"stationId":"station-003519","note":"台東区東上野4-22-8","count":1,"level":"detail"},{"id":"public-13106-21110","name":"台東区役所","categoryId":"public_service","categoryLabel":"公共服务","lat":35.712634,"lng":139.779719,"stationId":"station-003519","note":"台東区東上野4-5-6","count":1,"level":"detail"},{"id":"public-13106-21074","name":"台東区民会館","categoryId":"public_service","categoryLabel":"公共服务","lat":35.714325,"lng":139.798877,"stationId":"station-003502","note":"台東区花川戸2-6-5","count":1,"level":"detail"},{"id":"public-13106-21100","name":"台東地区センター","categoryId":"public_service","categoryLabel":"公共服务","lat":35.701845,"lng":139.777779,"stationId":"akihabara","note":"台東区台東1-25-5","count":1,"level":"detail"},{"id":"public-13106-21084","name":"小島社会教育館","categoryId":"public_service","categoryLabel":"公共服务","lat":35.704084,"lng":139.781612,"stationId":"station-003557","note":"台東区小島1-5-2","count":1,"level":"detail"},{"id":"public-13106-21108","name":"東上野地区センター","categoryId":"public_service","categoryLabel":"公共服务","lat":35.711254,"lng":139.779629,"stationId":"station-003519","note":"台東区東上野3-24-6","count":1,"level":"detail"},{"id":"public-13106-21109","name":"東京文化会館","categoryId":"public_service","categoryLabel":"公共服务","lat":35.714244,"lng":139.775309,"stationId":"ueno","note":"台東区上野公園5-45","count":1,"level":"detail"},{"id":"public-13106-21092","name":"浅草公会堂","categoryId":"public_service","categoryLabel":"公共服务","lat":35.712615,"lng":139.795117,"stationId":"station-003502","note":"台東区浅草1-38-6","count":1,"level":"detail"},{"id":"public-13106-21078","name":"生涯学習センター","categoryId":"public_service","categoryLabel":"公共服务","lat":35.717494,"lng":139.789658,"stationId":"station-003469","note":"台東区西浅草3-25-16","count":1,"level":"detail"},{"id":"public-13106-21111","name":"社会教育センター","categoryId":"public_service","categoryLabel":"公共服务","lat":35.713584,"lng":139.783228,"stationId":"station-003519","note":"台東区東上野6-16-8","count":1,"level":"detail"},{"id":"public-13106-21106","name":"老人福祉センター","categoryId":"public_service","categoryLabel":"公共服务","lat":35.709455,"lng":139.781575,"stationId":"station-003519","note":"台東区東上野2-25-14","count":1,"level":"detail"},{"id":"public-13106-21072","name":"西部区民事務所","categoryId":"public_service","categoryLabel":"公共服务","lat":35.723074,"lng":139.786078,"stationId":"station-003469","note":"台東区下谷3-1-30","count":1,"level":"detail"},{"id":"public-13106-21091","name":"雷門地区センター","categoryId":"public_service","categoryLabel":"公共服务","lat":35.712555,"lng":139.796137,"stationId":"station-003502","note":"台東区浅草1-37-3","count":1,"level":"detail"}]
