[{"id":"public-13123-22482","name":"小岩区民館","categoryId":"community","categoryLabel":"社区设施","lat":35.73389,"lng":139.88807,"stationId":"station-003360","note":"江戸川区東小岩6-9-14","count":1,"level":"detail"},{"id":"medical-2-909","name":"いでの整形外科リウマチ科クリニック","categoryId":"medical","categoryLabel":"医疗","lat":35.726767,"lng":139.8857,"stationId":"station-003360","note":"整　リウ　リハ","count":1,"level":"detail"},{"id":"medical-3-1563","name":"かわはら歯科クリニック","categoryId":"medical","categoryLabel":"医疗","lat":35.738479,"lng":139.879321,"stationId":"station-003303","note":"歯　小歯　矯歯　口外　小矯歯","count":1,"level":"detail"},{"id":"medical-3-1972","name":"こやま歯科医院","categoryId":"medical","categoryLabel":"医疗","lat":35.745302,"lng":139.886136,"stationId":"station-003303","note":"歯　小歯","count":1,"level":"detail"},{"id":"medical-3-2281","name":"しまむら歯科医院","categoryId":"medical","categoryLabel":"医疗","lat":35.725399,"lng":139.883748,"stationId":"station-003360","note":"歯　小歯　矯正　口腔","count":1,"level":"detail"},{"id":"medical-3-2364","name":"すうじい歯科医院","categoryId":"medical","categoryLabel":"医疗","lat":35.742195,"lng":139.886202,"stationId":"station-003303","note":"歯","count":1,"level":"detail"},{"id":"medical-2-2757","name":"たんぽぽ眼科","categoryId":"medical","categoryLabel":"医疗","lat":35.742467,"lng":139.884347,"stationId":"station-003303","note":"眼","count":1,"level":"detail"},{"id":"medical-2-3084","name":"ながきこどもクリニック","categoryId":"medical","categoryLabel":"医疗","lat":35.742456,"lng":139.884386,"stationId":"station-003303","note":"小　アレ　小神内","count":1,"level":"detail"},{"id":"medical-3-3089","name":"ながしま歯科クリニック","categoryId":"medical","categoryLabel":"医疗","lat":35.725933,"lng":139.892064,"stationId":"station-003360","note":"歯　小歯　口外","count":1,"level":"detail"},{"id":"medical-3-3212","name":"にしむらデンタルクリニック","categoryId":"medical","categoryLabel":"医疗","lat":35.736635,"lng":139.891505,"stationId":"station-003331","note":"歯　口外　小歯　矯歯","count":1,"level":"detail"},{"id":"medical-3-3701","name":"ふたわ歯科クリニック","categoryId":"medical","categoryLabel":"医疗","lat":35.731627,"lng":139.879008,"stationId":"station-003360","note":"歯　小歯　口外","count":1,"level":"detail"},{"id":"medical-2-4635","name":"わたなべ眼科クリニック","categoryId":"medical","categoryLabel":"医疗","lat":35.733103,"lng":139.88158,"stationId":"station-003360","note":"眼","count":1,"level":"detail"},{"id":"medical-3-1376","name":"オレンジ歯科クリニック","categoryId":"medical","categoryLabel":"医疗","lat":35.740385,"lng":139.872191,"stationId":"station-003303","note":"歯　小歯","count":1,"level":"detail"},{"id":"medical-3-2137","name":"サトウ歯科医院","categoryId":"medical","categoryLabel":"医疗","lat":35.742965,"lng":139.883632,"stationId":"station-003303","note":"歯　小歯","count":1,"level":"detail"},{"id":"medical-3-2779","name":"チバ歯科","categoryId":"medical","categoryLabel":"医疗","lat":35.733059,"lng":139.884305,"stationId":"station-003360","note":"歯","count":1,"level":"detail"},{"id":"medical-3-2847","name":"ティーアイ歯科クリニック","categoryId":"medical","categoryLabel":"医疗","lat":35.7347,"lng":139.879047,"stationId":"station-003360","note":"歯　小歯　矯歯　口外","count":1,"level":"detail"},{"id":"medical-3-3229","name":"ニトリ歯科クリニック","categoryId":"medical","categoryLabel":"医疗","lat":35.735139,"lng":139.88204,"stationId":"station-003360","note":"歯　小歯","count":1,"level":"detail"},{"id":"medical-3-3672","name":"フジタ歯科","categoryId":"medical","categoryLabel":"医疗","lat":35.733952,"lng":139.879632,"stationId":"station-003360","note":"歯　口外　小歯　矯歯","count":1,"level":"detail"},{"id":"medical-3-4219","name":"モーラ歯科クリニック","categoryId":"medical","categoryLabel":"医疗","lat":35.736419,"lng":139.880255,"stationId":"station-003360","note":"歯　小歯　矯歯　口外","count":1,"level":"detail"},{"id":"medical-2-13437","name":"三浦内科医院","categoryId":"medical","categoryLabel":"医疗","lat":35.733273,"lng":139.883414,"stationId":"station-003360","note":"内","count":1,"level":"detail"},{"id":"medical-3-17373","name":"中小岩歯科","categoryId":"medical","categoryLabel":"医疗","lat":35.74025,"lng":139.887395,"stationId":"station-003303","note":"歯","count":1,"level":"detail"},{"id":"medical-3-17466","name":"中島歯科医院","categoryId":"medical","categoryLabel":"医疗","lat":35.735287,"lng":139.88772,"stationId":"station-003360","note":"歯　小歯","count":1,"level":"detail"},{"id":"medical-3-17445","name":"中田歯科医院","categoryId":"medical","categoryLabel":"医疗","lat":35.725494,"lng":139.881234,"stationId":"station-003360","note":"歯","count":1,"level":"detail"},{"id":"medical-2-11981","name":"京成小岩すまいるクリニック","categoryId":"medical","categoryLabel":"医疗","lat":35.741794,"lng":139.882587,"stationId":"station-003303","note":"泌　内","count":1,"level":"detail"},{"id":"medical-2-11983","name":"京成小岩訪問診療所","categoryId":"medical","categoryLabel":"医疗","lat":35.743648,"lng":139.884282,"stationId":"station-003303","note":"整形外科","count":1,"level":"detail"},{"id":"medical-3-11982","name":"京成小岩青い鳥歯科クリニック","categoryId":"medical","categoryLabel":"医疗","lat":35.743762,"lng":139.883158,"stationId":"station-003303","note":"歯　小歯　口外　矯歯","count":1,"level":"detail"},{"id":"medical-3-20584","name":"令和こども・おとな歯科医院","categoryId":"medical","categoryLabel":"医疗","lat":35.739525,"lng":139.872486,"stationId":"station-003303","note":"歯科　小児歯科　矯正歯科　歯科口腔外科","count":1,"level":"detail"},{"id":"medical-3-11296","name":"会田歯科医院","categoryId":"medical","categoryLabel":"医疗","lat":35.747122,"lng":139.877801,"stationId":"station-003244","note":"歯","count":1,"level":"detail"},{"id":"medical-2-13223","name":"佐藤医院","categoryId":"medical","categoryLabel":"医疗","lat":35.733436,"lng":139.889329,"stationId":"station-003360","note":"内　皮　循　小","count":1,"level":"detail"},{"id":"medical-3-12694","name":"公益社団法人　東京都江戸川区歯科医師会　休日歯科応急診療所","categoryId":"medical","categoryLabel":"医疗","lat":35.727227,"lng":139.888487,"stationId":"station-003360","note":"歯","count":1,"level":"detail"},{"id":"medical-2-16489","name":"前田クリニック","categoryId":"medical","categoryLabel":"医疗","lat":35.730917,"lng":139.885445,"stationId":"station-003360","note":"皮　泌　内　ｱﾚ","count":1,"level":"detail"},{"id":"medical-2-16500","name":"前田皮膚科","categoryId":"medical","categoryLabel":"医疗","lat":35.733223,"lng":139.881063,"stationId":"station-003360","note":"皮","count":1,"level":"detail"},{"id":"medical-3-14449","name":"勝山歯科医院","categoryId":"medical","categoryLabel":"医疗","lat":35.745356,"lng":139.889036,"stationId":"station-003303","note":"歯","count":1,"level":"detail"},{"id":"medical-2-19886","name":"北小岩整形外科","categoryId":"medical","categoryLabel":"医疗","lat":35.742312,"lng":139.884115,"stationId":"station-003303","note":"整　リハ　リウ","count":1,"level":"detail"},{"id":"medical-3-4824","name":"医慮法人社団　颯歯会　さとう歯科クリニック","categoryId":"medical","categoryLabel":"医疗","lat":35.733626,"lng":139.887094,"stationId":"station-003360","note":"歯　小歯　矯歯　口外","count":1,"level":"detail"},{"id":"medical-2-4868","name":"医療法人一丸堂（社団）　吉田機司クリニック","categoryId":"medical","categoryLabel":"医疗","lat":35.748591,"lng":139.880159,"stationId":"station-003244","note":"内　小　放　循　消　呼","count":1,"level":"detail"},{"id":"medical-2-5028","name":"医療法人社団  だいだい　小岩すばるクリニック","categoryId":"medical","categoryLabel":"医疗","lat":35.726155,"lng":139.889043,"stationId":"station-003360","note":"耳　アレ　内　小","count":1,"level":"detail"},{"id":"medical-2-5029","name":"医療法人社団  だいだい　東小岩わんぱくクリニック","categoryId":"medical","categoryLabel":"医疗","lat":35.72594,"lng":139.888767,"stationId":"station-003360","note":"小　アレ","count":1,"level":"detail"},{"id":"medical-2-5026","name":"医療法人社団  アクアヴィラ　東京ブロック注射クリニック","categoryId":"medical","categoryLabel":"医疗","lat":35.733048,"lng":139.880751,"stationId":"station-003360","note":"ペイン整　麻　リハ","count":1,"level":"detail"},{"id":"medical-2-5053","name":"医療法人社団  城東桐和会　東小岩げんきクリニック","categoryId":"medical","categoryLabel":"医疗","lat":35.72594,"lng":139.888767,"stationId":"station-003360","note":"内　整　皮　小　神　リハ","count":1,"level":"detail"},{"id":"medical-2-5036","name":"医療法人社団  愛児会　南小岩クリニック","categoryId":"medical","categoryLabel":"医疗","lat":35.726843,"lng":139.883458,"stationId":"station-003360","note":"小　内　消　胃　外　リハ","count":1,"level":"detail"},{"id":"medical-2-5071","name":"医療法人社団  靱生会　メディカルプラザ小岩駅","categoryId":"medical","categoryLabel":"医疗","lat":35.733048,"lng":139.880751,"stationId":"station-003360","note":"糖内","count":1,"level":"detail"},{"id":"medical-2-5075","name":"医療法人社団  靱生会　内科メディカルプラザ","categoryId":"medical","categoryLabel":"医疗","lat":35.735363,"lng":139.880598,"stationId":"station-003360","note":"内　消内","count":1,"level":"detail"},{"id":"medical-2-5073","name":"医療法人社団  靱生会　小岩駅北口クリニック","categoryId":"medical","categoryLabel":"医疗","lat":35.733048,"lng":139.880751,"stationId":"station-003360","note":"腎内　透内","count":1,"level":"detail"},{"id":"medical-2-5074","name":"医療法人社団  靱生会　整形メディカルプラザ","categoryId":"medical","categoryLabel":"医疗","lat":35.735363,"lng":139.880598,"stationId":"station-003360","note":"整　リハ","count":1,"level":"detail"},{"id":"medical-3-5027","name":"医療法人社団 　こみや矯正歯科","categoryId":"medical","categoryLabel":"医疗","lat":35.732563,"lng":139.882804,"stationId":"station-003360","note":"矯正","count":1,"level":"detail"},{"id":"medical-3-5035","name":"医療法人社団 　レモン会　鎌田歯科室小岩診療所","categoryId":"medical","categoryLabel":"医疗","lat":35.731559,"lng":139.88385,"stationId":"station-003360","note":"歯　小歯","count":1,"level":"detail"},{"id":"medical-2-5067","name":"医療法人社団 　北吉会　北澤耳鼻咽喉科医院","categoryId":"medical","categoryLabel":"医疗","lat":35.735401,"lng":139.879995,"stationId":"station-003360","note":"耳　内　小","count":1,"level":"detail"},{"id":"medical-2-5045","name":"医療法人社団 　広洋会　ほしの小児科クリニック","categoryId":"medical","categoryLabel":"医疗","lat":35.726998,"lng":139.887717,"stationId":"station-003360","note":"小","count":1,"level":"detail"},{"id":"medical-2-5044","name":"医療法人社団 　恵宏会　小岩診療所","categoryId":"medical","categoryLabel":"医疗","lat":35.743725,"lng":139.883488,"stationId":"station-003303","note":"内　消　胃　整","count":1,"level":"detail"},{"id":"medical-2-5039","name":"医療法人社団 　玉城眼科　玉城眼科","categoryId":"medical","categoryLabel":"医疗","lat":35.733644,"lng":139.886876,"stationId":"station-003360","note":"眼","count":1,"level":"detail"},{"id":"medical-2-5167","name":"医療法人社団 ゆい　トータルケアクリニック","categoryId":"medical","categoryLabel":"医疗","lat":35.734259,"lng":139.881571,"stationId":"station-003360","note":"整　内　皮","count":1,"level":"detail"},{"id":"medical-2-5213","name":"医療法人社団 一翠会　みながわクリニック","categoryId":"medical","categoryLabel":"医疗","lat":35.738867,"lng":139.880254,"stationId":"station-003303","note":"内　消　小　皮","count":1,"level":"detail"},{"id":"medical-2-5400","name":"医療法人社団 厚生会　西小岩内科医院","categoryId":"medical","categoryLabel":"医疗","lat":35.734651,"lng":139.874174,"stationId":"station-003360","note":"内　小　消内　糖内　整外","count":1,"level":"detail"},{"id":"medical-2-5426","name":"医療法人社団 弘仁会　片倉クリニック","categoryId":"medical","categoryLabel":"医疗","lat":35.73334,"lng":139.888297,"stationId":"station-003360","note":"内　消　胃","count":1,"level":"detail"},{"id":"medical-3-5424","name":"医療法人社団 弘真会　南小岩ファミリー歯科","categoryId":"medical","categoryLabel":"医疗","lat":35.729712,"lng":139.881391,"stationId":"station-003360","note":"歯　小歯　口腔　矯正","count":1,"level":"detail"},{"id":"medical-2-5661","name":"医療法人社団 新和会　篠田眼科クリニック","categoryId":"medical","categoryLabel":"医疗","lat":35.732175,"lng":139.878656,"stationId":"station-003360","note":"眼","count":1,"level":"detail"},{"id":"medical-2-5659","name":"医療法人社団 新穂会　京成小岩皮膚科クリニック","categoryId":"medical","categoryLabel":"医疗","lat":35.742334,"lng":139.884338,"stationId":"station-003303","note":"皮　アレ","count":1,"level":"detail"},{"id":"medical-2-5658","name":"医療法人社団 新穂会　京成小岩駅前クリニック","categoryId":"medical","categoryLabel":"医疗","lat":35.742334,"lng":139.884338,"stationId":"station-003303","note":"内　呼　循　消","count":1,"level":"detail"},{"id":"medical-2-5997","name":"医療法人社団 望星会　小岩駅前診療所","categoryId":"medical","categoryLabel":"医疗","lat":35.73438,"lng":139.881716,"stationId":"station-003360","note":"消　外　内　肛","count":1,"level":"detail"},{"id":"medical-2-5191","name":"医療法人社団 杏泉会 　つかもと眼科クリニック","categoryId":"medical","categoryLabel":"医疗","lat":35.732614,"lng":139.890434,"stationId":"station-003331","note":"眼　小眼","count":1,"level":"detail"},{"id":"medical-2-5192","name":"医療法人社団 杏泉会 　塚本医院","categoryId":"medical","categoryLabel":"医疗","lat":35.732706,"lng":139.890627,"stationId":"station-003331","note":"内　小　リハ","count":1,"level":"detail"},{"id":"medical-3-5696","name":"医療法人社団 瑞穂会　黒木歯科医院","categoryId":"medical","categoryLabel":"医疗","lat":35.726274,"lng":139.881179,"stationId":"station-003360","note":"歯　小歯　矯歯　口腔","count":1,"level":"detail"},{"id":"medical-2-5567","name":"医療法人社団 秀明会　高地眼科医院","categoryId":"medical","categoryLabel":"医疗","lat":35.733329,"lng":139.883412,"stationId":"station-003360","note":"眼","count":1,"level":"detail"},{"id":"medical-2-6062","name":"医療法人社団 翼衛会　速水医院","categoryId":"medical","categoryLabel":"医疗","lat":35.743935,"lng":139.88705,"stationId":"station-003303","note":"内　消　循　心内","count":1,"level":"detail"},{"id":"medical-2-5184","name":"医療法人社団 茜遥会　目々澤醫院","categoryId":"medical","categoryLabel":"医疗","lat":35.740428,"lng":139.892511,"stationId":"station-003331","note":"内　小　神内　耳","count":1,"level":"detail"},{"id":"medical-3-5382","name":"医療法人社団 賢聖会　北小岩歯科クリニック","categoryId":"medical","categoryLabel":"医疗","lat":35.738413,"lng":139.892348,"stationId":"station-003331","note":"歯　小歯","count":1,"level":"detail"},{"id":"medical-2-5242","name":"医療法人社団 黄耆会　京谷医院","categoryId":"medical","categoryLabel":"医疗","lat":35.743159,"lng":139.884994,"stationId":"station-003303","note":"内　小　神内","count":1,"level":"detail"},{"id":"medical-2-5101","name":"医療法人社団 ｴﾑﾕｰ会　あおぞら眼科クリニック小岩","categoryId":"medical","categoryLabel":"医疗","lat":35.727718,"lng":139.881748,"stationId":"station-003360","note":"眼　皮","count":1,"level":"detail"},{"id":"medical-2-5092","name":"医療法人社団　あさかぜ会　北小岩胃腸科クリニック","categoryId":"medical","categoryLabel":"医疗","lat":35.742331,"lng":139.892012,"stationId":"station-003331","note":"内　消　胃　外　肛","count":1,"level":"detail"},{"id":"medical-2-5926","name":"医療法人社団　二誠会　村上診療所","categoryId":"medical","categoryLabel":"医疗","lat":35.735,"lng":139.880226,"stationId":"station-003360","note":"内　精　神　心内","count":1,"level":"detail"},{"id":"medical-3-5377","name":"医療法人社団　健佑会　昭和通り歯科","categoryId":"medical","categoryLabel":"医疗","lat":35.731226,"lng":139.88437,"stationId":"station-003360","note":"歯　小歯　矯歯　口腔","count":1,"level":"detail"},{"id":"medical-2-5913","name":"医療法人社団　同仁内科医院","categoryId":"medical","categoryLabel":"医疗","lat":35.743047,"lng":139.886409,"stationId":"station-003303","note":"内　消　胃","count":1,"level":"detail"},{"id":"medical-2-5295","name":"医療法人社団　宮下医院","categoryId":"medical","categoryLabel":"医疗","lat":35.732202,"lng":139.883673,"stationId":"station-003360","note":"整　消　胃　内　外　リハ","count":1,"level":"detail"},{"id":"medical-2-5499","name":"医療法人社団　山﨑耳鼻咽喉科診療所","categoryId":"medical","categoryLabel":"医疗","lat":35.743596,"lng":139.883622,"stationId":"station-003303","note":"耳　気","count":1,"level":"detail"},{"id":"medical-2-5535","name":"医療法人社団　慈陽会　福田医院","categoryId":"medical","categoryLabel":"医疗","lat":35.730695,"lng":139.876566,"stationId":"station-003360","note":"胃内　内　外","count":1,"level":"detail"},{"id":"medical-2-5434","name":"医療法人社団　晃勲会　白石医院","categoryId":"medical","categoryLabel":"医疗","lat":35.730693,"lng":139.889941,"stationId":"station-003360","note":"内　小","count":1,"level":"detail"},{"id":"medical-2-5847","name":"医療法人社団　智那会　すみれ皮膚科クリニック","categoryId":"medical","categoryLabel":"医疗","lat":35.734937,"lng":139.88121,"stationId":"station-003360","note":"皮　アレ　形","count":1,"level":"detail"},{"id":"medical-3-5622","name":"医療法人社団　松伯会　フラワーロード歯科","categoryId":"medical","categoryLabel":"医疗","lat":35.729005,"lng":139.881761,"stationId":"station-003360","note":"歯　小歯　矯歯　口腔","count":1,"level":"detail"},{"id":"medical-3-5733","name":"医療法人社団　正路会　すみれ歯科小岩メディカルセンタークリニック","categoryId":"medical","categoryLabel":"医疗","lat":35.742467,"lng":139.884347,"stationId":"station-003303","note":"歯　小歯　矯歯　口腔","count":1,"level":"detail"},{"id":"medical-3-5224","name":"医療法人社団　永全会　ならはし歯科医院","categoryId":"medical","categoryLabel":"医疗","lat":35.738245,"lng":139.895842,"stationId":"station-003331","note":"歯　小歯","count":1,"level":"detail"},{"id":"medical-2-5816","name":"医療法人社団　泰正会　成光堂クリニック","categoryId":"medical","categoryLabel":"医疗","lat":35.741779,"lng":139.88291,"stationId":"station-003303","note":"内科　小児科　整形外科","count":1,"level":"detail"},{"id":"medical-2-5500","name":"医療法人社団　燦明会　大木クリニック","categoryId":"medical","categoryLabel":"医疗","lat":35.734734,"lng":139.883189,"stationId":"station-003360","note":"内　小　消　循　リハ","count":1,"level":"detail"},{"id":"medical-2-5303","name":"医療法人社団　玉城医院","categoryId":"medical","categoryLabel":"医疗","lat":35.733778,"lng":139.885811,"stationId":"station-003360","note":"内　小　消　胃　呼　循　糖内","count":1,"level":"detail"},{"id":"medical-2-6065","name":"医療法人社団　理弘会　いわくらこどもクリニック","categoryId":"medical","categoryLabel":"医疗","lat":35.732592,"lng":139.883038,"stationId":"station-003360","note":"小","count":1,"level":"detail"},{"id":"medical-1-6066","name":"医療法人社団　理弘会　岩倉病院","categoryId":"medical","categoryLabel":"医疗","lat":35.732456,"lng":139.883261,"stationId":"station-003360","note":"産科　婦人科　麻酔科","count":1,"level":"detail"},{"id":"medical-2-5693","name":"医療法人社団　瑞香会　小岩ゆうあいクリニック","categoryId":"medical","categoryLabel":"医疗","lat":35.738014,"lng":139.874633,"stationId":"station-003360","note":"内科　人工透析内科","count":1,"level":"detail"},{"id":"medical-2-5749","name":"医療法人社団　生生会　生生医院","categoryId":"medical","categoryLabel":"医疗","lat":35.737082,"lng":139.883657,"stationId":"station-003360","note":"内　小","count":1,"level":"detail"},{"id":"medical-3-5634","name":"医療法人社団　祥仁会　小岩歯科医院","categoryId":"medical","categoryLabel":"医疗","lat":35.734384,"lng":139.88062,"stationId":"station-003360","note":"歯　小歯　口外","count":1,"level":"detail"},{"id":"medical-2-5471","name":"医療法人社団　笹川胃腸内科・石川歯科　笹川胃腸内科・石川歯科","categoryId":"medical","categoryLabel":"医疗","lat":35.733369,"lng":139.88364,"stationId":"station-003360","note":"内　胃内　肛外　皮　歯","count":1,"level":"detail"},{"id":"medical-2-5957","name":"医療法人社団　美礼会　すぎやま耳鼻咽喉科クリニック","categoryId":"medical","categoryLabel":"医疗","lat":35.733048,"lng":139.880751,"stationId":"station-003360","note":"耳","count":1,"level":"detail"},{"id":"medical-3-5183","name":"医療法人社団　茜遥会　みやび歯科","categoryId":"medical","categoryLabel":"医疗","lat":35.740506,"lng":139.89272,"stationId":"station-003331","note":"歯　小歯　矯歯","count":1,"level":"detail"},{"id":"medical-2-5988","name":"医療法人社団　萌生会　小岩ひとみクリニック","categoryId":"medical","categoryLabel":"医疗","lat":35.73307,"lng":139.884647,"stationId":"station-003360","note":"精　心内","count":1,"level":"detail"},{"id":"medical-2-5316","name":"医療法人社団　金本皮膚科","categoryId":"medical","categoryLabel":"医疗","lat":35.731191,"lng":139.882791,"stationId":"station-003360","note":"皮","count":1,"level":"detail"},{"id":"medical-2-5856","name":"医療法人社団　長栄会　長栄クリニック","categoryId":"medical","categoryLabel":"医疗","lat":35.735337,"lng":139.881239,"stationId":"station-003360","note":"内　精　神","count":1,"level":"detail"},{"id":"medical-2-6609","name":"医療法人社団つむぎ会　守島医院","categoryId":"medical","categoryLabel":"医疗","lat":35.733786,"lng":139.878311,"stationId":"station-003360","note":"整外　リハ　内","count":1,"level":"detail"},{"id":"medical-2-6759","name":"医療法人社団まめの木会　まめの木クリニック","categoryId":"medical","categoryLabel":"医疗","lat":35.733563,"lng":139.888527,"stationId":"station-003360","note":"精　児童精神","count":1,"level":"detail"},{"id":"medical-3-6323","name":"医療法人社団アーツ会　アーツ歯科","categoryId":"medical","categoryLabel":"医疗","lat":35.731108,"lng":139.881219,"stationId":"station-003360","note":"歯　小歯　矯正　口腔","count":1,"level":"detail"},{"id":"medical-3-7524","name":"医療法人社団健晃会　ひまわり歯科クリニック","categoryId":"medical","categoryLabel":"医疗","lat":35.737806,"lng":139.883875,"stationId":"station-003303","note":"歯　小歯　矯歯　口外","count":1,"level":"detail"},{"id":"medical-3-10139","name":"医療法人社団友秀会　川崎歯科医院","categoryId":"medical","categoryLabel":"医疗","lat":35.746338,"lng":139.884028,"stationId":"station-003303","note":"歯","count":1,"level":"detail"},{"id":"medical-2-7356","name":"医療法人社団啓翔会　黒木整形外科内科クリニック","categoryId":"medical","categoryLabel":"医疗","lat":35.741416,"lng":139.870751,"stationId":"station-003248","note":"整形外科　リハビリテーション科　内科　外科　放射線科　精神科","count":1,"level":"detail"},{"id":"medical-2-9485","name":"医療法人社団天辰会　やまと整形外科","categoryId":"medical","categoryLabel":"医疗","lat":35.731284,"lng":139.881712,"stationId":"station-003360","note":"整外　リハ　内　皮","count":1,"level":"detail"},{"id":"medical-3-8454","name":"医療法人社団彰正会　萩原歯科医院","categoryId":"medical","categoryLabel":"医疗","lat":35.738447,"lng":139.887372,"stationId":"station-003303","note":"歯　矯正　小歯　口腔","count":1,"level":"detail"},{"id":"medical-2-10008","name":"医療法人社団明善会　小岩榎本クリニック","categoryId":"medical","categoryLabel":"医疗","lat":35.734019,"lng":139.880688,"stationId":"station-003360","note":"精　心内　内","count":1,"level":"detail"},{"id":"medical-3-7009","name":"医療法人社団栄昂会　細田歯科医院","categoryId":"medical","categoryLabel":"医疗","lat":35.741294,"lng":139.874158,"stationId":"station-003303","note":"歯　小歯　矯歯","count":1,"level":"detail"},{"id":"medical-2-7140","name":"医療法人社団海風会　西小岩ファミリークリニック","categoryId":"medical","categoryLabel":"医疗","lat":35.739081,"lng":139.880905,"stationId":"station-003303","note":"内　消内　老内　小　リハ","count":1,"level":"detail"},{"id":"medical-2-7893","name":"医療法人社団甲藍会　甲田医院","categoryId":"medical","categoryLabel":"医疗","lat":35.747176,"lng":139.874754,"stationId":"station-003244","note":"小　内　リハ","count":1,"level":"detail"},{"id":"medical-2-7897","name":"医療法人社団皇漢会　東洋堂医院","categoryId":"medical","categoryLabel":"医疗","lat":35.744456,"lng":139.881395,"stationId":"station-003303","note":"内","count":1,"level":"detail"},{"id":"medical-3-6142","name":"医療法人社団Ｃｏｍｐａｓｓｉｏｎ　宇田川歯科医院","categoryId":"medical","categoryLabel":"医疗","lat":35.726081,"lng":139.882877,"stationId":"station-003360","note":"歯　小歯　矯歯","count":1,"level":"detail"},{"id":"medical-2-6245","name":"医療法人社団ＭＸＰＧレッツメディカルガーデンクリニック","categoryId":"medical","categoryLabel":"医疗","lat":35.738395,"lng":139.875532,"stationId":"station-003360","note":"内科　精神科","count":1,"level":"detail"},{"id":"medical-2-4888","name":"医療法人財団  岩井医療財団　岩井ＦＥＳＳクリニック","categoryId":"medical","categoryLabel":"医疗","lat":35.733596,"lng":139.884956,"stationId":"station-003360","note":"整外　脳神経外科","count":1,"level":"detail"},{"id":"medical-2-4922","name":"医療法人財団 松圓会　東葛クリニック小岩","categoryId":"medical","categoryLabel":"医疗","lat":35.732246,"lng":139.88388,"stationId":"station-003360","note":"透内","count":1,"level":"detail"},{"id":"medical-1-4899","name":"医療法人財団　岩井医療財団　岩井整形外科内科病院","categoryId":"medical","categoryLabel":"医疗","lat":35.733751,"lng":139.884936,"stationId":"station-003360","note":"内科　消化器内科　循環器内科　リウマチ科　整形外科　婦人科　リハビリ科　放射線科　麻酔科","count":1,"level":"detail"},{"id":"medical-3-12462","name":"原歯科医院","categoryId":"medical","categoryLabel":"医疗","lat":35.743052,"lng":139.884981,"stationId":"station-003303","note":"歯　小歯","count":1,"level":"detail"},{"id":"medical-2-11708","name":"吉岡医院","categoryId":"medical","categoryLabel":"医疗","lat":35.727039,"lng":139.880347,"stationId":"station-003360","note":"小　産婦　心内　精神","count":1,"level":"detail"},{"id":"medical-3-17988","name":"土谷歯科医院","categoryId":"medical","categoryLabel":"医疗","lat":35.730775,"lng":139.882489,"stationId":"station-003360","note":"歯　小歯","count":1,"level":"detail"},{"id":"medical-3-17092","name":"大和田歯科","categoryId":"medical","categoryLabel":"医疗","lat":35.743553,"lng":139.883748,"stationId":"station-003303","note":"歯","count":1,"level":"detail"},{"id":"medical-3-16976","name":"大津歯科医院","categoryId":"medical","categoryLabel":"医疗","lat":35.742255,"lng":139.884799,"stationId":"station-003303","note":"歯","count":1,"level":"detail"},{"id":"medical-3-13806","name":"子安歯科医院","categoryId":"medical","categoryLabel":"医疗","lat":35.730137,"lng":139.875418,"stationId":"station-003360","note":"歯　小歯","count":1,"level":"detail"},{"id":"medical-3-19785","name":"宝田歯科","categoryId":"medical","categoryLabel":"医疗","lat":35.731771,"lng":139.884145,"stationId":"station-003360","note":"歯　矯歯","count":1,"level":"detail"},{"id":"medical-3-19786","name":"宝田歯科医院","categoryId":"medical","categoryLabel":"医疗","lat":35.741094,"lng":139.8839,"stationId":"station-003303","note":"歯","count":1,"level":"detail"},{"id":"medical-3-11951","name":"宮本歯科医院","categoryId":"medical","categoryLabel":"医疗","lat":35.732172,"lng":139.884945,"stationId":"station-003360","note":"歯","count":1,"level":"detail"},{"id":"medical-3-14465","name":"小岩デンタルクリニック","categoryId":"medical","categoryLabel":"医疗","lat":35.733537,"lng":139.880956,"stationId":"station-003360","note":"歯　小歯　矯歯","count":1,"level":"detail"},{"id":"medical-2-14466","name":"小岩レディースクリニック","categoryId":"medical","categoryLabel":"医疗","lat":35.744563,"lng":139.884114,"stationId":"station-003303","note":"産婦","count":1,"level":"detail"},{"id":"medical-2-14467","name":"小岩医院","categoryId":"medical","categoryLabel":"医疗","lat":35.735035,"lng":139.889481,"stationId":"station-003331","note":"内　小　リハ　皮","count":1,"level":"detail"},{"id":"medical-3-14468","name":"小岩駅前歯科","categoryId":"medical","categoryLabel":"医疗","lat":35.732921,"lng":139.88248,"stationId":"station-003360","note":"歯　口外","count":1,"level":"detail"},{"id":"medical-3-14715","name":"小林歯科医院","categoryId":"medical","categoryLabel":"医疗","lat":35.740391,"lng":139.87151,"stationId":"station-003303","note":"歯","count":1,"level":"detail"},{"id":"medical-2-14530","name":"小菅眼科","categoryId":"medical","categoryLabel":"医疗","lat":35.736198,"lng":139.878108,"stationId":"station-003360","note":"眼","count":1,"level":"detail"},{"id":"medical-3-14658","name":"小野寺歯科医院","categoryId":"medical","categoryLabel":"医疗","lat":35.726324,"lng":139.883852,"stationId":"station-003360","note":"歯　小歯","count":1,"level":"detail"},{"id":"medical-2-13729","name":"山本医院","categoryId":"medical","categoryLabel":"医疗","lat":35.733351,"lng":139.879257,"stationId":"station-003360","note":"泌　皮　ｱﾚ　形","count":1,"level":"detail"},{"id":"medical-3-11049","name":"岡本歯科医院","categoryId":"medical","categoryLabel":"医疗","lat":35.742113,"lng":139.8826,"stationId":"station-003303","note":"歯　小歯　矯歯　口外","count":1,"level":"detail"},{"id":"medical-3-11037","name":"岡部歯科","categoryId":"medical","categoryLabel":"医疗","lat":35.727848,"lng":139.888122,"stationId":"station-003360","note":"歯　小歯　口外","count":1,"level":"detail"},{"id":"medical-2-18515","name":"徳永医院","categoryId":"medical","categoryLabel":"医疗","lat":35.725083,"lng":139.885763,"stationId":"station-003360","note":"内　外　小","count":1,"level":"detail"},{"id":"medical-2-12333","name":"恵仁堂医院","categoryId":"medical","categoryLabel":"医疗","lat":35.728138,"lng":139.888701,"stationId":"station-003360","note":"内　小　呼内　消内　循内　皮","count":1,"level":"detail"},{"id":"medical-3-15237","name":"新出歯科医院","categoryId":"medical","categoryLabel":"医疗","lat":35.731437,"lng":139.876317,"stationId":"station-003360","note":"歯　矯歯","count":1,"level":"detail"},{"id":"medical-3-12038","name":"暁歯科医院","categoryId":"medical","categoryLabel":"医疗","lat":35.736367,"lng":139.87967,"stationId":"station-003360","note":"歯　小歯　口外","count":1,"level":"detail"},{"id":"medical-3-20172","name":"木村歯科医院","categoryId":"medical","categoryLabel":"医疗","lat":35.733716,"lng":139.878311,"stationId":"station-003360","note":"歯　小歯　矯歯　口外","count":1,"level":"detail"},{"id":"medical-3-15568","name":"杉崎歯科医院","categoryId":"medical","categoryLabel":"医疗","lat":35.731135,"lng":139.883764,"stationId":"station-003360","note":"歯","count":1,"level":"detail"},{"id":"medical-3-15579","name":"杉森歯科医院","categoryId":"medical","categoryLabel":"医疗","lat":35.745125,"lng":139.883602,"stationId":"station-003303","note":"歯","count":1,"level":"detail"},{"id":"medical-3-20390","name":"柳沼歯科","categoryId":"medical","categoryLabel":"医疗","lat":35.736736,"lng":139.883839,"stationId":"station-003360","note":"歯　小歯","count":1,"level":"detail"},{"id":"medical-3-10828","name":"永井歯科","categoryId":"medical","categoryLabel":"医疗","lat":35.727385,"lng":139.881163,"stationId":"station-003360","note":"歯","count":1,"level":"detail"},{"id":"medical-2-12776","name":"江戸川プラスクリニック","categoryId":"medical","categoryLabel":"医疗","lat":35.731189,"lng":139.892815,"stationId":"station-003331","note":"内","count":1,"level":"detail"},{"id":"medical-2-12789","name":"江戸川中央医院","categoryId":"medical","categoryLabel":"医疗","lat":35.728743,"lng":139.884184,"stationId":"station-003360","note":"内　循　消","count":1,"level":"detail"},{"id":"medical-2-12785","name":"江戸川区小岩健康サポ-トセンター","categoryId":"medical","categoryLabel":"医疗","lat":35.733819,"lng":139.893966,"stationId":"station-003331","note":"内　小　歯","count":1,"level":"detail"},{"id":"medical-3-15755","name":"清水歯科医院","categoryId":"medical","categoryLabel":"医疗","lat":35.745858,"lng":139.880563,"stationId":"station-003303","note":"歯","count":1,"level":"detail"},{"id":"medical-2-17901","name":"渡辺クリニック","categoryId":"medical","categoryLabel":"医疗","lat":35.72553,"lng":139.883078,"stationId":"station-003360","note":"内　小","count":1,"level":"detail"},{"id":"medical-2-18977","name":"熱田内科医院","categoryId":"medical","categoryLabel":"医疗","lat":35.737454,"lng":139.896312,"stationId":"station-003331","note":"内　小","count":1,"level":"detail"},{"id":"medical-3-19761","name":"片上歯科医院","categoryId":"medical","categoryLabel":"医疗","lat":35.734573,"lng":139.876015,"stationId":"station-003360","note":"歯","count":1,"level":"detail"},{"id":"medical-2-18531","name":"特定非営利活動法人希少難病ネットつながる　つむぐクリニック","categoryId":"medical","categoryLabel":"医疗","lat":35.729637,"lng":139.885469,"stationId":"station-003360","note":"内","count":1,"level":"detail"},{"id":"medical-3-12040","name":"玉城歯科医院","categoryId":"medical","categoryLabel":"医疗","lat":35.734224,"lng":139.88844,"stationId":"station-003360","note":"歯","count":1,"level":"detail"},{"id":"medical-2-12047","name":"玉置医院","categoryId":"medical","categoryLabel":"医疗","lat":35.725265,"lng":139.885132,"stationId":"station-003360","note":"内　小","count":1,"level":"detail"},{"id":"medical-3-17835","name":"田中歯科医院","categoryId":"medical","categoryLabel":"医疗","lat":35.742481,"lng":139.892028,"stationId":"station-003331","note":"歯　小歯　口外","count":1,"level":"detail"},{"id":"medical-3-17839","name":"田中歯科医院","categoryId":"medical","categoryLabel":"医疗","lat":35.730296,"lng":139.887885,"stationId":"station-003360","note":"歯","count":1,"level":"detail"},{"id":"medical-2-17810","name":"田中眼科","categoryId":"medical","categoryLabel":"医疗","lat":35.742566,"lng":139.883726,"stationId":"station-003303","note":"眼","count":1,"level":"detail"},{"id":"medical-3-17780","name":"田村歯科医院","categoryId":"medical","categoryLabel":"医疗","lat":35.73088,"lng":139.886126,"stationId":"station-003360","note":"歯","count":1,"level":"detail"},{"id":"medical-2-17556","name":"町沢メンタルクリニック","categoryId":"medical","categoryLabel":"医疗","lat":35.734234,"lng":139.882592,"stationId":"station-003360","note":"精　心内　神","count":1,"level":"detail"},{"id":"medical-2-11309","name":"皆川内科小児科","categoryId":"medical","categoryLabel":"医疗","lat":35.74215,"lng":139.883272,"stationId":"station-003303","note":"内　小　皮　婦","count":1,"level":"detail"},{"id":"medical-3-16132","name":"石川デンタルクリニック","categoryId":"medical","categoryLabel":"医疗","lat":35.743136,"lng":139.881595,"stationId":"station-003303","note":"歯　小歯　口外","count":1,"level":"detail"},{"id":"medical-2-14126","name":"社会福祉法人　仁生社　メディカルプラザ江戸川","categoryId":"medical","categoryLabel":"医疗","lat":35.72809,"lng":139.891656,"stationId":"station-003360","note":"内　呼内　循内　消内　神内　外　心血外　乳腺外　肛外　整外　脳外　形外　小　皮　泌　眼　リハ　放　麻　呼外　糖内　血管外　腫血内　消外　美形外　耳鼻咽喉科","count":1,"level":"detail"},{"id":"medical-1-14127","name":"社会福祉法人　仁生社　江戸川病院","categoryId":"medical","categoryLabel":"医疗","lat":35.72851,"lng":139.893188,"stationId":"station-003331","note":"内科　呼吸器科　消化器科　循環器科　小児科　神経内科　外科　整形外科　脳神経外科　心臓血管外科　婦人科　皮膚科　泌尿器科　肛門科　リハビリ科　放射線科　麻酔科　耳鼻咽喉科　頭頸部外科　糖尿病内科　腫瘍血液内科　呼吸器外科　消化器外科　乳腺外科　血管外科","count":1,"level":"detail"},{"id":"medical-2-14110","name":"社会福祉法人　光照園　江戸川光照苑診療所","categoryId":"medical","categoryLabel":"医疗","lat":35.74042,"lng":139.887748,"stationId":"station-003303","note":"内","count":1,"level":"detail"},{"id":"medical-2-14132","name":"社会福祉法人　善光会　特別養護老人ホーム　バタフライヒル細田診療室","categoryId":"medical","categoryLabel":"医疗","lat":35.742503,"lng":139.872646,"stationId":"station-003303","note":"内科","count":1,"level":"detail"},{"id":"medical-2-14140","name":"社会福祉法人　白秋会　特別養護老人ホーム泰山診療所","categoryId":"medical","categoryLabel":"医疗","lat":35.73958,"lng":139.892036,"stationId":"station-003331","note":"内","count":1,"level":"detail"},{"id":"medical-3-11371","name":"笠原デンタルオフィス","categoryId":"medical","categoryLabel":"医疗","lat":35.731476,"lng":139.883985,"stationId":"station-003360","note":"歯　小歯　矯歯　口外","count":1,"level":"detail"},{"id":"medical-3-14028","name":"篠崎歯科医院","categoryId":"medical","categoryLabel":"医疗","lat":35.728191,"lng":139.883302,"stationId":"station-003360","note":"歯","count":1,"level":"detail"},{"id":"medical-2-14036","name":"篠﨑医院","categoryId":"medical","categoryLabel":"医疗","lat":35.734354,"lng":139.881055,"stationId":"station-003360","note":"内　呼　皮　性","count":1,"level":"detail"},{"id":"medical-2-15777","name":"精美スキンケアクリニック","categoryId":"medical","categoryLabel":"医疗","lat":35.735092,"lng":139.882765,"stationId":"station-003360","note":"美外　美皮　形外　皮　内","count":1,"level":"detail"},{"id":"medical-3-12843","name":"紅谷歯科","categoryId":"medical","categoryLabel":"医疗","lat":35.728824,"lng":139.880047,"stationId":"station-003360","note":"歯","count":1,"level":"detail"},{"id":"medical-3-20506","name":"落合歯科医院","categoryId":"medical","categoryLabel":"医疗","lat":35.735871,"lng":139.882458,"stationId":"station-003360","note":"歯","count":1,"level":"detail"},{"id":"medical-2-18443","name":"藤医院","categoryId":"medical","categoryLabel":"医疗","lat":35.736869,"lng":139.878242,"stationId":"station-003360","note":"内　産婦　小","count":1,"level":"detail"},{"id":"medical-3-15843","name":"西小岩歯科クリニック","categoryId":"medical","categoryLabel":"医疗","lat":35.741033,"lng":139.878087,"stationId":"station-003303","note":"歯　小歯　矯歯　口外","count":1,"level":"detail"},{"id":"medical-3-15883","name":"西川歯科医院","categoryId":"medical","categoryLabel":"医疗","lat":35.728058,"lng":139.88637,"stationId":"station-003360","note":"歯","count":1,"level":"detail"},{"id":"medical-3-15953","name":"西平デンタルクリニック","categoryId":"medical","categoryLabel":"医疗","lat":35.73777,"lng":139.890106,"stationId":"station-003331","note":"歯　口外　小歯　矯歯","count":1,"level":"detail"},{"id":"medical-2-16243","name":"赤上医院","categoryId":"medical","categoryLabel":"医疗","lat":35.730768,"lng":139.882001,"stationId":"station-003360","note":"耳","count":1,"level":"detail"},{"id":"medical-2-10899","name":"遠藤内科医院","categoryId":"medical","categoryLabel":"医疗","lat":35.73122,"lng":139.881344,"stationId":"station-003360","note":"内　循","count":1,"level":"detail"},{"id":"medical-3-20304","name":"野村歯科医院","categoryId":"medical","categoryLabel":"医疗","lat":35.741622,"lng":139.891035,"stationId":"station-003331","note":"歯　小歯　矯歯","count":1,"level":"detail"},{"id":"medical-3-20323","name":"野田歯科医院","categoryId":"medical","categoryLabel":"医疗","lat":35.736699,"lng":139.88188,"stationId":"station-003360","note":"歯","count":1,"level":"detail"},{"id":"medical-2-20340","name":"野﨑内科医院","categoryId":"medical","categoryLabel":"医疗","lat":35.744295,"lng":139.874564,"stationId":"station-003303","note":"内　小　リハ","count":1,"level":"detail"},{"id":"medical-2-11475","name":"鎌倉医院","categoryId":"medical","categoryLabel":"医疗","lat":35.747298,"lng":139.879973,"stationId":"station-003244","note":"内　胃","count":1,"level":"detail"},{"id":"medical-2-17596","name":"長山医院","categoryId":"medical","categoryLabel":"医疗","lat":35.734718,"lng":139.877681,"stationId":"station-003360","note":"内　小　胃　循　放　呼","count":1,"level":"detail"},{"id":"medical-3-17619","name":"長谷部歯科医院","categoryId":"medical","categoryLabel":"医疗","lat":35.731677,"lng":139.88182,"stationId":"station-003360","note":"歯","count":1,"level":"detail"},{"id":"medical-3-11507","name":"関根歯科医院","categoryId":"medical","categoryLabel":"医疗","lat":35.734586,"lng":139.88092,"stationId":"station-003360","note":"歯　小歯","count":1,"level":"detail"},{"id":"medical-2-20492","name":"養命閣医院","categoryId":"medical","categoryLabel":"医疗","lat":35.731566,"lng":139.879975,"stationId":"station-003360","note":"内　小　婦　皮","count":1,"level":"detail"},{"id":"medical-3-14013","name":"鹿野歯科医院","categoryId":"medical","categoryLabel":"医疗","lat":35.741062,"lng":139.883621,"stationId":"station-003303","note":"歯","count":1,"level":"detail"},{"id":"medical-3-1091","name":"ｴｽｶｲｱ歯科医院","categoryId":"medical","categoryLabel":"医疗","lat":35.743207,"lng":139.883186,"stationId":"station-003303","note":"歯　小歯","count":1,"level":"detail"},{"id":"public-13123-22443","name":"上一色コミュニティセンター","categoryId":"public_service","categoryLabel":"公共服务","lat":35.725591,"lng":139.872521,"stationId":"station-003360","note":"江戸川区上一色2-6-10","count":1,"level":"detail"},{"id":"public-13123-22442","name":"上一色南会館","categoryId":"public_service","categoryLabel":"公共服务","lat":35.725397,"lng":139.873049,"stationId":"station-003360","note":"江戸川区上一色2-5-17","count":1,"level":"detail"},{"id":"public-13123-22496","name":"下小岩会館","categoryId":"public_service","categoryLabel":"公共服务","lat":35.726705,"lng":139.882862,"stationId":"station-003360","note":"江戸川区南小岩7-6-19","count":1,"level":"detail"},{"id":"public-13123-22509","name":"北小岩コミュニティ会館","categoryId":"public_service","categoryLabel":"公共服务","lat":35.742203,"lng":139.886975,"stationId":"station-003303","note":"江戸川区北小岩6-35-17","count":1,"level":"detail"},{"id":"public-13123-22495","name":"南小岩コミュニティ会館","categoryId":"public_service","categoryLabel":"公共服务","lat":35.730444,"lng":139.881829,"stationId":"station-003360","note":"江戸川区南小岩7-17-10","count":1,"level":"detail"},{"id":"public-13123-22493","name":"南小岩会館","categoryId":"public_service","categoryLabel":"公共服务","lat":35.725016,"lng":139.888403,"stationId":"station-003360","note":"江戸川区南小岩3-25-19","count":1,"level":"detail"},{"id":"public-13123-22494","name":"南小岩司会館","categoryId":"public_service","categoryLabel":"公共服务","lat":35.725341,"lng":139.884739,"stationId":"station-003360","note":"江戸川区南小岩3-6-13","count":1,"level":"detail"},{"id":"public-13123-22441","name":"小岩くすのきカルチャーセンター","categoryId":"public_service","categoryLabel":"公共服务","lat":35.727653,"lng":139.892337,"stationId":"station-003360","note":"江戸川区東小岩2-6-22","count":1,"level":"detail"},{"id":"public-13123-22508","name":"小岩アーバンプラザ","categoryId":"public_service","categoryLabel":"公共服务","lat":35.735715,"lng":139.892455,"stationId":"station-003331","note":"江戸川区北小岩1-17-1","count":1,"level":"detail"},{"id":"public-13123-22483","name":"小岩事務所","categoryId":"public_service","categoryLabel":"公共服务","lat":35.73389,"lng":139.88805,"stationId":"station-003360","note":"江戸川区東小岩6-9-14","count":1,"level":"detail"},{"id":"public-13123-22447","name":"小岩健康サポートセンター","categoryId":"public_service","categoryLabel":"公共服务","lat":35.733747,"lng":139.893953,"stationId":"station-003331","note":"江戸川区東小岩3-23-3","count":1,"level":"detail"},{"id":"public-13122-22350","name":"細田集い交流館","categoryId":"public_service","categoryLabel":"公共服务","lat":35.741128,"lng":139.873353,"stationId":"station-003303","note":"葛飾区細田4-23-5","count":1,"level":"detail"},{"id":"public-13123-22456","name":"西小岩コミュニティ会館","categoryId":"public_service","categoryLabel":"公共服务","lat":35.737264,"lng":139.880145,"stationId":"station-003360","note":"江戸川区西小岩4-3-22","count":1,"level":"detail"},{"id":"public-13123-22454","name":"西小岩三丁目会館","categoryId":"public_service","categoryLabel":"公共服务","lat":35.738042,"lng":139.877742,"stationId":"station-003360","note":"江戸川区西小岩3-27-13","count":1,"level":"detail"},{"id":"public-13123-22455","name":"西小岩会館","categoryId":"public_service","categoryLabel":"公共服务","lat":35.73474,"lng":139.879239,"stationId":"station-003360","note":"江戸川区西小岩3-30-16","count":1,"level":"detail"},{"id":"public-13122-22336","name":"鎌倉憩い交流館","categoryId":"public_service","categoryLabel":"公共服务","lat":35.745277,"lng":139.874475,"stationId":"station-003244","note":"葛飾区鎌倉2-6-20","count":1,"level":"detail"}]
