[{"id":"medical-3-553","name":"あきらデンタルクリニック","categoryId":"medical","categoryLabel":"医疗","lat":35.70027,"lng":139.907,"stationId":"station-003565","note":"歯　小歯　矯歯　口外","count":1,"level":"detail"},{"id":"medical-3-1359","name":"おもいやり歯科オリーブハウス","categoryId":"medical","categoryLabel":"医疗","lat":35.705758,"lng":139.905717,"stationId":"station-003565","note":"歯　小歯","count":1,"level":"detail"},{"id":"medical-3-2743","name":"たむら歯科","categoryId":"medical","categoryLabel":"医疗","lat":35.709338,"lng":139.905791,"stationId":"station-003565","note":"歯　小歯　矯歯　口外","count":1,"level":"detail"},{"id":"medical-2-3296","name":"のりこ小児科医院","categoryId":"medical","categoryLabel":"医疗","lat":35.701555,"lng":139.912393,"stationId":"station-003565","note":"小","count":1,"level":"detail"},{"id":"medical-3-4316","name":"やまざき歯科医院","categoryId":"medical","categoryLabel":"医疗","lat":35.706978,"lng":139.905689,"stationId":"station-003565","note":"歯　小歯","count":1,"level":"detail"},{"id":"medical-2-10684","name":"一志胃腸科クリニック","categoryId":"medical","categoryLabel":"医疗","lat":35.707036,"lng":139.9058,"stationId":"station-003565","note":"外　消外　肛外　内　消肝内","count":1,"level":"detail"},{"id":"medical-3-17392","name":"中川歯科医院","categoryId":"medical","categoryLabel":"医疗","lat":35.709298,"lng":139.907746,"stationId":"station-003565","note":"歯","count":1,"level":"detail"},{"id":"medical-3-13926","name":"児玉歯科医院","categoryId":"medical","categoryLabel":"医疗","lat":35.700762,"lng":139.912957,"stationId":"station-003565","note":"歯　小歯　矯歯　口外","count":1,"level":"detail"},{"id":"medical-2-5637","name":"医療法人社団　城東桐和会　東京さくらクリニック","categoryId":"medical","categoryLabel":"医疗","lat":35.701074,"lng":139.916651,"stationId":"station-003565","note":"内　精","count":1,"level":"detail"},{"id":"medical-2-5444","name":"医療法人社団　香雪会　香雪医院","categoryId":"medical","categoryLabel":"医疗","lat":35.70438,"lng":139.905327,"stationId":"station-003565","note":"内　整　ﾘﾊ　外　老精　救","count":1,"level":"detail"},{"id":"medical-1-18087","name":"東京さくら病院","categoryId":"medical","categoryLabel":"医疗","lat":35.701436,"lng":139.916287,"stationId":"station-003565","note":"内科　緩和ケア内科　リハビリ科　精神科　歯科","count":1,"level":"detail"},{"id":"medical-3-16110","name":"石坂歯科","categoryId":"medical","categoryLabel":"医疗","lat":35.700751,"lng":139.91293,"stationId":"station-003565","note":"歯","count":1,"level":"detail"},{"id":"public-13123-22423","name":"篠崎三丁目仲町会館","categoryId":"public_service","categoryLabel":"公共服务","lat":35.705509,"lng":139.910008,"stationId":"station-003565","note":"江戸川区篠崎町3-3-7","count":1,"level":"detail"}]
